[
  {
    "county_slug": "alameda",
    "state": "CA",
    "verified": false,
    "name": "Alameda Point Gym",
    "description": "This large athletic facility is available for private or league rentals and it includes four full-size basketball courts, four volleyball courts and other configurations.",
    "address": "1101 West Redline Avenue",
    "city": "Alameda",
    "latitude": 37.789297,
    "longitude": -122.305614,
    "indoor": true,
    "num_courts": 2,
    "phone": "+15107477586",
    "website": "https://www.alamedaca.gov/Departments/Recreation-Parks/Alameda-Point-Gym",
    "email": "sthomas@alamedaca.gov",
    "photo_url": "https://cdn.filestackcontent.com/WsbGRaqFRau7KbSfEYz0",
    "skill_levels": "beginner,intermediate"
  },
  {
    "county_slug": "alameda",
    "state": "CA",
    "verified": false,
    "name": "Albany High School",
    "description": "Albany High School is a place to play pickleball in Albany, CA. There are 6 indoor wood courts. The lines are permanent, but you'll need to bring your own net. A one-time fee is required to play. Players have access to restrooms.",
    "address": "603 Key Route Blvd",
    "city": "Albany",
    "zip_code": "94706",
    "latitude": 37.896665,
    "longitude": -122.292512,
    "indoor": true,
    "num_courts": 6,
    "surface_type": "Wood",
    "fees": "Fee required",
    "phone": "+15105249283",
    "website": "https://ahs.ausdk12.org/",
    "email": "Recinfo@albanyca.org",
    "photo_url": "https://cdn.filestackcontent.com/9Y4Y8oATra50pI26clV2",
    "has_restrooms": true,
    "nets_provided": false,
    "skill_levels": "beginner,intermediate",
    "court_type": "dedicated"
  },
  {
    "county_slug": "alameda",
    "state": "CA",
    "verified": false,
    "name": "Bay Club Fremont",
    "description": "Come play pickleball at Bay Club Fremont in Fremont, CA! There are 8 outdoor courts. These are dedicated courts with permanent lines and nets. Amenities include food, locker rooms, restrooms, water, wheelchair accessibility, and lights. The courts can be reserved. A membership is required to play.",
    "address": "46650 Landing Pkwy",
    "city": "Fremont",
    "zip_code": "94538",
    "latitude": 37.48301,
    "longitude": -121.94206,
    "indoor": false,
    "lighted": true,
    "num_courts": 8,
    "fees": "Members only",
    "phone": "5102268500",
    "website": "https://www.bayclubs.com/fremont/",
    "email": "bayclubconnect@bayclubs.com",
    "photo_url": "https://cdn.filestackcontent.com/IUaiSJm9SMKdwrwPvNff",
    "has_restrooms": true,
    "has_water": true,
    "wheelchair_accessible": true,
    "nets_provided": true,
    "skill_levels": "advanced,beginner,intermediate",
    "court_type": "dedicated"
  },
  {
    "county_slug": "alameda",
    "state": "CA",
    "verified": false,
    "name": "Bay Club Pleasanton",
    "description": "Bay Club Pleasanton is a place to play pickleball in Pleasanton, CA. There are 9 hard and asphalt courts. 8 are outdoors and 1 is indoors. These are dedicated courts with permanent lines and nets. A membership is required to play. You can reserve the courts. Players have access to food, a pro shop or equipment store, restrooms, water, lights, locker rooms, wheelchair accessibility, and trainers or lessons.",
    "address": "7090 Johnson Dr",
    "city": "Pleasanton",
    "zip_code": "94588",
    "latitude": 37.69967,
    "longitude": -121.918434,
    "indoor": false,
    "lighted": true,
    "num_courts": 9,
    "surface_type": "Hard, Asphalt",
    "fees": "Members only",
    "phone": "9254632822",
    "website": "https://www.bayclubs.com/pleasanton/",
    "photo_url": "https://cdn.filestackcontent.com/mPeaa4blSISh3IpPIJ1P",
    "has_restrooms": true,
    "has_water": true,
    "has_pro_shop": true,
    "wheelchair_accessible": true,
    "nets_provided": true,
    "skill_levels": "intermediate",
    "court_type": "dedicated"
  },
  {
    "county_slug": "alameda",
    "state": "CA",
    "verified": false,
    "name": "Bay-O-Vista Swim and Tennis Club",
    "description": "Bay-O-Vista Swim and Tennis Club is one of the most popular places to play pickleball in San Leandro, CA. There are 8 outdoor courts. These are dedicated courts with permanent lines and nets. Reservations are not available. A membership is required to play. Players have access to lights, water, restrooms, and locker rooms.",
    "address": "1881 Astor Dr",
    "city": "San Leandro",
    "zip_code": "94577",
    "latitude": 37.726158,
    "longitude": -122.126191,
    "indoor": false,
    "lighted": true,
    "num_courts": 8,
    "fees": "Members only",
    "phone": "5103578366",
    "website": "http://www.bovswim.com/",
    "photo_url": "https://cdn.filestackcontent.com/KLnv2CoqRNmXrkFKD6eT",
    "has_restrooms": true,
    "has_water": true,
    "nets_provided": true,
    "skill_levels": "beginner,intermediate",
    "court_type": "dedicated"
  },
  {
    "county_slug": "alameda",
    "state": "CA",
    "verified": false,
    "name": "Bushrod Park",
    "description": "Come play pickleball at Bushrod Park in Oakland, CA! There are 4 outdoor hard courts. The lines are permanent, but you'll need to bring your own net. Players have access to water and lights. The courts are free.",
    "address": "560 59th St",
    "city": "Oakland",
    "zip_code": "94609",
    "latitude": 37.84489,
    "longitude": -122.263429,
    "indoor": false,
    "lighted": true,
    "num_courts": 4,
    "surface_type": "Hard",
    "fees": "Free",
    "phone": "5105975031",
    "website": "https://www.oaklandca.gov/",
    "email": "pickleballdar@gmail.com",
    "photo_url": "https://cdn.filestackcontent.com/idNmHXiIScjxIlJeRmDt",
    "has_water": true,
    "nets_provided": false,
    "skill_levels": "beginner,intermediate",
    "court_type": "dedicated"
  },
  {
    "county_slug": "alameda",
    "state": "CA",
    "verified": false,
    "name": "Cedar Rose Park Pickleball Courts",
    "description": "Cedar Rose Park Pickleball Courts is one of the most popular places to play pickleball in Berkeley, CA. There are 4 outdoor hard courts. These are dedicated courts with permanent lines and nets. Reservations are available. The courts are free. Amenities include water and wheelchair accessibility.",
    "address": "Cedar Rose Park",
    "city": "Berkeley",
    "latitude": 37.878021,
    "longitude": -122.288396,
    "indoor": false,
    "num_courts": 4,
    "surface_type": "Hard",
    "fees": "Free",
    "phone": "+17703618517",
    "website": "https://www.cityofberkeley.info/Parks_Rec_Waterfront/Recreation/Tennis_and_Pickleball_Courts.aspx",
    "email": "peterfu123@gmail.com",
    "photo_url": "https://cdn.filestackcontent.com/viB7zFLmSPOOM01nbTJ2",
    "has_water": true,
    "wheelchair_accessible": true,
    "nets_provided": true,
    "skill_levels": "beginner,intermediate",
    "court_type": "dedicated",
    "has_parking": true
  },
  {
    "county_slug": "alameda",
    "state": "CA",
    "verified": false,
    "name": "Claremont Club and Spa",
    "description": "Come play pickleball at Claremont Club and Spa in Berkeley, CA! There are 4 outdoor concrete and hard courts. These are dedicated courts with permanent lines and nets. Amenities include locker rooms, lights, restrooms, water, food, trainers or lessons, and youth programming. The courts can be reserved. A membership is required to play.",
    "address": "41 Tunnel Rd",
    "city": "Berkeley",
    "latitude": 37.85921,
    "longitude": -122.242325,
    "indoor": false,
    "lighted": true,
    "num_courts": 4,
    "surface_type": "Concrete, Hard",
    "fees": "Members only",
    "phone": "15108433000",
    "website": "https://claremontresortandclub.com/the-club-at-the-claremont/tennis/",
    "email": "club@claremontresort.com",
    "photo_url": "https://cdn.filestackcontent.com/k4sRcgcVQUGloyxEEoA6",
    "has_restrooms": true,
    "has_water": true,
    "nets_provided": true,
    "skill_levels": "beginner,intermediate",
    "court_type": "dedicated"
  },
  {
    "county_slug": "alameda",
    "state": "CA",
    "verified": false,
    "name": "De Fremery Park",
    "description": "De Fremery Park is a place to play pickleball in Oakland, CA. There is 1 outdoor hard court. The lines are overlaid on a tennis court, so the net is a little taller than a normal pickleball net. You can reserve the court. The court is free.",
    "address": "1651 Adeline St",
    "city": "Oakland",
    "zip_code": "94607",
    "latitude": 37.812306,
    "longitude": -122.287471,
    "indoor": false,
    "num_courts": 1,
    "surface_type": "Hard",
    "fees": "Free",
    "website": "https://www.oaklandca.gov/",
    "photo_url": "https://cdn.filestackcontent.com/oqF5jbgAR86JGCTGgrUL",
    "skill_levels": "beginner,intermediate",
    "court_type": "dedicated"
  },
  {
    "county_slug": "alameda",
    "state": "CA",
    "verified": false,
    "name": "Don Biddle Community Park",
    "description": "Come play pickleball at Don Biddle Community Park in Dublin, CA! There are 2 outdoor concrete courts. The lines are permanent, and portable nets are available. Players have access to restrooms and water. You can’t reserve the courts. The courts are free.",
    "address": "6100 Horizon Pkwy",
    "city": "Dublin",
    "latitude": 37.708725,
    "longitude": -121.903929,
    "indoor": false,
    "num_courts": 2,
    "surface_type": "Concrete",
    "open_play_schedule": "8a-1p",
    "fees": "Free",
    "phone": "9255564500",
    "website": "https://dublin.ca.gov/facilities/facility/details/donbiddlecommunitypark-38",
    "email": "jackie.dwyer@dublin.ca.gov",
    "photo_url": "https://cdn.filestackcontent.com/1DYMpx6XQWOTRT1fsvnt",
    "has_restrooms": true,
    "has_water": true,
    "nets_provided": true,
    "skill_levels": "beginner,intermediate",
    "court_type": "dedicated",
    "has_parking": true,
    "wheelchair_accessible": true
  },
  {
    "county_slug": "alameda",
    "state": "CA",
    "verified": false,
    "name": "Elmhurst Park",
    "description": "Elmhurst Park is one of the most popular places to play pickleball in Oakland, CA. There is 1 outdoor hard and concrete court. The lines are permanent, but you'll need to bring your own net. The court is free. Players have access to lights, food, and adaptive programming.",
    "address": "98th Avenue & B St",
    "city": "Oakland",
    "latitude": 37.742779,
    "longitude": -122.173906,
    "indoor": false,
    "lighted": true,
    "num_courts": 1,
    "surface_type": "Hard, Concrete",
    "open_play_schedule": "Daily open court 8am-6pm (bring your own net or I can provide)",
    "fees": "Free",
    "phone": "+18184528251",
    "email": "macksword2@gmail.com",
    "photo_url": "https://cdn.filestackcontent.com/KxVITVUPQ964kVCyGn1A",
    "nets_provided": false,
    "skill_levels": "beginner,intermediate",
    "court_type": "dedicated"
  },
  {
    "county_slug": "alameda",
    "state": "CA",
    "verified": false,
    "name": "Fremont Central Park Knoll",
    "description": "Fremont Central Park Knoll is a place to play pickleball in Fremont, CA. There are 8 outdoor hard courts. These are dedicated courts with permanent lines and nets. Amenities include water and wheelchair accessibility. The courts are free.",
    "address": "39701 Civic Center Drive",
    "city": "Fremont",
    "latitude": 37.55148,
    "longitude": -121.969972,
    "indoor": false,
    "num_courts": 8,
    "surface_type": "Hard",
    "open_play_schedule": "Play hours are strictly sunrise to sunset only. There's NO lights.",
    "fees": "Free",
    "photo_url": "https://cdn.filestackcontent.com/wMaUdE9mRc2ZGeaLJ6LJ",
    "has_water": true,
    "wheelchair_accessible": true,
    "nets_provided": true,
    "skill_levels": "beginner,intermediate",
    "court_type": "dedicated"
  },
  {
    "county_slug": "alameda",
    "state": "CA",
    "verified": false,
    "name": "Fremont Tennis Center",
    "description": "Courts A-D are the nice ones. 1-3 are on a kids tennis court",
    "address": "1110 Stevenson Blvd",
    "city": "Fremont",
    "zip_code": "94538",
    "latitude": 37.555494,
    "longitude": -121.961022,
    "indoor": false,
    "lighted": true,
    "num_courts": 7,
    "surface_type": "Concrete",
    "fees": "Free",
    "phone": "5107905510",
    "website": "https://www.fremont.gov/government/departments/parks-recreation/facilities-rentals/fremont-tennis-center",
    "email": "tennis@fremont.gov",
    "photo_url": "https://cdn.filestackcontent.com/BlmHqtziSiCnbC3QQO8U",
    "has_restrooms": true,
    "has_water": true,
    "nets_provided": true,
    "skill_levels": "beginner,intermediate",
    "court_type": "dedicated"
  },
  {
    "county_slug": "alameda",
    "state": "CA",
    "verified": false,
    "name": "Hampton Tennis Court - Piedmont",
    "description": "Come play pickleball at Hampton Tennis Court - Piedmont in Piedmont, CA! There are 4 outdoor concrete courts. The lines are permanent, and portable nets are available. The courts are free.",
    "address": "20 La Salle Ave",
    "city": "Piedmont",
    "latitude": 37.81964,
    "longitude": -122.218027,
    "indoor": false,
    "num_courts": 4,
    "surface_type": "Concrete",
    "open_play_schedule": "https://www.piedmontpickleball.net",
    "fees": "Free",
    "website": "https://www.piedmontpickleball.net",
    "photo_url": "https://cdn.filestackcontent.com/UoXhZ0cfSKuDrkfFbo39",
    "nets_provided": true,
    "skill_levels": "beginner,intermediate",
    "court_type": "dedicated",
    "has_restrooms": true
  },
  {
    "county_slug": "alameda",
    "state": "CA",
    "verified": false,
    "name": "Harbor Bay Club",
    "description": "Harbor Bay Club is one of the most popular places to play pickleball in Alameda, CA. There are 7 outdoor hard courts. These are dedicated courts with permanent lines and nets. A membership is required to play. The courts can be reserved. Players have access to locker rooms, restrooms, water, and lights.",
    "address": "200 Packet Landing Rd",
    "city": "Alameda",
    "latitude": 37.747598,
    "longitude": -122.238221,
    "indoor": false,
    "lighted": true,
    "num_courts": 7,
    "surface_type": "Hard",
    "fees": "Members only — Membership price varies by plan and current promotions. See membership page for details.",
    "phone": "5105215414",
    "website": "https://clients.mindbodyonline.com/asp/adm/adm_appt_search.asp?studioid=19689&fl=true&tabID=102",
    "email": "info@harborbayclub.com",
    "photo_url": "https://cdn.filestackcontent.com/rtanDqOwQlIKl5zSnj1z",
    "has_restrooms": true,
    "has_water": true,
    "nets_provided": true,
    "skill_levels": "beginner,intermediate",
    "court_type": "dedicated"
  },
  {
    "county_slug": "alameda",
    "state": "CA",
    "verified": false,
    "name": "Hayward Senior Center Pickleball",
    "description": "Come play pickleball at Hayward Senior Center Pickleball in Hayward, CA! There are 2 indoor wood courts. Tape lines have been laid, and portable nets are available. Players have access to restrooms, water, and wheelchair accessibility. A one-time fee is required to play.",
    "address": "22325 North 3rd Street",
    "city": "Hayward",
    "latitude": 37.679675,
    "longitude": -122.080101,
    "indoor": true,
    "num_courts": 2,
    "surface_type": "Wood",
    "fees": "Fee required",
    "phone": "5109094297",
    "website": "https://haywardrec.org/339/Senior-Active-Adults---50-yrs",
    "photo_url": "https://cdn.filestackcontent.com/mKubha5iSnC62EeaAZtT",
    "has_restrooms": true,
    "has_water": true,
    "wheelchair_accessible": true,
    "nets_provided": true,
    "skill_levels": "beginner,intermediate",
    "court_type": "shared"
  },
  {
    "county_slug": "alameda",
    "state": "CA",
    "verified": false,
    "name": "James Kenney Park Pickleball Court",
    "description": "James Kenney Park Pickleball Court is a place to play pickleball in Berkeley, CA. There is 1 outdoor hard court. This is a dedicated court with a permanent net and lines. The court is free. The court can be reserved. The facility includes amenities like restrooms and water.",
    "address": "1720 8th St",
    "city": "Berkeley",
    "zip_code": "94710",
    "latitude": 37.871787,
    "longitude": -122.297185,
    "indoor": false,
    "num_courts": 1,
    "surface_type": "Hard",
    "open_play_schedule": "The pickle ball court is open from 8am to 8pm ONLY.",
    "fees": "Free",
    "phone": "5109816650",
    "website": "http://www.ci.berkeley.ca.us/Parks_Rec_Waterfront/Recreation/James_Kenney.aspx",
    "photo_url": "https://cdn.filestackcontent.com/79l4eJ34QeWFQtPK8Pkn",
    "has_restrooms": true,
    "has_water": true,
    "nets_provided": true,
    "skill_levels": "beginner,intermediate",
    "court_type": "dedicated"
  },
  {
    "county_slug": "alameda",
    "state": "CA",
    "verified": false,
    "name": "Joltz Pickleball",
    "description": "Parking Lot turned Pickleball Court",
    "address": "4760 Thornton Avenue",
    "city": "Fremont",
    "latitude": 37.550647,
    "longitude": -122.017316,
    "indoor": false,
    "num_courts": 1,
    "surface_type": "Hard",
    "open_play_schedule": "https://www.joltz.club/ \n10am - 4pm",
    "fees": "Fee required — $20/hour",
    "phone": "5105656337",
    "website": "https://www.joltz.club",
    "email": "Joltz.club@gmail.com",
    "photo_url": "https://cdn.filestackcontent.com/8n6aLuRbTQqbgiOFPOPP",
    "has_restrooms": true,
    "has_pro_shop": true,
    "wheelchair_accessible": true,
    "nets_provided": true,
    "skill_levels": "beginner,intermediate",
    "court_type": "dedicated"
  },
  {
    "county_slug": "alameda",
    "state": "CA",
    "verified": false,
    "name": "Knoll Central Park",
    "description": "Knoll Central Park is a place to play pickleball in Fremont, CA. There are 8 outdoor acrylic courts. These are dedicated courts with permanent lines and nets. Amenities include water. The courts are free.",
    "address": "39701 Civic Center Drive",
    "city": "Fremont",
    "latitude": 37.55148,
    "longitude": -121.969972,
    "indoor": false,
    "num_courts": 8,
    "surface_type": "Acrylic",
    "fees": "Free",
    "photo_url": "https://cdn.filestackcontent.com/q3dKLvRGSslMPqspSXww",
    "has_water": true,
    "nets_provided": true,
    "skill_levels": "beginner,intermediate",
    "court_type": "dedicated"
  },
  {
    "county_slug": "alameda",
    "state": "CA",
    "verified": false,
    "name": "Leydecker Park",
    "description": "Leydecker Park is a place to play pickleball in Alameda, CA. There are 4 outdoor hard courts. These are dedicated courts with permanent lines and nets. You can’t reserve the courts. The courts are free. Players have access to water, lights, wheelchair accessibility, and restrooms.",
    "address": "3225 Mecartney Road",
    "city": "Alameda",
    "latitude": 37.736755,
    "longitude": -122.241658,
    "indoor": false,
    "lighted": true,
    "num_courts": 4,
    "surface_type": "Hard",
    "fees": "Free",
    "phone": "+15107477511",
    "website": "https://www.alamedaca.gov/Departments/Recreation-Parks",
    "photo_url": "https://cdn.filestackcontent.com/ZUHsE3gPSzGNJtlRTbay",
    "has_restrooms": true,
    "has_water": true,
    "wheelchair_accessible": true,
    "nets_provided": true,
    "skill_levels": "advanced,beginner,intermediate",
    "court_type": "dedicated"
  },
  {
    "county_slug": "alameda",
    "state": "CA",
    "verified": false,
    "name": "Lifetime Activities",
    "description": "Come play pickleball at Lifetime Activities in Pleasanton, CA! There are 4 outdoor concrete courts. These are dedicated courts with permanent lines and nets. Players have access to food, lights, a pro shop or equipment store, trainers or lessons, restrooms, and water. The courts are free.",
    "address": "5801 Valley Ave",
    "city": "Pleasanton",
    "latitude": 37.675494,
    "longitude": -121.900017,
    "indoor": false,
    "lighted": true,
    "num_courts": 4,
    "surface_type": "Concrete",
    "fees": "Free",
    "phone": "+19259313449",
    "website": "https://www.lifetimeactivities.com/pleasanton/",
    "photo_url": "https://cdn.filestackcontent.com/6iia2pEaSWum1PD5C8rX",
    "has_restrooms": true,
    "has_water": true,
    "has_pro_shop": true,
    "nets_provided": true,
    "skill_levels": "intermediate",
    "court_type": "dedicated",
    "hours": "Fri 8am-10pm",
    "has_ball_machine": true
  },
  {
    "county_slug": "alameda",
    "state": "CA",
    "verified": false,
    "name": "Lincoln Park",
    "description": "Lincoln Park is one of the most popular places to play pickleball in Alameda, CA. There are 4 outdoor hard courts. These are dedicated courts with permanent lines and nets. Players have access to restrooms and water. The courts are free. The courts cannot be reserved.",
    "address": "1450 High St",
    "city": "Alameda",
    "zip_code": "94501",
    "latitude": 37.75874,
    "longitude": -122.23089,
    "indoor": false,
    "num_courts": 4,
    "surface_type": "Hard",
    "open_play_schedule": "Open at 8:00 AM",
    "fees": "Free",
    "phone": "+15107477510",
    "website": "https://alamedaca.gov/recreation/lincoln-parkharrison-center",
    "email": "mmckay@alamedaca.gov",
    "photo_url": "https://cdn.filestackcontent.com/0Fe3jOJcSrG7MYkUlgmQ",
    "has_restrooms": true,
    "has_water": true,
    "nets_provided": true,
    "skill_levels": "beginner,intermediate",
    "court_type": "dedicated"
  },
  {
    "county_slug": "alameda",
    "state": "CA",
    "verified": false,
    "name": "Linda Beach Pickleball Courts",
    "description": "Come play pickleball at Linda Beach Pickleball Courts in Piedmont, CA! There are 4 outdoor courts. These are dedicated courts with permanent lines and nets. Reservations are not available. The courts are free.",
    "address": "333 Linda Ave",
    "city": "Piedmont",
    "latitude": 37.822528,
    "longitude": -122.245638,
    "indoor": false,
    "num_courts": 4,
    "fees": "Free",
    "website": "https://www.piedmontpickleball.net/",
    "photo_url": "https://cdn.filestackcontent.com/ZsLqm65ZR0Ccf406NUQV",
    "nets_provided": true,
    "skill_levels": "beginner,intermediate",
    "court_type": "dedicated",
    "has_restrooms": true
  },
  {
    "county_slug": "alameda",
    "state": "CA",
    "verified": false,
    "name": "Livermore Downs Park",
    "description": "Livermore Downs Park is one of the most popular places to play pickleball in Livermore, CA. There are 4 outdoor hard courts. These are dedicated courts with permanent lines and nets. The courts are free. The facility includes amenities like restrooms.",
    "address": "2101 Paseo Laguna Seco",
    "city": "Livermore",
    "zip_code": "94551",
    "latitude": 37.695754,
    "longitude": -121.780254,
    "indoor": false,
    "num_courts": 4,
    "surface_type": "Hard",
    "fees": "Free",
    "phone": "9253735700",
    "photo_url": "https://cdn.filestackcontent.com/p3btrWtGQhaKL1CnTB0W",
    "has_restrooms": true,
    "nets_provided": true,
    "skill_levels": "advanced,intermediate",
    "court_type": "dedicated"
  },
  {
    "county_slug": "alameda",
    "state": "CA",
    "verified": false,
    "name": "Mark Green Sports Center",
    "description": "Come play pickleball at Mark Green Sports Center in Union City, CA! There are 2 indoor wood courts. The lines are permanent, and portable nets are available. Players have access to locker rooms, water, and lights. A one-time fee is required to play.",
    "address": "31224 Union City Boulevard",
    "city": "Union City",
    "latitude": 37.593494,
    "longitude": -122.080308,
    "indoor": true,
    "lighted": true,
    "num_courts": 2,
    "surface_type": "Wood",
    "fees": "Fee required — $5 day pass, or membership",
    "phone": "(510) 675-5808",
    "website": "https://www.unioncity.org/290/Mark-Green-Sports-Center#",
    "photo_url": "https://cdn.filestackcontent.com/KNiTaknSquAkii3hwL4O",
    "has_water": true,
    "nets_provided": true,
    "skill_levels": "beginner,intermediate",
    "court_type": "dedicated",
    "hours": "Friday 6 am 9 pm",
    "has_parking": true
  },
  {
    "county_slug": "alameda",
    "state": "CA",
    "verified": false,
    "name": "May Nissen Park",
    "description": "There are now 4 dedicated courts and up to 4 additional courts if you bring your own nets.",
    "address": "685 Rincon Ave",
    "city": "Livermore",
    "zip_code": "94551",
    "latitude": 37.686639,
    "longitude": -121.784182,
    "indoor": false,
    "num_courts": 8,
    "surface_type": "Asphalt, Hard, Concrete",
    "fees": "Free",
    "phone": "9252003114",
    "website": "http://www.larpd.org/parks/maps/28.html",
    "photo_url": "https://cdn.filestackcontent.com/j4PkOL3kQw2jJul6iDxl",
    "has_restrooms": true,
    "nets_provided": true,
    "skill_levels": "advanced,intermediate",
    "court_type": "dedicated"
  },
  {
    "county_slug": "alameda",
    "state": "CA",
    "verified": false,
    "name": "Meyer Tennis Courts",
    "description": "Meyer Tennis Courts is one of the most popular places to play pickleball in Oakland, CA. There are 4 outdoor concrete courts. The lines are permanent, and portable nets are available. Amenities include lights. Reservations are available. A membership is required to play.",
    "address": "Richards Rd",
    "city": "Oakland",
    "latitude": 37.782282,
    "longitude": -122.185126,
    "indoor": false,
    "lighted": true,
    "num_courts": 4,
    "surface_type": "Concrete",
    "fees": "Members only",
    "phone": "+15104302395",
    "website": "https://app.courtreserve.com/Online/Portal/Index/7014",
    "photo_url": "https://cdn.filestackcontent.com/Y1ClN7c1TgGtoRr5me7s",
    "nets_provided": true,
    "skill_levels": "beginner,intermediate",
    "court_type": "dedicated"
  },
  {
    "county_slug": "alameda",
    "state": "CA",
    "verified": false,
    "name": "Mission Hills Racquet and Swim Club",
    "description": "Come play pickleball at Mission Hills Racquet and Swim Club in Fremont, CA! There are 8 outdoor hard courts. These are dedicated courts with permanent lines and nets. A membership is required to play. Players have access to restrooms and water. You can reserve the courts.",
    "address": "10 E Las Palmas Ave",
    "city": "Fremont",
    "latitude": 37.558905,
    "longitude": -121.950911,
    "indoor": false,
    "num_courts": 8,
    "surface_type": "Hard",
    "fees": "Members only",
    "phone": "+15106562250",
    "website": "https://www.themissionhillsclub.com/",
    "photo_url": "https://cdn.filestackcontent.com/972EBLVNQ32egiivmkzj",
    "has_restrooms": true,
    "has_water": true,
    "nets_provided": true,
    "skill_levels": "advanced,beginner,intermediate",
    "court_type": "dedicated"
  },
  {
    "county_slug": "alameda",
    "state": "CA",
    "verified": false,
    "name": "Montclair Pickleball Courts",
    "description": "Montclair Pickleball Courts is a place to play pickleball in Oakland, CA. There are 4 outdoor hard courts. These are dedicated courts with permanent lines and nets. The facility includes amenities like lights and water. The courts are free. Reservations are available.",
    "address": "1955 Mountain Blvd",
    "city": "Oakland",
    "latitude": 37.828565,
    "longitude": -122.211003,
    "indoor": false,
    "lighted": true,
    "num_courts": 4,
    "surface_type": "Hard",
    "fees": "Free",
    "phone": "5105209440",
    "photo_url": "https://cdn.filestackcontent.com/uAJ5AKNVRvGhQR0BA3Vs",
    "has_water": true,
    "nets_provided": true,
    "skill_levels": "beginner,intermediate",
    "court_type": "dedicated"
  },
  {
    "county_slug": "alameda",
    "state": "CA",
    "verified": false,
    "name": "Muirwood Community Park",
    "description": "Muirwood Community Park is a place to play pickleball in Pleasanton, CA. There are 6 outdoor hard courts. These are dedicated courts with permanent lines and nets. The facility includes amenities like restrooms and water. The courts are free. You can’t reserve the courts.",
    "address": "4701 Muirwood Dr",
    "city": "Pleasanton",
    "zip_code": "94588",
    "latitude": 37.683935,
    "longitude": -121.918097,
    "indoor": false,
    "num_courts": 6,
    "surface_type": "Hard",
    "fees": "Free",
    "website": "http://www.cityofpleasantonca.gov/",
    "photo_url": "https://cdn.filestackcontent.com/jX6lAsTwmwgsVBkaBDgm",
    "has_restrooms": true,
    "has_water": true,
    "nets_provided": true,
    "skill_levels": "advanced,beginner,intermediate",
    "court_type": "dedicated"
  },
  {
    "county_slug": "alameda",
    "state": "CA",
    "verified": false,
    "name": "Oakland Hills Tennis Club",
    "description": "Oakland Hills Tennis Club (OHTC) in California has a one-time initiation fee of $2000, followed by monthly dues. Family memberships cost $289 without tennis and $314 including tennis, according to 510 Families. OHTC's website also states has individual membership at $198, couple at $262, and family at $314.",
    "address": "5475 Redwood Rd",
    "city": "Oakland",
    "zip_code": "94619",
    "latitude": 37.79735,
    "longitude": -122.171755,
    "indoor": false,
    "lighted": true,
    "num_courts": 8,
    "surface_type": "Hard",
    "phone": "+15104247913",
    "website": "http://www.oaklandhills.com/",
    "email": "pickleball@oakladhills.com",
    "photo_url": "https://cdn.filestackcontent.com/fZ5LIYKQ2uY8iXaBGNmE",
    "has_restrooms": true,
    "has_water": true,
    "nets_provided": true,
    "skill_levels": "intermediate",
    "court_type": "dedicated"
  },
  {
    "county_slug": "alameda",
    "state": "CA",
    "verified": false,
    "name": "Ocean View Park",
    "description": "Ocean View Park is a place to play pickleball in Berkeley, CA. There are 4 outdoor hard courts. These are dedicated courts with permanent lines and nets. The courts are free. The courts can be reserved. Amenities include restrooms, lights, water, and wheelchair accessibility.",
    "address": "900 Buchanan St",
    "city": "Berkeley",
    "zip_code": "94706",
    "latitude": 37.886516,
    "longitude": -122.303097,
    "indoor": false,
    "lighted": true,
    "num_courts": 4,
    "surface_type": "Hard",
    "fees": "Free",
    "website": "https://www.albanyca.org/Home/Components/FacilityDirectory/FacilityDirectory/68/1670?npage=2",
    "photo_url": "https://cdn.filestackcontent.com/nYFmcXOkSyK54Y2QlS7T",
    "has_restrooms": true,
    "has_water": true,
    "wheelchair_accessible": true,
    "nets_provided": true,
    "skill_levels": "beginner",
    "court_type": "dedicated"
  },
  {
    "county_slug": "alameda",
    "state": "CA",
    "verified": false,
    "name": "Pickle Athletics",
    "description": "Pickle Athletics is one of the most popular places to play pickleball in Oakland, CA. There are 4 indoor acrylic courts. These are dedicated courts with permanent lines and nets. Amenities include food, locker rooms, restrooms, water, youth programming, lights, a pro shop or equipment store, and trainers or lessons. The courts cannot be reserved. A one-time fee is required to play.",
    "address": "4000 Telegraph Avenue",
    "city": "Oakland",
    "latitude": 37.829497,
    "longitude": -122.264059,
    "indoor": true,
    "lighted": true,
    "num_courts": 4,
    "surface_type": "Acrylic",
    "fees": "Fee required",
    "website": "https://www.pickleathletics.com",
    "email": "kady@pickleathletics.com",
    "photo_url": "https://cdn.filestackcontent.com/TGSZkQLRSQKbcEkyJJga",
    "has_restrooms": true,
    "has_water": true,
    "has_pro_shop": true,
    "nets_provided": true,
    "skill_levels": "beginner,intermediate",
    "court_type": "dedicated"
  },
  {
    "county_slug": "alameda",
    "state": "CA",
    "verified": false,
    "name": "Pickleball City",
    "description": "Come play pickleball at Pickleball City in Fremont, CA! There are 6 indoor hard and acrylic courts. These are dedicated courts with permanent lines and nets. A membership is required to play. You can’t reserve the courts. The facility includes amenities like food, locker rooms, restrooms, water, youth programming, lights, a pro shop or equipment store, and trainers or lessons.",
    "address": "39161 Farwell Dr",
    "city": "Fremont",
    "latitude": 37.529537,
    "longitude": -121.999471,
    "indoor": true,
    "lighted": true,
    "num_courts": 6,
    "surface_type": "Hard, Acrylic",
    "fees": "Members only — $105/Monthly or $20-35/Day Pass or $10 senior pass",
    "phone": "+13412528026",
    "website": "https://www.playpbc.com",
    "email": "admin@playpbc.com",
    "photo_url": "https://cdn.filestackcontent.com/FvlAhIHSiKRae72DZUIA",
    "has_restrooms": true,
    "has_water": true,
    "has_pro_shop": true,
    "nets_provided": true,
    "skill_levels": "beginner,intermediate",
    "court_type": "dedicated"
  },
  {
    "county_slug": "alameda",
    "state": "CA",
    "verified": false,
    "name": "Piedmont Middle School",
    "description": "Come play pickleball at Piedmont Middle School in Piedmont, CA! There are 6 outdoor hard courts. The lines are permanent, and portable nets are available. The courts cannot be reserved. The courts are free.",
    "address": "742 Magnolia Ave",
    "city": "Piedmont",
    "zip_code": "94611",
    "latitude": 37.822389,
    "longitude": -122.234788,
    "indoor": false,
    "num_courts": 6,
    "surface_type": "Hard",
    "open_play_schedule": "https://www.piedmontpickleball.net",
    "fees": "Free",
    "phone": "5105209440",
    "website": "https://www.piedmontpickleball.net",
    "photo_url": "https://cdn.filestackcontent.com/hlhq5TGkSumgtjJneaVp",
    "nets_provided": true,
    "skill_levels": "advanced,beginner,intermediate",
    "court_type": "dedicated",
    "has_restrooms": true
  },
  {
    "county_slug": "alameda",
    "state": "CA",
    "verified": false,
    "name": "Pleasanton Middle School Gym",
    "description": "Pleasanton Middle School Gym is a place to play pickleball in Pleasanton, CA. There are 6 indoor wood courts. The lines are permanent, and portable nets are available. Amenities include restrooms, water, and lights. A one-time fee is required to play.",
    "address": "5001 Case Ave",
    "city": "Pleasanton",
    "zip_code": "94566",
    "latitude": 37.654685,
    "longitude": -121.883829,
    "indoor": true,
    "lighted": true,
    "num_courts": 6,
    "surface_type": "Wood",
    "fees": "Fee required",
    "phone": "9259313443",
    "website": "https://pleasantonmiddle.pleasantonusd.net/",
    "photo_url": "https://cdn.filestackcontent.com/zqn0FphQxumqddRjy1nY",
    "has_restrooms": true,
    "has_water": true,
    "nets_provided": true,
    "skill_levels": "intermediate",
    "court_type": "dedicated"
  },
  {
    "county_slug": "alameda",
    "state": "CA",
    "verified": false,
    "name": "Pro Court & Fitness",
    "description": "Pro Court & Fitness is one of the most popular places to play pickleball in Fremont, CA. There are 2 indoor wood courts. The lines are permanent, and portable nets are available. Reservations are available. The facility includes amenities like restrooms. A one-time fee is required to play.",
    "address": "42982 Osgood Rd",
    "city": "Fremont",
    "latitude": 37.522344,
    "longitude": -121.946559,
    "indoor": true,
    "num_courts": 2,
    "surface_type": "Wood",
    "fees": "Fee required",
    "phone": "+15104552425",
    "website": "http://www.myprocourt.com/",
    "photo_url": "https://cdn.filestackcontent.com/lve9QZHeQcl9XrOHGNwP",
    "has_restrooms": true,
    "nets_provided": true,
    "skill_levels": "beginner",
    "court_type": "dedicated"
  },
  {
    "county_slug": "alameda",
    "state": "CA",
    "verified": false,
    "name": "Raindance Pickleball",
    "description": "On site ball serving machine",
    "address": "45933 Raindance Rd",
    "city": "Fremont",
    "latitude": 37.502096,
    "longitude": -121.908352,
    "indoor": false,
    "num_courts": 1,
    "surface_type": "Concrete",
    "open_play_schedule": "Sunrise to sunset by reservation",
    "phone": "5103099916",
    "website": "https://chat.whatsapp.com/IOoiIaGzf83GORELx1DujO",
    "email": "CBA123199@gmail.com",
    "photo_url": "https://cdn.filestackcontent.com/0TjhwZK9QxWACgToUpmw",
    "nets_provided": true,
    "skill_levels": "beginner,intermediate",
    "court_type": "dedicated"
  },
  {
    "county_slug": "alameda",
    "state": "CA",
    "verified": false,
    "name": "Robert Livermore Community Center",
    "description": "Come play pickleball at Robert Livermore Community Center in Livermore, CA! There are 6 indoor wood courts. The lines are permanent, and portable nets are available. Amenities include restrooms. A one-time fee is required to play.",
    "address": "4444 East Ave",
    "city": "Livermore",
    "latitude": 37.680868,
    "longitude": -121.74172,
    "indoor": true,
    "num_courts": 6,
    "surface_type": "Wood",
    "fees": "Fee required — $6 drop in, $5 for seniors",
    "phone": "+19253735700",
    "website": "http://www.larpd.org/rlc/rlccenter.html",
    "photo_url": "https://cdn.filestackcontent.com/rlh6FJgbQyG7JWt81xrg",
    "has_restrooms": true,
    "nets_provided": true,
    "skill_levels": "advanced,beginner,intermediate",
    "court_type": "dedicated"
  },
  {
    "county_slug": "alameda",
    "state": "CA",
    "verified": false,
    "name": "Sheffield Village Tennis Court",
    "description": "Only available for residents of Sheffield Village",
    "address": "3062 Roxbury Ave",
    "city": "Oakland",
    "zip_code": "94605",
    "latitude": 37.734467,
    "longitude": -122.13729,
    "indoor": false,
    "num_courts": 1,
    "fees": "Private",
    "website": "https://www.oaklandca.gov/topics/sheffield-village-recreation-center",
    "photo_url": "https://cdn.filestackcontent.com/7eWFRTzNTPe6qxCGpayK",
    "nets_provided": true,
    "skill_levels": "beginner,intermediate",
    "court_type": "dedicated"
  },
  {
    "county_slug": "alameda",
    "state": "CA",
    "verified": false,
    "name": "SouthGate Hayward Pickleball Park",
    "description": "Street parking. No paddle rack, paddle down near post. Please be aware entering the gate, pointmay be in play on court.",
    "address": "26780 Chiplay Ave",
    "city": "Hayward",
    "zip_code": "94545",
    "latitude": 37.636035,
    "longitude": -122.095287,
    "indoor": false,
    "lighted": true,
    "num_courts": 6,
    "fees": "Free",
    "phone": "+15109094197",
    "website": "http://haywardrec.org/",
    "photo_url": "https://cdn.filestackcontent.com/Bajk5DBAQEeXjz9sfLKg",
    "has_restrooms": true,
    "has_water": true,
    "nets_provided": true,
    "skill_levels": "beginner,intermediate",
    "court_type": "dedicated"
  },
  {
    "county_slug": "alameda",
    "state": "CA",
    "verified": false,
    "name": "South Shore Apartments",
    "description": "South Shore Apartments is one of the most popular places to play pickleball in Alameda, CA. There are 4 outdoor hard courts. The lines are permanent, and portable nets are available. The courts are private.",
    "address": "934 Shorepoint Court Alameda CA",
    "city": "Alameda",
    "latitude": 37.763224,
    "longitude": -122.270396,
    "indoor": false,
    "num_courts": 4,
    "surface_type": "Hard",
    "fees": "Private",
    "phone": "+15107364477",
    "website": "https://www.southshorealameda.com/",
    "photo_url": "https://cdn.filestackcontent.com/5DMlyq9fRoSJ73kI1Ktd",
    "nets_provided": true,
    "skill_levels": "beginner,intermediate",
    "court_type": "dedicated",
    "has_parking": true
  },
  {
    "county_slug": "alameda",
    "state": "CA",
    "verified": false,
    "name": "The Hub Sports Club - Alameda",
    "description": "Come play pickleball at The Hub Sports Club - Alameda in Alameda, CA! There are 15 courts. 8 are indoors and 7 are outdoors. These are dedicated courts with permanent lines and nets. Players have access to a pro shop or equipment store, trainers or lessons, restrooms, water, locker rooms, food, and lights. Reservations are available. A membership is required to play.",
    "address": "800 West Tower Avenue",
    "city": "Alameda",
    "latitude": 37.782113,
    "longitude": -122.301096,
    "indoor": false,
    "lighted": true,
    "num_courts": 15,
    "fees": "Members only — $135 per month or $30 drop-in fee for non-members.",
    "phone": "+15108144999",
    "website": "https://thehubpickleball.com/the-hub-sports-club/",
    "email": "AlamedaGM@Bladium.com",
    "photo_url": "https://cdn.filestackcontent.com/O1S6SceUSU2nsklHlZtR",
    "has_restrooms": true,
    "has_water": true,
    "has_pro_shop": true,
    "nets_provided": true,
    "skill_levels": "beginner,intermediate",
    "court_type": "dedicated"
  },
  {
    "county_slug": "alameda",
    "state": "CA",
    "verified": false,
    "name": "Unity Park",
    "description": "Unity Park is a place to play pickleball in Hayward, CA. There are 6 outdoor asphalt courts. These are dedicated courts with permanent lines and nets. The courts are free. Players have access to water and wheelchair accessibility.",
    "address": "20478 Mission Blvd",
    "city": "Hayward",
    "latitude": 37.686629,
    "longitude": -122.100886,
    "indoor": false,
    "num_courts": 6,
    "surface_type": "Asphalt",
    "open_play_schedule": "Sunrise to Sunset",
    "fees": "Free",
    "website": "https://www.haywardrec.org/?nid=1&mobile=ON",
    "photo_url": "https://cdn.filestackcontent.com/EuQZlMDBSCG8ZS1q64wt",
    "has_water": true,
    "wheelchair_accessible": true,
    "nets_provided": true,
    "skill_levels": "advanced,intermediate",
    "court_type": "dedicated"
  },
  {
    "county_slug": "alameda",
    "state": "CA",
    "verified": false,
    "name": "Wallis Ranch Community Park",
    "description": "Wallis Ranch Community Park is one of the most popular places to play pickleball in Dublin, CA. There are 4 outdoor courts. These are dedicated courts with permanent lines and nets. The courts can be reserved. Players have access to restrooms and lights. The courts are free.",
    "address": "6501 Rutherford Dr",
    "city": "Dublin",
    "latitude": 37.728586,
    "longitude": -121.871929,
    "indoor": false,
    "lighted": true,
    "num_courts": 4,
    "fees": "Free",
    "website": "https://www.dublin.ca.gov/2289/Wallis-Ranch-Community-Park",
    "photo_url": "https://cdn.filestackcontent.com/CU3iyHrKRWPOtF87Dbwg",
    "has_restrooms": true,
    "nets_provided": true,
    "skill_levels": "advanced,intermediate",
    "court_type": "dedicated",
    "has_parking": true
  },
  {
    "county_slug": "alameda",
    "state": "CA",
    "verified": false,
    "name": "Wally Pond Irvington Community Center",
    "description": "Wally Pond Irvington Community Center is one of the most popular places to play pickleball in Fremont, CA. The lines are permanent, and portable nets are available. A one-time fee is required to play. Reservations are available.",
    "address": "41885 Blacow Rd",
    "city": "Fremont",
    "zip_code": "94538",
    "latitude": 37.522506,
    "longitude": -121.964903,
    "indoor": false,
    "fees": "Fee required — $4 for residents and $5 for non-residents",
    "phone": "(510) 494-4334",
    "website": "https://www.fremont.gov/government/departments/parks-recreation/facilities-rentals/community-centers/wally-pond-irvington-community-center",
    "photo_url": "https://cdn.filestackcontent.com/uownctlEQi3DhvBYr4As",
    "nets_provided": true,
    "skill_levels": "beginner,intermediate",
    "court_type": "dedicated"
  },
  {
    "county_slug": "alameda",
    "state": "CA",
    "verified": false,
    "name": "Washington Manor Park",
    "description": "Washington Manor Park is one of the most popular places to play pickleball in San Leandro, CA. There are 6 outdoor hard courts. These are dedicated courts with permanent lines and nets. Players have access to lights, restrooms, water, trainers or lessons, and wheelchair accessibility. The courts cannot be reserved. The courts are free.",
    "address": "14900 Zelma St",
    "city": "San Leandro",
    "latitude": 37.694303,
    "longitude": -122.147506,
    "indoor": false,
    "lighted": true,
    "num_courts": 6,
    "surface_type": "Hard",
    "fees": "Free",
    "phone": "+15105773462",
    "website": "https://www.sanleandro.org/",
    "email": "slpickleballers@gmail.com",
    "photo_url": "https://cdn.filestackcontent.com/1GjdUnEJSqCjI68Lx9P2",
    "has_restrooms": true,
    "has_water": true,
    "wheelchair_accessible": true,
    "nets_provided": true,
    "skill_levels": "beginner,intermediate",
    "court_type": "dedicated"
  },
  {
    "county_slug": "alameda",
    "state": "CA",
    "verified": false,
    "name": "Weekes Community Center-Park",
    "description": "Weekes Community Center-Park is a place to play pickleball in Hayward, CA. There are 2 outdoor hard courts. These are dedicated courts with permanent lines and nets. The courts are free. Players have access to restrooms, water, lights, and youth programming.",
    "address": "27182 Patrick Ave",
    "city": "Hayward",
    "zip_code": "94544",
    "latitude": 37.634048,
    "longitude": -122.079017,
    "indoor": false,
    "lighted": true,
    "num_courts": 2,
    "surface_type": "Hard",
    "fees": "Free",
    "phone": "5108816700",
    "website": "https://www.haywardrec.org/Facilities/Facility/Details/Weekes-Community-Park-51",
    "photo_url": "https://cdn.filestackcontent.com/L1qEYvt2TR26mmcY51X4",
    "has_restrooms": true,
    "has_water": true,
    "nets_provided": true,
    "skill_levels": "beginner,intermediate",
    "court_type": "dedicated",
    "has_parking": true
  }
]