[
  {
    "county_slug": "amador",
    "state": "CA",
    "verified": false,
    "name": "Detert Park",
    "description": "Sometimes there are locks on the gates .... these are public courts funded by us the taxpayers let your public officials know...",
    "address": "823 State Highway 49 88",
    "city": "Jackson",
    "zip_code": "95642",
    "latitude": 38.359388,
    "longitude": -120.778731,
    "indoor": false,
    "num_courts": 4,
    "surface_type": "Asphalt, Concrete, Hard",
    "fees": "Free",
    "phone": "2093040004",
    "website": "http://ci.jackson.ca.us/",
    "photo_url": "https://cdn.filestackcontent.com/cdUmKLrXSeyamC0lGRHs",
    "has_restrooms": true,
    "has_water": true,
    "nets_provided": true,
    "skill_levels": "beginner,intermediate",
    "court_type": "dedicated",
    "hours": "30AM to 5PM",
    "has_parking": true
  },
  {
    "county_slug": "amador",
    "state": "CA",
    "verified": false,
    "name": "Fiddletown Community Center",
    "description": "Fiddletown Community Center is one of the most popular places to play pickleball in Fiddletown, CA. There is 1 indoor court. Tape lines have been laid, and portable nets are available. A membership is required to play.",
    "address": "14445 Fiddletown RD",
    "city": "Fiddletown",
    "latitude": 38.504269,
    "longitude": -120.757425,
    "indoor": true,
    "num_courts": 1,
    "fees": "Members only",
    "website": "http://fiddletowncc.org/",
    "email": "info@fiddletowncc.org",
    "photo_url": "https://cdn.filestackcontent.com/wiiVqqzcTmG3F36pC8hS",
    "nets_provided": true,
    "court_type": "shared"
  },
  {
    "county_slug": "amador",
    "state": "CA",
    "verified": false,
    "name": "Fiddletown Country Club",
    "description": "Come play pickleball at Fiddletown Country Club in Fiddletown, CA! There are 4 outdoor hard courts. These are dedicated courts with permanent lines and nets. The courts are free. The facility includes amenities like restrooms, water, and wheelchair accessibility. You canâ€™t reserve the courts.",
    "address": "14274 Fiddletown Rd",
    "city": "Fiddletown",
    "latitude": 38.50451,
    "longitude": -120.761014,
    "indoor": false,
    "num_courts": 4,
    "surface_type": "Hard",
    "fees": "Free",
    "photo_url": "https://cdn.filestackcontent.com/UEvjXZWWTnWJuOQfFVCD",
    "has_restrooms": true,
    "has_water": true,
    "wheelchair_accessible": true,
    "nets_provided": true,
    "skill_levels": "beginner,intermediate",
    "court_type": "dedicated"
  }
]