[
  {
    "county_slug": "butte",
    "state": "CA",
    "verified": false,
    "name": "Bedrock Park Tennis Courts",
    "description": "Bedrock Park Tennis Courts is a place to play pickleball in Oroville, CA. There are 2 outdoor courts. The lines are overlaid on a tennis court, so the net is a little taller than a normal pickleball net. The courts are free. Players have access to restrooms and lights.",
    "address": "1138 5th Ave",
    "city": "Oroville",
    "zip_code": "95965",
    "latitude": 39.511566,
    "longitude": -121.568012,
    "indoor": false,
    "lighted": true,
    "num_courts": 2,
    "fees": "Free",
    "website": "https://FRRPD.org",
    "photo_url": "https://cdn.filestackcontent.com/DvUDjJg1S9iziRjAb1Mw",
    "has_restrooms": true,
    "skill_levels": "advanced,beginner,intermediate",
    "court_type": "dedicated"
  },
  {
    "county_slug": "butte",
    "state": "CA",
    "verified": false,
    "name": "Bedrock Tennis and Pickleball",
    "description": "M, W, F, Sa--Intermediate/Advanced competitive play\nCall for info regarding beginner lessons and recreational play days and times. \n2 courts, permanent lines, 2 courts taped  \n\n8 Dedicated courts coming this FALL!!!  Grand Opening coming soon!!",
    "address": "1150 5th Avenue",
    "city": "Oroville",
    "latitude": 39.511523,
    "longitude": -121.567798,
    "indoor": false,
    "lighted": true,
    "num_courts": 4,
    "open_play_schedule": "Call for information on indoor courts during inclement weather!!  Fees apply.",
    "fees": "Free",
    "phone": "+14056508500",
    "website": "https://www.frrpd.com/bedrock-tennis-pickleball-courts",
    "email": "Barb.eldridge1@yahoo.com",
    "photo_url": "https://cdn.filestackcontent.com/OUwt2epIQ4msDTXxJr1p",
    "has_restrooms": true,
    "skill_levels": "advanced,beginner"
  },
  {
    "county_slug": "butte",
    "state": "CA",
    "verified": false,
    "name": "Chico Pickle & Pong",
    "description": "Come play pickleball at Chico Pickle & Pong in Chico, CA! There are 11 indoor concrete courts. These are dedicated courts with permanent lines and nets. The courts can be reserved. A one-time fee is required to play. Players have access to lights, a pro shop or equipment store, restrooms, water, youth programming, and trainers or lessons.",
    "address": "424 Otterson Dr",
    "city": "Chico",
    "latitude": 39.70816,
    "longitude": -121.822283,
    "indoor": true,
    "lighted": true,
    "num_courts": 11,
    "surface_type": "Concrete",
    "fees": "Fee required â€” $12 drop in fee, $80 per month for unlimited open play",
    "phone": "+15304878136",
    "website": "https://chicopicklepong.com",
    "email": "info@chicopicklepong.com",
    "photo_url": "https://cdn.filestackcontent.com/1Zt0w7w3Tc2da6s35kjS",
    "has_restrooms": true,
    "has_water": true,
    "has_pro_shop": true,
    "nets_provided": true,
    "skill_levels": "advanced,intermediate",
    "court_type": "dedicated"
  },
  {
    "county_slug": "butte",
    "state": "CA",
    "verified": false,
    "name": "Indigo Park",
    "description": "Come play pickleball at Indigo Park in Chico, CA! There are 3 outdoor concrete courts. These are dedicated courts with permanent lines and nets. The facility is wheelchair accessible.",
    "address": "Springfield Dr & Concord Ave",
    "city": "Chico",
    "latitude": 39.729041,
    "longitude": -121.790652,
    "indoor": false,
    "num_courts": 3,
    "surface_type": "Concrete",
    "wheelchair_accessible": true,
    "nets_provided": true,
    "skill_levels": "advanced,beginner",
    "court_type": "dedicated"
  },
  {
    "county_slug": "butte",
    "state": "CA",
    "verified": false,
    "name": "Jim Brinson Activity center",
    "description": "Come play pickleball at Jim Brinson Activity center in Durham, CA! There are 3 indoor courts. The lines are permanent, but you'll need to bring your own net. A membership is required to play. Players have access to lights.",
    "address": "9447 Midway",
    "city": "Durham",
    "zip_code": "95938",
    "latitude": 39.64791,
    "longitude": -121.801094,
    "indoor": true,
    "lighted": true,
    "num_courts": 3,
    "fees": "Members only",
    "website": "https://durhamrecreation.recdesk.com/Community/Facility/Detail?facilityId=3",
    "nets_provided": false,
    "skill_levels": "advanced,beginner",
    "court_type": "dedicated"
  },
  {
    "county_slug": "butte",
    "state": "CA",
    "verified": false,
    "name": "Martin Luther King Park",
    "description": "Martin Luther King Park is one of the most popular places to play pickleball in Chico, CA. There are 16 outdoor hard courts. These are dedicated courts with permanent lines and nets. The courts are free. Amenities include restrooms, water, and lights.",
    "address": "1900 Martin Luther King Jr Pkwy",
    "city": "Chico",
    "zip_code": "95928",
    "latitude": 39.726619,
    "longitude": -121.812712,
    "indoor": false,
    "lighted": true,
    "num_courts": 16,
    "surface_type": "Hard",
    "fees": "Free",
    "phone": "5308954711",
    "website": "https://www.chicorec.com/community-park",
    "photo_url": "https://cdn.filestackcontent.com/tXQqYDSXT9eSyqT6I2Le",
    "has_restrooms": true,
    "has_water": true,
    "nets_provided": true,
    "skill_levels": "advanced,intermediate",
    "court_type": "dedicated"
  }
]