[
  {
    "county_slug": "calaveras",
    "state": "CA",
    "verified": false,
    "name": "Alex Quinones Community Park",
    "description": "Alex Quinones Community Park is one of the most popular places to play pickleball in San Andreas, CA. There is 1 outdoor concrete court. This is a dedicated court with a permanent net and lines. You canâ€™t reserve the court. The court is free.",
    "address": "990 Park Drive",
    "city": "San Andreas",
    "latitude": 38.18736,
    "longitude": -120.667689,
    "indoor": false,
    "num_courts": 1,
    "surface_type": "Concrete",
    "fees": "Free",
    "phone": "2097540127",
    "website": "Https://Www.Calaverasenterprise.com/articles/community/alex-quinones-community-park-gets-new-playground-pickleball-court/",
    "email": "Info@sanandreasparks.org",
    "photo_url": "https://cdn.filestackcontent.com/QQqDsNsbSx604tyZ6KLF",
    "nets_provided": true,
    "skill_levels": "advanced,beginner,intermediate",
    "court_type": "dedicated",
    "has_parking": true
  },
  {
    "county_slug": "calaveras",
    "state": "CA",
    "verified": false,
    "name": "Copper Valley Community Services District",
    "description": "Copper Valley Community Services District is a place to play pickleball in Copperopolis, CA. There are 2 outdoor hard courts. The lines are permanent, and portable nets are available. A membership is required to play. Players have access to restrooms and water.",
    "address": "1000 Saddle Creek Dr",
    "city": "Copperopolis",
    "latitude": 37.922897,
    "longitude": -120.636976,
    "indoor": false,
    "num_courts": 2,
    "surface_type": "Hard",
    "fees": "Members only",
    "phone": "(209) 785-0100",
    "website": "https://coppervalleycsd.org/",
    "email": "thecoppervalleyclub@gmail.com",
    "photo_url": "https://cdn.filestackcontent.com/ELQyOX77Q1qQ4amGZEou",
    "has_restrooms": true,
    "has_water": true,
    "nets_provided": true,
    "skill_levels": "intermediate",
    "court_type": "dedicated"
  },
  {
    "county_slug": "calaveras",
    "state": "CA",
    "verified": false,
    "name": "The Golf Club at Copper Valley",
    "description": "Come play pickleball at The Golf Club at Copper Valley in Copperopolis, CA! There are 2 outdoor courts. The lines are permanent, but you'll need to bring your own net. The courts are private.",
    "address": "Saddle Creek Dr",
    "city": "Copperopolis",
    "latitude": 37.91938,
    "longitude": -120.639229,
    "indoor": false,
    "num_courts": 2,
    "fees": "Private",
    "website": "https://www.coppervalleygolf.com/",
    "photo_url": "https://cdn.filestackcontent.com/tLmef1XQeCCAfmImNOnR",
    "nets_provided": false,
    "court_type": "dedicated"
  },
  {
    "county_slug": "calaveras",
    "state": "CA",
    "verified": false,
    "name": "White Pines Park",
    "description": "White Pines Park is one of the most popular places to play pickleball in Arnold, CA. There is 1 outdoor concrete court. This is a dedicated court with a permanent net and lines. The court is free. Players have access to restrooms.",
    "address": "1688 Blagen Rd",
    "city": "Arnold",
    "latitude": 38.265612,
    "longitude": -120.341044,
    "indoor": false,
    "num_courts": 1,
    "surface_type": "Concrete",
    "fees": "Free",
    "photo_url": "https://cdn.filestackcontent.com/D7nOhUVHRWWb2tqf77vs",
    "has_restrooms": true,
    "nets_provided": true,
    "skill_levels": "intermediate",
    "court_type": "dedicated"
  }
]