[
  {
    "county_slug": "contra-costa",
    "state": "CA",
    "verified": false,
    "name": "Blackhawk Country Club",
    "description": "Blackhawk Country Club is one of the most popular places to play pickleball in Blackhawk, CA. There are 6 outdoor hard courts. These are dedicated courts with permanent lines and nets. The courts can be reserved. The facility includes amenities like food, locker rooms, restrooms, water, youth programming, lights, a pro shop or equipment store, trainers or lessons, wheelchair accessibility, and adaptive programming. A membership is required to play.",
    "address": "1100 Eagle Nest Pl",
    "city": "Blackhawk",
    "latitude": 37.821218,
    "longitude": -121.903341,
    "indoor": false,
    "lighted": true,
    "num_courts": 6,
    "surface_type": "Hard",
    "fees": "Members only",
    "phone": "+19257366500",
    "website": "https://blackhawkcc.org",
    "photo_url": "https://cdn.filestackcontent.com/0WwxVcvuTOqLfmms2FuI",
    "has_restrooms": true,
    "has_water": true,
    "has_pro_shop": true,
    "wheelchair_accessible": true,
    "nets_provided": true,
    "skill_levels": "advanced,beginner",
    "court_type": "dedicated"
  },
  {
    "county_slug": "contra-costa",
    "state": "CA",
    "verified": false,
    "name": "Booker T. Anderson Jr. Park",
    "description": "2 permanent nets, 4 portable nets that need to be set up (provided)",
    "address": "4700 Cypress Ave",
    "city": "Richmond",
    "zip_code": "94804",
    "latitude": 37.919926,
    "longitude": -122.326393,
    "indoor": false,
    "num_courts": 6,
    "surface_type": "Asphalt",
    "open_play_schedule": "Beginner Clinic is 1st Saturday.",
    "fees": "Free",
    "phone": "5104597780",
    "website": "https://www.facebook.com/groups/264778931874057",
    "email": "eastbaypickleballassociation@gmail.com",
    "photo_url": "https://cdn.filestackcontent.com/WASueM3hTwmySaK1wz5d",
    "has_restrooms": true,
    "has_water": true,
    "nets_provided": true,
    "skill_levels": "advanced,beginner",
    "court_type": "dedicated"
  },
  {
    "county_slug": "contra-costa",
    "state": "CA",
    "verified": false,
    "name": "Cappy Ricks Park",
    "description": "Small residential park outside of downtown Martinez. No reservations and you will need to bring your own court markers",
    "address": "1201 Brown St",
    "city": "Martinez",
    "latitude": 38.013435,
    "longitude": -122.127178,
    "indoor": false,
    "lighted": true,
    "num_courts": 2,
    "surface_type": "Asphalt",
    "fees": "Free",
    "website": "https://www.cityofmartinez.org/Home/Components/FacilityDirectory/FacilityDirectory/16/205",
    "photo_url": "https://cdn.filestackcontent.com/h8DjeMeR1KoFUrCRQHti",
    "has_restrooms": true,
    "skill_levels": "beginner,intermediate",
    "court_type": "shared"
  },
  {
    "county_slug": "contra-costa",
    "state": "CA",
    "verified": false,
    "name": "Castro Park",
    "description": "Come play pickleball at Castro Park in El Cerrito, CA! There are 6 outdoor hard courts. These are dedicated courts with permanent lines and nets. Amenities include restrooms and water. The courts are free. The courts can be reserved.",
    "address": "1441 Lawrence St",
    "city": "El Cerrito",
    "latitude": 37.921517,
    "longitude": -122.305352,
    "indoor": false,
    "num_courts": 6,
    "surface_type": "Hard",
    "fees": "Free",
    "website": "http://www.el-cerrito.org/facilities/facility/details/castro-park--clubhouse-5",
    "email": "abcpickleball@gmail.com",
    "photo_url": "https://cdn.filestackcontent.com/227aSoaWQ76viZbePR29",
    "has_restrooms": true,
    "has_water": true,
    "nets_provided": true,
    "skill_levels": "advanced,beginner,intermediate",
    "court_type": "dedicated"
  },
  {
    "county_slug": "contra-costa",
    "state": "CA",
    "verified": false,
    "name": "Club Sport San Ramon",
    "description": "ClubSport offers its members 4 pickleball courts on Tennis Court 1, with permanent lines and 4 mobiles nets. Rackets and balls are available on site for Pickleball play.\n\nClubSport offers drop-in classes for beginners and intermediate players. Check the Tennis Court 1 schedule for class meeting times. Or train one-on-one with a Certified Pickleball Coach to improve your game.",
    "address": "350 Bollinger Canyon Lane",
    "city": "San Ramon",
    "latitude": 37.772297,
    "longitude": -121.944574,
    "indoor": false,
    "lighted": true,
    "num_courts": 4,
    "surface_type": "Concrete",
    "open_play_schedule": "CLUB\nMONDAY - THURSDAY:\n5:00am - 10:00pm\n\nFRIDAY:\n5:00am - 9:00pm\n\nSATURDAY:\n6:00am - 9:00pm\n\nSUNDAY:\n7:00am - 9:00pm",
    "fees": "Members only",
    "phone": "(925) 735-8500",
    "website": "https://www.clubsportsr.com/club-hours",
    "email": "Info@clubsportsr.com",
    "photo_url": "https://cdn.filestackcontent.com/AmWCe4CLQnalTj8NhdIi",
    "has_restrooms": true,
    "has_water": true,
    "has_pro_shop": true,
    "nets_provided": true,
    "skill_levels": "beginner,intermediate",
    "court_type": "dedicated"
  },
  {
    "county_slug": "contra-costa",
    "state": "CA",
    "verified": false,
    "name": "Cornell Park",
    "description": "Come play pickleball at Cornell Park in Discovery Bay, CA! There are 6 outdoor courts. The lines are permanent, but you'll need to bring your own net. The courts are free.",
    "address": "505 Discovery Bay Blvd",
    "city": "Discovery Bay",
    "zip_code": "94505",
    "latitude": 37.915127,
    "longitude": -121.595275,
    "indoor": false,
    "num_courts": 6,
    "fees": "Free",
    "website": "https://www.todb.ca.gov/",
    "email": "grlbrew@yahoo.com",
    "photo_url": "https://cdn.filestackcontent.com/HopXWzrGTm24FiIBuuJo",
    "nets_provided": false,
    "skill_levels": "beginner,intermediate",
    "court_type": "dedicated"
  },
  {
    "county_slug": "contra-costa",
    "state": "CA",
    "verified": false,
    "name": "Creekside Park",
    "description": "Beautiful recently resurfaced courts. There is a new tall fence around all the courts with a windscreen that makes it possible to play even on fairly gusty days. There are court dividers too, so you‚Äôre not constantly interrupted by errant shots from other courts. This really is a great set up.",
    "address": "1010 Claremont Dr",
    "city": "Brentwood",
    "zip_code": "94513",
    "latitude": 37.921976,
    "longitude": -121.713663,
    "indoor": false,
    "lighted": true,
    "num_courts": 4,
    "open_play_schedule": "The gates are unlocked @ 7AM and locked @ 7PM",
    "fees": "Free",
    "phone": "9253542015",
    "photo_url": "https://cdn.filestackcontent.com/Y0ct6tmWRyWRZjvMULvz",
    "has_restrooms": true,
    "has_water": true,
    "nets_provided": true,
    "skill_levels": "beginner,intermediate",
    "court_type": "dedicated"
  },
  {
    "county_slug": "contra-costa",
    "state": "CA",
    "verified": false,
    "name": "Crow Canyon Country Club",
    "description": "Crow Canyon Country Club is one of the most popular places to play pickleball in Danville, CA. There are 8 outdoor concrete courts. These are dedicated courts with permanent lines and nets. A membership is required to play. The courts cannot be reserved. Players have access to lights, restrooms, locker rooms, food, and water.",
    "address": "711 Silver Lake Dr",
    "city": "Danville",
    "zip_code": "94526",
    "latitude": 37.786283,
    "longitude": -121.961996,
    "indoor": false,
    "lighted": true,
    "num_courts": 8,
    "surface_type": "Concrete",
    "fees": "Members only",
    "phone": "9257355700",
    "website": "https://www.bayclubs.com/crowcanyon/?utm_source=Chatmeter&utm_medium=Google&utm_campaign=ClubPage&utm_content=CrowCanyonCH",
    "photo_url": "https://cdn.filestackcontent.com/7domIrE3REWxAoF1MtpK",
    "has_restrooms": true,
    "has_water": true,
    "nets_provided": true,
    "skill_levels": "intermediate",
    "court_type": "dedicated",
    "has_pro_shop": true
  },
  {
    "county_slug": "contra-costa",
    "state": "CA",
    "verified": false,
    "name": "Diablo Country Club",
    "description": "Come play pickleball at Diablo Country Club in Danville, CA! There are 4 outdoor hard courts. These are dedicated courts with permanent lines and nets. A membership is required to play. The facility includes amenities like restrooms, water, lights, trainers or lessons, food, locker rooms, and a pro shop or equipment store.",
    "address": "1700 Club House Rd",
    "city": "Danville",
    "zip_code": "94528",
    "latitude": 37.836431,
    "longitude": -121.960091,
    "indoor": false,
    "lighted": true,
    "num_courts": 4,
    "surface_type": "Hard",
    "fees": "Members only",
    "phone": "9258379233",
    "website": "https://www.diablocc.org/",
    "photo_url": "https://cdn.filestackcontent.com/NTuPbHvQQuVCLZ6aDGqo",
    "has_restrooms": true,
    "has_water": true,
    "has_pro_shop": true,
    "nets_provided": true,
    "skill_levels": "beginner,intermediate",
    "court_type": "dedicated"
  },
  {
    "county_slug": "contra-costa",
    "state": "CA",
    "verified": false,
    "name": "Diamond Hills Sports Club & Spa",
    "description": "Diamond Hills Sports Club & Spa is one of the most popular places to play pickleball in Oakley, CA. There are 5 outdoor courts. These are dedicated courts with permanent lines and nets. A membership is required to play.",
    "address": "1510 Neroly Rd",
    "city": "Oakley",
    "zip_code": "94561",
    "latitude": 37.971761,
    "longitude": -121.731997,
    "indoor": false,
    "num_courts": 5,
    "fees": "Members only",
    "phone": "9254204575",
    "website": "http://www.sparetimeclubs.com/",
    "photo_url": "https://cdn.filestackcontent.com/0OLa3lZTqnqVpdaBKsgo",
    "nets_provided": true,
    "skill_levels": "intermediate",
    "court_type": "dedicated"
  },
  {
    "county_slug": "contra-costa",
    "state": "CA",
    "verified": false,
    "name": "Discovery Bay Community Center Pickleball Courts",
    "description": "this location just added 6 more courts!  All 12 courts are open for play!!",
    "address": "1601 Discovery Bay Blvd",
    "city": "Discovery Bay",
    "zip_code": "94505",
    "latitude": 37.900601,
    "longitude": -121.602074,
    "indoor": false,
    "num_courts": 12,
    "surface_type": "Acrylic",
    "fees": "Free",
    "phone": "9256343528",
    "website": "https://todb.ca.gov/community-center",
    "email": "grlbrew@yahoo.com",
    "photo_url": "https://cdn.filestackcontent.com/A1UzWziBTIKnCkOlnDh5",
    "has_restrooms": true,
    "has_water": true,
    "wheelchair_accessible": true,
    "nets_provided": true,
    "skill_levels": "intermediate",
    "court_type": "dedicated"
  },
  {
    "county_slug": "contra-costa",
    "state": "CA",
    "verified": false,
    "name": "Hidden Valley Sport Courts",
    "description": "Hidden Valley Sport Courts is a place to play pickleball in Martinez, CA. There are 8 outdoor hard courts. These are dedicated courts with permanent lines and nets. The courts are free. Amenities include lights.",
    "address": "Hidden Valley Sport Courts",
    "city": "Martinez",
    "latitude": 37.984221,
    "longitude": -122.090222,
    "indoor": false,
    "lighted": true,
    "num_courts": 8,
    "surface_type": "Hard",
    "fees": "Free",
    "photo_url": "https://cdn.filestackcontent.com/27SJPUCVQJyLbQ4qjz0t",
    "nets_provided": true,
    "skill_levels": "beginner,intermediate",
    "court_type": "dedicated"
  },
  {
    "county_slug": "contra-costa",
    "state": "CA",
    "verified": false,
    "name": "Indoor Pickleball X - Concord",
    "description": "‚úÖ Open 24/7 ‚Äî play anytime, day or night!\nüå°Ô∏è Indoor climate-controlled ‚Äî perfect temperature year-round.\nüéüÔ∏è Free Bronze Membership ‚Äî book courts with no fee to join.\nüí° Pro-grade LED lighting ‚Äî bright, even visibility on every shot.\nüéâ Book parties & private events ‚Äî great for groups and celebrations.\nüöó Easy parking & direct entry ‚Äî no hassle access.\nüé∂ Lounge area ‚Äî relax between games.",
    "address": "1695 Willow Pass Rd suite 2",
    "city": "Concord",
    "latitude": 37.974551,
    "longitude": -122.042838,
    "indoor": true,
    "lighted": true,
    "num_courts": 9,
    "surface_type": "Acrylic, Concrete",
    "fees": "Fee required ‚Äî üíé Gold Members: FREE open play & court booking ÔΩú ü•â Free Bronze Visitors: open play from $15/hr, court booking from $40/hr",
    "phone": "+19255783607",
    "website": "https://indoorpickleballx.com/concord-ca/",
    "email": "concord-info@indoorpickleballx.com",
    "photo_url": "https://cdn.filestackcontent.com/xAs6u4ZSsOzBeNwzhb8w",
    "has_restrooms": true,
    "has_water": true,
    "nets_provided": true,
    "skill_levels": "advanced,beginner",
    "court_type": "dedicated",
    "has_parking": true,
    "paddle_rental": true
  },
  {
    "county_slug": "contra-costa",
    "state": "CA",
    "verified": false,
    "name": "Iron Horse Gym",
    "description": "Sunday Afternoons: November 2023 - June 2024 (Resumes November 2024)\n\nPlease pay online prior to participating in open gym to reduce wait time to enter. Please show payment receipt (paper of digital) when you enter in the facility .  All participants and guest must pay the entry fee during Open Gym in order to enter in the facility. \n\nNO CASH will be accepted, Admission to the open gym program is credit card only or Active Membership Pass.",
    "address": "12601 Alcosta Blvd",
    "city": "San Ramon",
    "zip_code": "94583",
    "latitude": 37.770534,
    "longitude": -121.957673,
    "indoor": true,
    "lighted": true,
    "num_courts": 6,
    "surface_type": "Wood",
    "open_play_schedule": "Open Sundays through February.",
    "fees": "Fee required ‚Äî $6 per player",
    "website": "https://www.sanramon.ca.gov/our_city/departments_and_divisions/parks_community_services/sports_fitness/open_gym",
    "photo_url": "https://cdn.filestackcontent.com/BKVo55yoTNatuyTEKKzL",
    "has_restrooms": true,
    "has_water": true,
    "wheelchair_accessible": true,
    "nets_provided": true,
    "skill_levels": "advanced,beginner,intermediate",
    "court_type": "dedicated",
    "has_parking": true
  },
  {
    "county_slug": "contra-costa",
    "state": "CA",
    "verified": false,
    "name": "Irvin Deutscher Family YMCA",
    "description": "Come play pickleball at Irvin Deutscher Family YMCA in Pleasant Hill, CA! There are 4 outdoor asphalt courts. The lines are permanent, and portable nets are available. The facility includes amenities like restrooms, locker rooms, water, lights, and wheelchair accessibility. Reservations are not available. A membership is required to play.",
    "address": "350 Civic Drive",
    "city": "Pleasant Hill",
    "latitude": 37.962495,
    "longitude": -122.070949,
    "indoor": false,
    "lighted": true,
    "num_courts": 4,
    "surface_type": "Asphalt",
    "fees": "Members only",
    "phone": "9258874549",
    "website": "Http://Www.ymcaeastbay.org",
    "email": "Jmarquez@ymcaeastbay.org",
    "photo_url": "https://cdn.filestackcontent.com/F7CijurAQiOkIgRRtWV8",
    "has_restrooms": true,
    "has_water": true,
    "wheelchair_accessible": true,
    "nets_provided": true,
    "skill_levels": "beginner,intermediate",
    "court_type": "dedicated"
  },
  {
    "county_slug": "contra-costa",
    "state": "CA",
    "verified": false,
    "name": "Lafayette Rink",
    "description": "Lafayette Rink is one of the most popular places to play pickleball in Lafayette, CA. There are 6 outdoor hard courts. These are dedicated courts with permanent lines and nets. The courts are free. The facility includes amenities like restrooms and trainers or lessons.",
    "address": "576 St Marys Rd",
    "city": "Lafayette",
    "latitude": 37.866359,
    "longitude": -122.098996,
    "indoor": false,
    "num_courts": 6,
    "surface_type": "Hard",
    "fees": "Free",
    "phone": "+19252842232",
    "website": "https://www.lafayettepickleballclub.org/",
    "photo_url": "https://cdn.filestackcontent.com/E3HS1G4FQjCtAKcvnPFD",
    "has_restrooms": true,
    "nets_provided": true,
    "skill_levels": "beginner,intermediate",
    "court_type": "dedicated"
  },
  {
    "county_slug": "contra-costa",
    "state": "CA",
    "verified": false,
    "name": "Lakeridge Athletic Club",
    "description": "Come play pickleball at Lakeridge Athletic Club in El Sobrante, CA! There are 4 outdoor hard courts. A membership is required to play. The facility includes amenities like restrooms, water, lights, locker rooms, and food.",
    "address": "6350 San Pablo Dam Rd",
    "city": "El Sobrante",
    "zip_code": "94803",
    "latitude": 37.948466,
    "longitude": -122.270307,
    "indoor": false,
    "lighted": true,
    "num_courts": 4,
    "surface_type": "Hard",
    "fees": "Members only",
    "phone": "5102222500",
    "website": "http://www.lakeridgeathletic.com/",
    "email": "info@lakeridgeathletic.com",
    "has_restrooms": true,
    "has_water": true,
    "skill_levels": "beginner,intermediate"
  },
  {
    "county_slug": "contra-costa",
    "state": "CA",
    "verified": false,
    "name": "Norcal Courts",
    "description": "Norcal Courts is a place to play pickleball in Martinez, CA. There are 9 indoor courts. The lines are permanent, but you'll need to bring your own net. A one-time fee is required to play.",
    "address": "360 Ferry St",
    "city": "Martinez",
    "zip_code": "94553",
    "latitude": 38.020047,
    "longitude": -122.139567,
    "indoor": true,
    "num_courts": 9,
    "fees": "Fee required",
    "phone": "9254575081",
    "website": "http://www.norcalcourts.com",
    "photo_url": "https://cdn.filestackcontent.com/0NrszIYESjaEqvfX9tMA",
    "nets_provided": false,
    "skill_levels": "advanced,beginner,intermediate",
    "court_type": "dedicated"
  },
  {
    "county_slug": "contra-costa",
    "state": "CA",
    "verified": false,
    "name": "Orinda Community Center Park",
    "description": "Orinda Community Center Park is one of the most popular places to play pickleball in Orinda, CA. There are 3 outdoor hard courts. The lines are permanent, and portable nets are available. Amenities include restrooms, lights, and water. The courts are free.",
    "address": "28 Orinda Way",
    "city": "Orinda",
    "zip_code": "94563",
    "latitude": 37.883678,
    "longitude": -122.189244,
    "indoor": false,
    "lighted": true,
    "num_courts": 3,
    "surface_type": "Hard",
    "open_play_schedule": "During the summer no open play on Monday mornings due to a tennis camp",
    "fees": "Free",
    "phone": "+19252542445",
    "website": "https://www.cityoforinda.org/514/Tennis-and-Pickleball-Courts",
    "photo_url": "https://cdn.filestackcontent.com/r9tOc90iQ22Vu9Ji59jq",
    "has_restrooms": true,
    "has_water": true,
    "nets_provided": true,
    "skill_levels": "beginner,intermediate",
    "court_type": "dedicated"
  },
  {
    "county_slug": "contra-costa",
    "state": "CA",
    "verified": false,
    "name": "Osage Park",
    "description": "Osage Park is a place to play pickleball in Danville, CA. There are 2 outdoor hard courts. These are dedicated courts with permanent lines and nets. The courts are free. You can‚Äôt reserve the courts.",
    "address": "816 Brookside Dr",
    "city": "Danville",
    "zip_code": "94526",
    "latitude": 37.805238,
    "longitude": -121.981505,
    "indoor": false,
    "num_courts": 2,
    "surface_type": "Hard",
    "fees": "Free",
    "phone": "+19253143400",
    "website": "https://www.danville.ca.gov/620/Osage-Station-Park",
    "photo_url": "https://cdn.filestackcontent.com/DV1d7JjrREW6uFHTSkRt",
    "nets_provided": true,
    "skill_levels": "advanced,beginner,intermediate",
    "court_type": "dedicated",
    "has_parking": true
  },
  {
    "county_slug": "contra-costa",
    "state": "CA",
    "verified": false,
    "name": "Pine Hollow Tennis Courts",
    "description": "Pine Hollow Tennis Courts is one of the most popular places to play pickleball in Concord, CA. There are 2 outdoor hard courts. You‚Äôll have to create your own lines and bring your own net. Amenities include lights. Reservations are not available. The courts are free.",
    "address": "5491 Silver Sage Ct",
    "city": "Concord",
    "latitude": 37.940804,
    "longitude": -121.962486,
    "indoor": false,
    "lighted": true,
    "num_courts": 2,
    "surface_type": "Hard",
    "fees": "Free",
    "website": "https://www.cityofconcord.org/Facilities/Facility/Details/Pine-Hollow-Courts-29",
    "photo_url": "https://cdn.filestackcontent.com/4BUBiWKZRQmsQRPTPQJm",
    "nets_provided": false,
    "skill_levels": "beginner,intermediate",
    "court_type": "shared"
  },
  {
    "county_slug": "contra-costa",
    "state": "CA",
    "verified": false,
    "name": "Pittsburg Marina Community Center",
    "description": "Come play pickleball at Pittsburg Marina Community Center in Pittsburg, CA! There are 3 indoor courts. These are dedicated courts with permanent lines and nets. You can‚Äôt reserve the courts. A one-time fee is required to play.",
    "address": "340 Marina Blvd",
    "city": "Pittsburg",
    "latitude": 38.033693,
    "longitude": -121.885051,
    "indoor": true,
    "num_courts": 3,
    "fees": "Fee required ‚Äî $5",
    "phone": "+19252524842",
    "website": "https://www.pittsburgrec.com",
    "email": "jagonzalez@pittsburgca.gov",
    "photo_url": "https://cdn.filestackcontent.com/9gvhfmObRuu09KWTM1wa",
    "nets_provided": true,
    "skill_levels": "beginner,intermediate",
    "court_type": "dedicated"
  },
  {
    "county_slug": "contra-costa",
    "state": "CA",
    "verified": false,
    "name": "Richmond Parks & Rec",
    "description": "Richmond Parks & Rec is one of the most popular places to play pickleball in Richmond, CA. There are 2 indoor wood courts. The lines are permanent, and portable nets are available. A one-time fee is required to play.",
    "address": "3230 MacDonald Avenue",
    "city": "Richmond",
    "latitude": 37.93382,
    "longitude": -122.33833,
    "indoor": true,
    "num_courts": 2,
    "surface_type": "Wood",
    "fees": "Fee required",
    "phone": "+15106206793",
    "website": "https://www.ci.richmond.ca.us/2075/Parks-Facilities",
    "photo_url": "https://cdn.filestackcontent.com/uDmL0yanQEa6Et1PPAIL",
    "nets_provided": true,
    "skill_levels": "beginner,intermediate",
    "court_type": "dedicated"
  },
  {
    "county_slug": "contra-costa",
    "state": "CA",
    "verified": false,
    "name": "Richmond Police Activities League",
    "description": "Come play pickleball at Richmond Police Activities League in Richmond, CA! There are 2 indoor courts. The lines are permanent, but you'll need to bring your own net. Amenities include restrooms and wheelchair accessibility. The courts are free.",
    "address": "2200 Macdonald Ave",
    "city": "Richmond",
    "zip_code": "94801",
    "latitude": 37.935122,
    "longitude": -122.348087,
    "indoor": true,
    "num_courts": 2,
    "fees": "Free",
    "website": "http://www.rpal.org/",
    "photo_url": "https://cdn.filestackcontent.com/mFvkEbcASMinviqpiu7M",
    "has_restrooms": true,
    "wheelchair_accessible": true,
    "nets_provided": false,
    "skill_levels": "beginner,intermediate",
    "court_type": "dedicated"
  },
  {
    "county_slug": "contra-costa",
    "state": "CA",
    "verified": false,
    "name": "Rossmoor",
    "description": "Only guests with members play during open play. This is private group.",
    "address": "1001 Golden Rain Rd",
    "city": "Walnut Creek",
    "zip_code": "94595",
    "latitude": 37.870031,
    "longitude": -122.074328,
    "indoor": false,
    "num_courts": 6,
    "surface_type": "Concrete",
    "fees": "Members only",
    "phone": "9259541196",
    "website": "https://rossmoor.com/",
    "photo_url": "https://cdn.filestackcontent.com/V9IFao9CQQugPMLxe086",
    "nets_provided": true,
    "skill_levels": "beginner,intermediate",
    "court_type": "dedicated",
    "has_pro_shop": true
  },
  {
    "county_slug": "contra-costa",
    "state": "CA",
    "verified": false,
    "name": "Rudgear Park",
    "description": "Rudgear Park is one of the most popular places to play pickleball in Walnut Creek, CA. There are 8 outdoor concrete courts. These are dedicated courts with permanent lines and nets. The courts cannot be reserved. The courts are free.",
    "address": "2256 Dapplegray Ln",
    "city": "Walnut Creek",
    "latitude": 37.876147,
    "longitude": -122.026785,
    "indoor": false,
    "num_courts": 8,
    "surface_type": "Concrete",
    "fees": "Free",
    "website": "https://www.walnutcreekpickleballclub.com/",
    "photo_url": "https://cdn.filestackcontent.com/zIazStHtSWC7YHAoZ0jk",
    "nets_provided": true,
    "skill_levels": "advanced,intermediate",
    "court_type": "dedicated"
  },
  {
    "county_slug": "contra-costa",
    "state": "CA",
    "verified": false,
    "name": "San Ramon Central Park",
    "description": "San Ramon Central Park is one of the most popular places to play pickleball in San Ramon, CA. There are 4 outdoor concrete courts. These are dedicated courts with permanent lines and nets. Amenities include lights and restrooms. Reservations are not available. The courts are free.",
    "address": "12501 Alcosta Blvd",
    "city": "San Ramon",
    "latitude": 37.766461,
    "longitude": -121.953621,
    "indoor": false,
    "lighted": true,
    "num_courts": 4,
    "surface_type": "Concrete",
    "fees": "Free",
    "photo_url": "https://cdn.filestackcontent.com/U10HgXYTGuAY9O9SUWMv",
    "has_restrooms": true,
    "nets_provided": true,
    "skill_levels": "advanced,beginner,intermediate",
    "court_type": "dedicated"
  },
  {
    "county_slug": "contra-costa",
    "state": "CA",
    "verified": false,
    "name": "Sleepy Hollow Swim and Tennis Club",
    "description": "Sleepy Hollow Swim and Tennis Club is one of the most popular places to play pickleball in Orinda, CA. There are 2 outdoor hard courts. The lines are permanent, and portable nets are available. A membership is required to play. Amenities include restrooms and lights.",
    "address": "1 Sunnyside Ln",
    "city": "Orinda",
    "latitude": 37.917286,
    "longitude": -122.186363,
    "indoor": false,
    "lighted": true,
    "num_courts": 2,
    "surface_type": "Hard",
    "fees": "Members only",
    "phone": "+19252541126",
    "website": "https://www.sleepyhollowclub.com/",
    "photo_url": "https://cdn.filestackcontent.com/zqC2hqxiTlWtq1qKKIyU",
    "has_restrooms": true,
    "nets_provided": true,
    "skill_levels": "beginner,intermediate",
    "court_type": "dedicated"
  },
  {
    "county_slug": "contra-costa",
    "state": "CA",
    "verified": false,
    "name": "Sports Basement San Ramon",
    "description": "Come play pickleball at Sports Basement San Ramon in San Ramon, CA! There are 3 outdoor concrete courts. The lines are permanent, and portable nets are available. Reservations are not available. Amenities include restrooms, water, and trainers or lessons. The courts are free.",
    "address": "1041 Market Place San Ramon",
    "city": "San Ramon",
    "latitude": 37.762076,
    "longitude": -121.953271,
    "indoor": false,
    "num_courts": 3,
    "surface_type": "Concrete",
    "open_play_schedule": "Open during all store hours.",
    "fees": "Free",
    "phone": "+19254986130",
    "website": "https://shop.sportsbasement.com/blogs/community-spaces/the-garden-center",
    "photo_url": "https://cdn.filestackcontent.com/clRj3WgvT6meTBL0Bdgr",
    "has_restrooms": true,
    "has_water": true,
    "nets_provided": true,
    "skill_levels": "beginner,intermediate",
    "court_type": "dedicated"
  },
  {
    "county_slug": "contra-costa",
    "state": "CA",
    "verified": false,
    "name": "The ARC",
    "description": "Come play pickleball at The ARC in Alamo, CA! There are 3 indoor wood courts. The lines are permanent, and portable nets are available. A one-time fee is required to play. The facility includes amenities like water, lights, and restrooms.",
    "address": "902 Danville Blvd",
    "city": "Alamo",
    "zip_code": "94507",
    "latitude": 37.835417,
    "longitude": -122.016788,
    "indoor": true,
    "lighted": true,
    "num_courts": 3,
    "surface_type": "Wood",
    "open_play_schedule": "Youth activities may override pickleball during school holidays. Call to be sure.",
    "fees": "Fee required ‚Äî $10 for drop-in day or $60 for  11 days multipass.",
    "phone": "9258372011",
    "website": "https://www.thearcenter.com/",
    "photo_url": "https://cdn.filestackcontent.com/akYd1XfTlGBpS4aWArVQ",
    "has_restrooms": true,
    "has_water": true,
    "nets_provided": true,
    "skill_levels": "beginner,intermediate",
    "court_type": "dedicated",
    "has_parking": true
  },
  {
    "county_slug": "contra-costa",
    "state": "CA",
    "verified": false,
    "name": "The lakes pickleball courts",
    "description": "Come play pickleball at The lakes pickleball courts in Discovery Bay, CA! There are 2 outdoor concrete courts. These are dedicated courts with permanent lines and nets. The facility is wheelchair accessible. The courts are private.",
    "address": "7071 Harbor Haven Way",
    "city": "Discovery Bay",
    "latitude": 37.927853,
    "longitude": -121.617361,
    "indoor": false,
    "num_courts": 2,
    "surface_type": "Concrete",
    "fees": "Private",
    "photo_url": "https://cdn.filestackcontent.com/0Q0jOb9MQXCoNQ3CwKxN",
    "wheelchair_accessible": true,
    "nets_provided": true,
    "skill_levels": "beginner",
    "court_type": "dedicated"
  },
  {
    "county_slug": "contra-costa",
    "state": "CA",
    "verified": false,
    "name": "Tice Valley Gym",
    "description": "Come play pickleball at Tice Valley Gym in Walnut Creek, CA! There are 9 indoor wood courts. The lines are permanent, and portable nets are available. Players have access to restrooms, water, wheelchair accessibility, and locker rooms. You can‚Äôt reserve the courts. A one-time fee is required to play.",
    "address": "2055 Tice Valley Blvd",
    "city": "Walnut Creek",
    "zip_code": "94595",
    "latitude": 37.875422,
    "longitude": -122.070896,
    "indoor": true,
    "num_courts": 9,
    "surface_type": "Wood",
    "fees": "Fee required ‚Äî $7",
    "phone": "9259984743",
    "website": "https://www.walnut-creek.org/Home/Components/FacilityDirectory/FacilityDirectory/90/430",
    "email": "shywyo@aol.com",
    "photo_url": "https://cdn.filestackcontent.com/0SgWiQPqS0mEDFcmPyPR",
    "has_restrooms": true,
    "has_water": true,
    "wheelchair_accessible": true,
    "nets_provided": true,
    "skill_levels": "beginner,intermediate",
    "court_type": "dedicated"
  },
  {
    "county_slug": "contra-costa",
    "state": "CA",
    "verified": false,
    "name": "Trilogy at the Vineyards",
    "description": "Trilogy at the Vineyards is one of the most popular places to play pickleball in Brentwood, CA. There are 7 outdoor courts. These are dedicated courts with permanent lines and nets. The facility includes amenities like lights. The courts are private.",
    "address": "1700 Trilogy Pkwy",
    "city": "Brentwood",
    "zip_code": "94513",
    "latitude": 37.902065,
    "longitude": -121.730015,
    "indoor": false,
    "lighted": true,
    "num_courts": 7,
    "fees": "Private",
    "phone": "5106911880",
    "website": "https://www.sheahomes.com/new-homes/california/bay-area/brentwood/trilogy-at-the-vineyards/",
    "email": "dyarra@sbcglobal.net",
    "photo_url": "https://cdn.filestackcontent.com/BeCKddFAQDSBrUISjhp5",
    "nets_provided": true,
    "skill_levels": "beginner",
    "court_type": "dedicated"
  },
  {
    "county_slug": "contra-costa",
    "state": "CA",
    "verified": false,
    "name": "Walnut Creek Tennis Center",
    "description": "Walnut Creek Tennis Center is a place to play pickleball in Walnut Creek, CA. There are 2 outdoor asphalt courts. These are dedicated courts with permanent lines and nets. The facility includes amenities like food, restrooms, water, lights, trainers or lessons, and youth programming. Reservations are not available. A one-time fee is required to play.",
    "address": "1751 Heather Dr",
    "city": "Walnut Creek",
    "zip_code": "94598",
    "latitude": 37.91745,
    "longitude": -122.040948,
    "indoor": false,
    "lighted": true,
    "num_courts": 2,
    "surface_type": "Asphalt",
    "fees": "Fee required",
    "phone": "(925) 945-0105",
    "website": "https://www.lifetimeactivities.com/walnut-creek/",
    "photo_url": "https://cdn.filestackcontent.com/YujxFuqREONDN2mUTup1",
    "has_restrooms": true,
    "has_water": true,
    "nets_provided": true,
    "skill_levels": "beginner,intermediate",
    "court_type": "dedicated",
    "hours": "Fri 8am-10pm",
    "has_pro_shop": true,
    "has_ball_machine": true
  },
  {
    "county_slug": "contra-costa",
    "state": "CA",
    "verified": false,
    "name": "Willow Pass Community Park",
    "description": "Willow Pass Community Park is one of the most popular places to play pickleball in Concord, CA. There are 14 outdoor asphalt courts. These are dedicated courts with permanent lines and nets. The courts are free. The facility includes amenities like restrooms, water, and lights.",
    "address": "2748 E Olivera Rd",
    "city": "Concord",
    "zip_code": "94519",
    "latitude": 37.993698,
    "longitude": -122.02448,
    "indoor": false,
    "lighted": true,
    "num_courts": 14,
    "surface_type": "Asphalt",
    "fees": "Free",
    "phone": "9256713423",
    "website": "https://www.cityofconcord.org/facilities/facility/details/Willow-Pass-Community-Park-37",
    "photo_url": "https://cdn.filestackcontent.com/svFjJPzlQq6MCTuCGLcl",
    "has_restrooms": true,
    "has_water": true,
    "nets_provided": true,
    "skill_levels": "beginner,intermediate",
    "court_type": "dedicated"
  }
]