[
  {
    "county_slug": "del-norte",
    "state": "CA",
    "verified": false,
    "name": "Del Norte Tennis and Pickleball Association",
    "description": "Del Norte Tennis and Pickleball Association is one of the most popular places to play pickleball in Crescent City, CA. There are 4 indoor acrylic courts. These are dedicated courts with permanent lines and nets. The facility includes amenities like lights, water, and restrooms. A membership is required to play.",
    "address": "421 Hwy 101",
    "city": "Crescent City",
    "latitude": 41.749277,
    "longitude": -124.182761,
    "indoor": true,
    "lighted": true,
    "num_courts": 4,
    "surface_type": "Acrylic",
    "fees": "Members only â€” Annual membership (Eleven months) $175",
    "phone": "707-218-5558",
    "website": "https://www.dntennis.net/",
    "photo_url": "https://cdn.filestackcontent.com/lZPWPPJeQ6GNUeMWsguQ",
    "has_restrooms": true,
    "has_water": true,
    "nets_provided": true,
    "skill_levels": "advanced,intermediate",
    "court_type": "dedicated"
  },
  {
    "county_slug": "del-norte",
    "state": "CA",
    "verified": false,
    "name": "Peterson Park",
    "description": "Come play pickleball at Peterson Park in Crescent City, CA! There are 4 outdoor hard courts. The lines are permanent, but you'll need to bring your own net. The courts are free.",
    "address": "5th St",
    "city": "Crescent City",
    "zip_code": "95531",
    "latitude": 41.753178,
    "longitude": -124.199609,
    "indoor": false,
    "num_courts": 4,
    "surface_type": "Hard",
    "fees": "Free",
    "phone": "7072185558",
    "photo_url": "https://cdn.filestackcontent.com/RlvVfQn1SsGc0vrEdk8e",
    "nets_provided": false,
    "skill_levels": "advanced,intermediate",
    "court_type": "dedicated"
  },
  {
    "county_slug": "del-norte",
    "state": "CA",
    "verified": false,
    "name": "Village Camper Inn Rv Park",
    "description": "Village Camper Inn Rv Park is one of the most popular places to play pickleball in Crescent City, CA. There is 1 outdoor court. This is a dedicated court with a permanent net and lines. The court is private.",
    "address": "1543 Parkway Dr",
    "city": "Crescent City",
    "zip_code": "95531",
    "latitude": 41.773548,
    "longitude": -124.181945,
    "indoor": false,
    "num_courts": 1,
    "fees": "Private",
    "phone": "7079544002",
    "website": "http://www.villagecamperinn.com/",
    "photo_url": "https://cdn.filestackcontent.com/nqpIgFF5R02r4iFCoWw6",
    "nets_provided": true,
    "skill_levels": "intermediate",
    "court_type": "dedicated"
  }
]