[
  {
    "county_slug": "el-dorado",
    "state": "CA",
    "verified": false,
    "name": "Auburn Lake Trails",
    "description": "Private courts. 8 courts at Lakeside Club house. 2 at Rec Lake and 1 concrete court at Dielh feild with a  permanent net. \nGuest of members pay fee at guard gate.",
    "address": "1400 American River Trl",
    "city": "Cool",
    "zip_code": "95614",
    "latitude": 38.89227,
    "longitude": -121.000389,
    "indoor": false,
    "lighted": true,
    "num_courts": 11,
    "surface_type": "Asphalt",
    "fees": "Fee required",
    "phone": "5308856526",
    "website": "http://www.auburnlaketrails.org/",
    "photo_url": "https://cdn.filestackcontent.com/VkQljeP3SQqIpeKzgDVu",
    "has_restrooms": true,
    "has_water": true,
    "nets_provided": true,
    "skill_levels": "beginner,intermediate",
    "court_type": "dedicated"
  },
  {
    "county_slug": "el-dorado",
    "state": "CA",
    "verified": false,
    "name": "Cameron Park Community Center",
    "description": "Come play pickleball at Cameron Park Community Center in Cameron Park, CA! There are 3 indoor courts. The lines are permanent, but you'll need to bring your own net. A one-time fee is required to play. Players have access to lights.",
    "address": "2502 Country Club Dr",
    "city": "Cameron Park",
    "zip_code": "95682",
    "latitude": 38.660477,
    "longitude": -121.003889,
    "indoor": true,
    "lighted": true,
    "num_courts": 3,
    "fees": "Fee required",
    "phone": "5306772231",
    "website": "http://www.cameronpark.org/",
    "photo_url": "https://cdn.filestackcontent.com/vSqWu6dcQeSlNDrvlKIq",
    "nets_provided": false,
    "skill_levels": "advanced,intermediate",
    "court_type": "dedicated"
  },
  {
    "county_slug": "el-dorado",
    "state": "CA",
    "verified": false,
    "name": "El Dorado Hills Community District Gym",
    "description": "El Dorado Hills Community District Gym is a place to play pickleball in El Dorado Hills, CA. There are 4 indoor courts. The lines are permanent, but you'll need to bring your own net. A one-time fee is required to play. Players have access to restrooms, water, and lights.",
    "address": "1021 Harvard Way",
    "city": "El Dorado Hills",
    "zip_code": "95762",
    "latitude": 38.684326,
    "longitude": -121.075346,
    "indoor": true,
    "lighted": true,
    "num_courts": 4,
    "fees": "Fee required",
    "phone": "9166143223",
    "website": "http://www.eldoradohillscsd.org/",
    "photo_url": "https://cdn.filestackcontent.com/LpdS95ZQTdiBt6vYIM0V",
    "has_restrooms": true,
    "has_water": true,
    "nets_provided": false,
    "skill_levels": "beginner,intermediate",
    "court_type": "dedicated",
    "hours": "Friday 8am-5pm"
  },
  {
    "county_slug": "el-dorado",
    "state": "CA",
    "verified": false,
    "name": "Golden Sierra High School Tennis Courts",
    "description": "Come play pickleball at Golden Sierra High School Tennis Courts in Garden Valley, CA! There are 2 outdoor concrete courts. Tape lines have been laid, and portable nets are available. The courts cannot be reserved. The courts are free.",
    "address": "5101 Garden Valley Rd",
    "city": "Garden Valley",
    "latitude": 38.850094,
    "longitude": -120.857823,
    "indoor": false,
    "num_courts": 2,
    "surface_type": "Concrete",
    "open_play_schedule": "Only open during scheduled Divide Pickleball Club sessions.",
    "fees": "Free",
    "photo_url": "https://cdn.filestackcontent.com/UIBYzTkQxKacVJ0wdP9F",
    "nets_provided": true,
    "skill_levels": "beginner,intermediate",
    "court_type": "shared"
  },
  {
    "county_slug": "el-dorado",
    "state": "CA",
    "verified": false,
    "name": "Gold Ridge Forest",
    "description": "Come play pickleball at Gold Ridge Forest in Pollock Pines, CA! There is 1 outdoor court. The lines are overlaid on a tennis court, so the net is a little taller than a normal pickleball net. The court is private.",
    "address": "4101 Opal Trl",
    "city": "Pollock Pines",
    "zip_code": "95726",
    "latitude": 38.747804,
    "longitude": -120.563646,
    "indoor": false,
    "num_courts": 1,
    "fees": "Private",
    "website": "https://goldridge.org/",
    "photo_url": "https://cdn.filestackcontent.com/6Sud6H5ESQS6uoO7RiGD",
    "skill_levels": "beginner,intermediate",
    "court_type": "dedicated",
    "hours": "Monday - Thursday 10:00 - 2:00 p.m. email: grfoffice1@gmail.com Powered by Governing Documents Inside Gold Ridge Forest Architechural Committees News Contact Us 2025 Craft Faire sign up 2025 Craft Faire"
  },
  {
    "county_slug": "el-dorado",
    "state": "CA",
    "verified": false,
    "name": "Greenstone Country HOA",
    "description": "Greenstone Country HOA is a place to play pickleball in Kelsey, CA. There are 3 outdoor concrete courts. These are dedicated courts with permanent lines and nets. The courts are private. Reservations are not available.",
    "address": "2927 Stagecoach Rd",
    "city": "Kelsey",
    "latitude": 38.730972,
    "longitude": -120.895334,
    "indoor": false,
    "num_courts": 3,
    "surface_type": "Concrete",
    "fees": "Private",
    "phone": "8053587061",
    "website": "https://www.greenstonecountry.org/Page/22151~354812/ErrorNotFoundhttpswwwgreenstonecountryorg443Community-Contacts",
    "email": "DonnaRaeGS@gmail.com",
    "photo_url": "https://cdn.filestackcontent.com/0OqRawxiTJeSzXytQajK",
    "nets_provided": true,
    "skill_levels": "beginner,intermediate",
    "court_type": "dedicated",
    "hours": "Fri 9am-5pm"
  },
  {
    "county_slug": "el-dorado",
    "state": "CA",
    "verified": false,
    "name": "Heritage Park",
    "description": "Heritage Park is a place to play pickleball in El Dorado Hills, CA. There are 2 outdoor hard courts. These are dedicated courts with permanent lines and nets. The courts are free.",
    "address": "4016 Palmdale Dr",
    "city": "El Dorado Hills",
    "latitude": 38.622206,
    "longitude": -121.066989,
    "indoor": false,
    "num_courts": 2,
    "surface_type": "Hard",
    "fees": "Free",
    "photo_url": "https://cdn.filestackcontent.com/4K9Dm1esTKSAAMZN7BTY",
    "nets_provided": true,
    "skill_levels": "beginner,intermediate",
    "court_type": "dedicated"
  },
  {
    "county_slug": "el-dorado",
    "state": "CA",
    "verified": false,
    "name": "Heritage Retreat",
    "description": "Heritage Retreat is one of the most popular places to play pickleball in El Dorado Hills, CA. There are 4 outdoor courts. These are dedicated courts with permanent lines and nets. The courts are private. Players have access to lights.",
    "address": "9039 Heritage Pkwy",
    "city": "El Dorado Hills",
    "latitude": 38.624275,
    "longitude": -121.068695,
    "indoor": false,
    "lighted": true,
    "num_courts": 4,
    "fees": "Private",
    "phone": "+19162207652",
    "email": "alejandrolacruz24@hotmail.com",
    "photo_url": "https://cdn.filestackcontent.com/pOw22dgyQUuEwAX7sUxu",
    "nets_provided": true,
    "skill_levels": "intermediate",
    "court_type": "dedicated"
  },
  {
    "county_slug": "el-dorado",
    "state": "CA",
    "verified": false,
    "name": "In Shape Shingle Springs",
    "description": "In Shape Shingle Springs is a place to play pickleball in Shingle Springs, CA. There are 6 outdoor concrete courts. The lines are permanent, but you'll need to bring your own net. Amenities include restrooms, water, and lights. A membership is required to play.",
    "address": "4242 Sports Club Dr",
    "city": "Shingle Springs",
    "zip_code": "95682",
    "latitude": 38.666423,
    "longitude": -120.935468,
    "indoor": false,
    "lighted": true,
    "num_courts": 6,
    "surface_type": "Concrete",
    "fees": "Members only",
    "phone": "5306775705",
    "website": "https://www.inshape.com/gyms/el-dorado-california-95682?utm_source=Yext&utm_medium=Listing&utm_campaign=GOOGLE",
    "photo_url": "https://cdn.filestackcontent.com/bgtV35UdQaqFD0bi8SEQ",
    "has_restrooms": true,
    "has_water": true,
    "nets_provided": false,
    "skill_levels": "intermediate",
    "court_type": "dedicated"
  },
  {
    "county_slug": "el-dorado",
    "state": "CA",
    "verified": false,
    "name": "Lions Park",
    "description": "Come play pickleball at Lions Park in Placerville, CA! There are 4 outdoor hard courts. These are dedicated courts with permanent lines and nets. Amenities include lights. The courts are free.",
    "address": "3633 Cedar Ravine Road",
    "city": "Placerville",
    "latitude": 38.717909,
    "longitude": -120.774896,
    "indoor": false,
    "lighted": true,
    "num_courts": 4,
    "surface_type": "Hard",
    "fees": "Free",
    "phone": "+15306425232",
    "website": "https://www.cityofplacerville.org/maps/location/LionsPark",
    "photo_url": "https://cdn.filestackcontent.com/kSZWRz4mSeOJYwE9nKTJ",
    "nets_provided": true,
    "skill_levels": "beginner,intermediate",
    "court_type": "dedicated",
    "has_restrooms": true
  },
  {
    "county_slug": "el-dorado",
    "state": "CA",
    "verified": false,
    "name": "Oak Ridge Pickleball Courts",
    "description": "Oak Ridge Pickleball Courts is a place to play pickleball in El Dorado Hills, CA. There are 16 outdoor asphalt courts. The lines are permanent, but you'll need to bring your own net. The courts are free.",
    "address": "3401 Tah Nee Way",
    "city": "El Dorado Hills",
    "latitude": 38.681223,
    "longitude": -121.072827,
    "indoor": false,
    "num_courts": 16,
    "surface_type": "Asphalt",
    "fees": "Free",
    "photo_url": "https://cdn.filestackcontent.com/qmO7R3heQVyyMZcp9ZKs",
    "nets_provided": false,
    "skill_levels": "advanced,beginner,intermediate",
    "court_type": "dedicated"
  },
  {
    "county_slug": "el-dorado",
    "state": "CA",
    "verified": false,
    "name": "Rolling Hills Middle School",
    "description": "Rolling Hills Middle School is a place to play pickleball in El Dorado Hills, CA. There are 13 outdoor asphalt courts. The lines are permanent, and portable nets are available. The courts are private.",
    "address": "7141 Silva Valley Pkwy",
    "city": "El Dorado Hills",
    "latitude": 38.679351,
    "longitude": -121.067694,
    "indoor": false,
    "num_courts": 13,
    "surface_type": "Asphalt",
    "fees": "Private",
    "phone": "+19169339290",
    "website": "http://buckeyeusd.org/rhms",
    "photo_url": "https://cdn.filestackcontent.com/iqtwGViPQSpdfABAYdjy",
    "nets_provided": true,
    "skill_levels": "beginner",
    "court_type": "dedicated"
  },
  {
    "county_slug": "el-dorado",
    "state": "CA",
    "verified": false,
    "name": "S. Lake Tahoe Rec Center",
    "description": "S. Lake Tahoe Rec Center is one of the most popular places to play pickleball in South Lake Tahoe, CA. There are 2 indoor acrylic courts. The lines are permanent, and portable nets are available. The facility includes amenities like water and restrooms. A one-time fee is required to play. The courts cannot be reserved.",
    "address": "1180 Rufus Allen Blvd",
    "city": "South Lake Tahoe",
    "zip_code": "96150",
    "latitude": 38.94004,
    "longitude": -119.97312,
    "indoor": true,
    "num_courts": 2,
    "surface_type": "Acrylic",
    "fees": "Fee required",
    "phone": "5305426056",
    "website": "https://www.cityofslt.us/196/Parks-and-Recreation",
    "photo_url": "https://cdn.filestackcontent.com/AzXDSELSok3A9rolggFA",
    "has_restrooms": true,
    "has_water": true,
    "nets_provided": true,
    "skill_levels": "intermediate",
    "court_type": "dedicated"
  },
  {
    "county_slug": "el-dorado",
    "state": "CA",
    "verified": false,
    "name": "South Tahoe Middle School",
    "description": "Courts are in rough shape and play can only be when school is out.",
    "address": "US 50/Lyons Ave (Middle School)",
    "city": "South Lake Tahoe",
    "latitude": 38.937441,
    "longitude": -119.977124,
    "indoor": false,
    "num_courts": 4,
    "surface_type": "Concrete",
    "open_play_schedule": "Summer open play day light hours",
    "fees": "Free",
    "phone": "+15305416404",
    "website": "https://stms.ltusd.org/",
    "photo_url": "https://cdn.filestackcontent.com/olG9QQxDQMiXPf1QZl0W",
    "skill_levels": "beginner,intermediate",
    "court_type": "dedicated"
  },
  {
    "county_slug": "el-dorado",
    "state": "CA",
    "verified": false,
    "name": "Stephen Harris Park",
    "description": "Stephen Harris Park is one of the most popular places to play pickleball in El Dorado Hills, CA. There are 2 outdoor asphalt courts. The lines are permanent, but you'll need to bring your own net. The courts are free.",
    "address": "2560 Riviera Cir",
    "city": "El Dorado Hills",
    "latitude": 38.692939,
    "longitude": -121.079494,
    "indoor": false,
    "num_courts": 2,
    "surface_type": "Asphalt",
    "fees": "Free",
    "website": "https://www.eldoradohillscsd.org/programs_and_amp_activities/stephen_harris_tennis_court_park.php",
    "photo_url": "https://cdn.filestackcontent.com/QIvF7242RKSBYbL2GXTn",
    "nets_provided": false,
    "skill_levels": "beginner,intermediate",
    "court_type": "dedicated",
    "hours": "Friday 8am-5pm",
    "has_parking": true,
    "has_water": true
  },
  {
    "county_slug": "el-dorado",
    "state": "CA",
    "verified": false,
    "name": "Tahoe Paradise Park",
    "description": "Tahoe Paradise Park is one of the most popular places to play pickleball in South Lake Tahoe, CA. There are 8 outdoor asphalt and concrete courts. These are dedicated courts with permanent lines and nets. Reservations are not available. A one-time fee is required to play. Players have access to restrooms and water.",
    "address": "1011 E San Bernardino Ave",
    "city": "South Lake Tahoe",
    "latitude": 38.858733,
    "longitude": -120.025938,
    "indoor": false,
    "num_courts": 8,
    "surface_type": "Asphalt, Concrete",
    "fees": "Fee required â€” Court fee is $5 per day per person.  Annual passes available.",
    "phone": "+15305779881",
    "website": "http://www.tahoeparadisepark.com/",
    "photo_url": "https://cdn.filestackcontent.com/x3PIVmquRyCSewOT9AFD",
    "has_restrooms": true,
    "has_water": true,
    "nets_provided": true,
    "skill_levels": "advanced,intermediate",
    "court_type": "dedicated"
  }
]