[
  {
    "county_slug": "fresno",
    "state": "CA",
    "verified": false,
    "name": "Brentlinger Park",
    "description": "Come play pickleball at Brentlinger Park in Selma, CA! There are 6 outdoor hard courts. These are dedicated courts with permanent lines and nets. Amenities include restrooms and lights. The courts are free.",
    "address": "Brentlinger Park",
    "city": "Selma",
    "latitude": 36.570606,
    "longitude": -119.605361,
    "indoor": false,
    "lighted": true,
    "num_courts": 6,
    "surface_type": "Hard",
    "fees": "Free",
    "phone": "5598013307",
    "photo_url": "https://cdn.filestackcontent.com/ouNTPHWRZeL5Jmij8VcA",
    "has_restrooms": true,
    "nets_provided": true,
    "skill_levels": "advanced,intermediate",
    "court_type": "dedicated"
  },
  {
    "county_slug": "fresno",
    "state": "CA",
    "verified": false,
    "name": "CrossCity Christian Church",
    "description": "CrossCity Christian Church is one of the most popular places to play pickleball in Fresno, CA. There are 2 outdoor acrylic courts. These are dedicated courts with permanent lines and nets. Amenities include trainers or lessons. The courts are free.",
    "address": "2777 East Nees Avenue",
    "city": "Fresno",
    "latitude": 36.85097,
    "longitude": -119.734266,
    "indoor": false,
    "num_courts": 2,
    "surface_type": "Acrylic",
    "fees": "Free",
    "phone": "+15593239675",
    "website": "https://mycrosscity.com/",
    "email": "dnestle@mycrosscity.com",
    "photo_url": "https://cdn.filestackcontent.com/kcTXS7yPRqaPuZWvKoQO",
    "nets_provided": true,
    "skill_levels": "beginner,intermediate",
    "court_type": "dedicated"
  },
  {
    "county_slug": "fresno",
    "state": "CA",
    "verified": false,
    "name": "East Rotary Park",
    "description": "Come play pickleball at East Rotary Park in Fresno, CA! There are 10 outdoor asphalt courts. These are dedicated courts with permanent lines and nets. The courts are free. Amenities include lights and restrooms. You can reserve the courts.",
    "address": "6464 N Cedar Ave",
    "city": "Fresno",
    "zip_code": "93710",
    "latitude": 36.830672,
    "longitude": -119.753643,
    "indoor": false,
    "lighted": true,
    "num_courts": 10,
    "surface_type": "Asphalt",
    "fees": "Free",
    "phone": "+15596217529",
    "website": "http://www.fresno.gov/parks",
    "email": "parks.department@fresno.gov",
    "photo_url": "https://cdn.filestackcontent.com/kadhvgkPQmerkcCYNFkk",
    "has_restrooms": true,
    "nets_provided": true,
    "skill_levels": "advanced,beginner",
    "court_type": "dedicated"
  },
  {
    "county_slug": "fresno",
    "state": "CA",
    "verified": false,
    "name": "Fig Garden Swim & Racquet Club",
    "description": "Fig Garden Swim & Racquet Club is one of the most popular places to play pickleball in Fresno, CA. There are 4 outdoor hard courts. These are dedicated courts with permanent lines and nets. A membership is required to play. Reservations are not available. Players have access to food, locker rooms, restrooms, water, youth programming, lights, a pro shop or equipment store, trainers or lessons, and wheelchair accessibility.",
    "address": "4722 N Maroa Ave",
    "city": "Fresno",
    "latitude": 36.803975,
    "longitude": -119.798829,
    "indoor": false,
    "lighted": true,
    "num_courts": 4,
    "surface_type": "Hard",
    "fees": "Members only",
    "phone": "+12532788379",
    "website": "https://Fig-Garden.com",
    "email": "anthonyr@fig-garden.com",
    "photo_url": "https://cdn.filestackcontent.com/XGZyVu4cQbWXbhUXDrNW",
    "has_restrooms": true,
    "has_water": true,
    "has_pro_shop": true,
    "wheelchair_accessible": true,
    "nets_provided": true,
    "skill_levels": "beginner,intermediate",
    "court_type": "dedicated",
    "has_ball_machine": true
  },
  {
    "county_slug": "fresno",
    "state": "CA",
    "verified": false,
    "name": "John Browning Pickleball Courts at Panzak Park",
    "description": "John Browning Pickleball Courts at Panzak Park is a place to play pickleball in Fowler, CA. There are 2 outdoor courts. These are dedicated courts with permanent lines and nets. The courts are free.",
    "address": "100 North 3rd Street",
    "city": "Fowler",
    "latitude": 36.632698,
    "longitude": -119.675818,
    "indoor": false,
    "num_courts": 2,
    "fees": "Free",
    "phone": "5592881270",
    "website": "http://fowlercity.org/",
    "photo_url": "https://cdn.filestackcontent.com/2fb6my9SSgKkfzdlQnrz",
    "nets_provided": true,
    "skill_levels": "beginner,intermediate",
    "court_type": "dedicated"
  },
  {
    "county_slug": "fresno",
    "state": "CA",
    "verified": false,
    "name": "Orchid Park",
    "description": "Orchid Park is one of the most popular places to play pickleball in Fresno, CA. There are 8 outdoor asphalt courts. The lines are permanent, but you'll need to bring your own net. Players have access to restrooms, water, and lights. You can reserve the courts. The courts are free.",
    "address": "3420 W Fir Ave",
    "city": "Fresno",
    "zip_code": "93711",
    "latitude": 36.839646,
    "longitude": -119.852906,
    "indoor": false,
    "lighted": true,
    "num_courts": 8,
    "surface_type": "Asphalt",
    "fees": "Free",
    "phone": "+15596217529",
    "website": "https://www.fresno.gov/parks/",
    "email": "parks.department@fresno.gov",
    "photo_url": "https://cdn.filestackcontent.com/lTWpv2OXTwmHbng7Wmt4",
    "has_restrooms": true,
    "has_water": true,
    "nets_provided": false,
    "skill_levels": "advanced,beginner,intermediate",
    "court_type": "dedicated"
  },
  {
    "county_slug": "fresno",
    "state": "CA",
    "verified": false,
    "name": "Rafer Johnson Junior High School",
    "description": "Come play pickleball at Rafer Johnson Junior High School in Kingsburg, CA! There are 8 outdoor hard courts. The lines are permanent, and portable nets are available. The courts are free. The facility includes amenities like lights.",
    "address": "1300 Stroud Ave",
    "city": "Kingsburg",
    "zip_code": "93631",
    "latitude": 36.524912,
    "longitude": -119.554111,
    "indoor": false,
    "lighted": true,
    "num_courts": 8,
    "surface_type": "Hard",
    "fees": "Free",
    "phone": "+15593120445",
    "website": "https://m.facebook.com/groups/501674473666603/",
    "email": "danbeeman30@gmail.com",
    "photo_url": "https://cdn.filestackcontent.com/OKwACwdGQlCH6AyCYEi3",
    "nets_provided": true,
    "skill_levels": "advanced,intermediate",
    "court_type": "dedicated"
  },
  {
    "county_slug": "fresno",
    "state": "CA",
    "verified": false,
    "name": "Reedley High School",
    "description": "Reedley High School is a place to play pickleball in Reedley, CA. There are 8 outdoor courts. The lines are permanent, and portable nets are available. The courts are free. Players have access to lights, wheelchair accessibility, and adaptive programming. You can’t reserve the courts.",
    "address": "477 Manning Ave",
    "city": "Reedley",
    "latitude": 36.603884,
    "longitude": -119.452958,
    "indoor": false,
    "lighted": true,
    "num_courts": 8,
    "open_play_schedule": "Coded \nTo public",
    "fees": "Free",
    "phone": "559-637-4203",
    "website": "https://rhs.kcusd.com/",
    "photo_url": "https://cdn.filestackcontent.com/3ww68YoUR3qBVzoBKQB4",
    "wheelchair_accessible": true,
    "nets_provided": true,
    "skill_levels": "beginner,intermediate",
    "court_type": "dedicated"
  },
  {
    "county_slug": "fresno",
    "state": "CA",
    "verified": false,
    "name": "Roeding Park",
    "description": "Come play pickleball at Roeding Park in Fresno, CA! There are 4 outdoor concrete courts. These are dedicated courts with permanent lines and nets. The courts are free.",
    "address": "890 W Belmont Ave",
    "city": "Fresno",
    "latitude": 36.751677,
    "longitude": -119.823531,
    "indoor": false,
    "num_courts": 4,
    "surface_type": "Concrete",
    "fees": "Free",
    "phone": "+15596217529",
    "photo_url": "https://cdn.filestackcontent.com/u8wWdpjSB2zZnzKTMg50",
    "nets_provided": true,
    "skill_levels": "intermediate",
    "court_type": "dedicated"
  },
  {
    "county_slug": "fresno",
    "state": "CA",
    "verified": false,
    "name": "Sierra Sport and Racquet Club",
    "description": "Sierra Sport and Racquet Club is one of the most popular places to play pickleball in Fresno, CA. There are 16 outdoor hard courts. These are dedicated courts with permanent lines and nets. You can reserve the courts. The facility includes amenities like lights and restrooms. A membership is required to play.",
    "address": "2626 W Alluvial Ave",
    "city": "Fresno",
    "zip_code": "93711",
    "latitude": 36.844597,
    "longitude": -119.840871,
    "indoor": false,
    "lighted": true,
    "num_courts": 16,
    "surface_type": "Hard",
    "fees": "Members only",
    "phone": "5594318200",
    "website": "https://sierrasport.net/",
    "email": "info@sierrasport.net",
    "photo_url": "https://cdn.filestackcontent.com/NBRPFanR8yD7G06ZUfmN",
    "has_restrooms": true,
    "nets_provided": true,
    "skill_levels": "advanced,intermediate",
    "court_type": "dedicated"
  },
  {
    "county_slug": "fresno",
    "state": "CA",
    "verified": false,
    "name": "Sunnyside Health & Tennis Club",
    "description": "Come play pickleball at Sunnyside Health & Tennis Club in Fresno, CA! There are 4 outdoor hard courts. The lines are permanent, but you'll need to bring your own net. The facility includes amenities like restrooms, water, and lights. A membership is required to play.",
    "address": "5707 E Balch Ave",
    "city": "Fresno",
    "zip_code": "93727",
    "latitude": 36.738637,
    "longitude": -119.694789,
    "indoor": false,
    "lighted": true,
    "num_courts": 4,
    "surface_type": "Hard",
    "fees": "Members only",
    "phone": "5592510800",
    "website": "http://www.sunnysidefitness.com/",
    "photo_url": "https://cdn.filestackcontent.com/grWSZMcWTo2GL1A8yygd",
    "has_restrooms": true,
    "has_water": true,
    "nets_provided": false,
    "skill_levels": "advanced,beginner,intermediate",
    "court_type": "dedicated"
  },
  {
    "county_slug": "fresno",
    "state": "CA",
    "verified": false,
    "name": "The Orchard",
    "description": "Come play pickleball at The Orchard in Kingsburg, CA! There are 2 outdoor courts. You’ll have to create your own lines and bring your own net. Amenities include lights.",
    "address": "2400 19th Ave",
    "city": "Kingsburg",
    "zip_code": "93631",
    "latitude": 36.524194,
    "longitude": -119.546072,
    "indoor": false,
    "lighted": true,
    "num_courts": 2,
    "photo_url": "https://cdn.filestackcontent.com/lwImMKKiRaqvrd0mdE0Z",
    "nets_provided": false,
    "skill_levels": "beginner,intermediate",
    "court_type": "shared"
  },
  {
    "county_slug": "fresno",
    "state": "CA",
    "verified": false,
    "name": "Valley Athletics",
    "description": "Come play pickleball at Valley Athletics in Fresno, CA! There are 6 indoor concrete, carpet, hard, and acrylic courts. These are dedicated courts with permanent lines and nets. A one-time fee is required to play. Players have access to restrooms, water, and lights. You can’t reserve the courts.",
    "address": "5097 East Dakota Avenue",
    "city": "Fresno",
    "latitude": 36.787077,
    "longitude": -119.723048,
    "indoor": true,
    "lighted": true,
    "num_courts": 6,
    "surface_type": "Concrete, Carpet, Hard, Acrylic",
    "fees": "Fee required",
    "phone": "+15592020212",
    "website": "https://valleyathletics.co/",
    "email": "sarahbaker@valleyathletics.co",
    "photo_url": "https://cdn.filestackcontent.com/zEUion1TIuOgmUai0D4A",
    "has_restrooms": true,
    "has_water": true,
    "nets_provided": true,
    "skill_levels": "beginner,intermediate",
    "court_type": "dedicated"
  },
  {
    "county_slug": "fresno",
    "state": "CA",
    "verified": false,
    "name": "Vinland Park",
    "description": "Come play pickleball at Vinland Park in Fresno, CA! There are 8 outdoor hard courts. The lines are permanent, and portable nets are available. You can reserve the courts. The courts are free. Amenities include restrooms and lights.",
    "address": "4695 E Gettysburg Ave",
    "city": "Fresno",
    "zip_code": "93726",
    "latitude": 36.802482,
    "longitude": -119.741493,
    "indoor": false,
    "lighted": true,
    "num_courts": 8,
    "surface_type": "Hard",
    "fees": "Free",
    "phone": "+15596217529",
    "website": "https://www.fresno.gov/parks/",
    "email": "parks.department@fresno.gov",
    "photo_url": "https://cdn.filestackcontent.com/O95mD4gZTTyBNwoLjKag",
    "has_restrooms": true,
    "nets_provided": true,
    "skill_levels": "beginner,intermediate",
    "court_type": "dedicated"
  }
]