[
  {
    "county_slug": "imperial",
    "state": "CA",
    "verified": false,
    "name": "Conrad Harrison Youth Center",
    "description": "Conrad Harrison Youth Center is one of the most popular places to play pickleball in El Centro, CA. There are 2 indoor wood courts. The lines are permanent, and portable nets are available. A one-time fee is required to play. The facility includes amenities like lights, restrooms, and water.",
    "address": "750 Park Ave",
    "city": "El Centro",
    "latitude": 32.79597,
    "longitude": -115.56031,
    "indoor": true,
    "lighted": true,
    "num_courts": 2,
    "surface_type": "Wood",
    "fees": "Fee required",
    "phone": "760 222 6954",
    "website": "https://cityofelcentro.org/ribbon-cutting-ceremony-pickleball-courts-in-el-centro-september-14th-at-530pm/",
    "photo_url": "https://cdn.filestackcontent.com/KDVGYYTBSaKg5p5ncbc3",
    "has_restrooms": true,
    "has_water": true,
    "nets_provided": true,
    "skill_levels": "advanced,beginner",
    "court_type": "dedicated"
  },
  {
    "county_slug": "imperial",
    "state": "CA",
    "verified": false,
    "name": "Fountain of Youth Spa and RV Resort",
    "description": "Fountain of Youth Spa and RV Resort is a place to play pickleball in Niland, CA. There are 8 outdoor courts. The lines are permanent, but you'll need to bring your own net. A one-time fee is required to play. Players have access to restrooms, water, and wheelchair accessibility.",
    "address": "1500 Spa Rd",
    "city": "Niland",
    "zip_code": "92257",
    "latitude": 33.400416,
    "longitude": -115.661819,
    "indoor": false,
    "num_courts": 8,
    "fees": "Fee required",
    "phone": "7605026450",
    "website": "https://foyspa.com/",
    "photo_url": "https://cdn.filestackcontent.com/JJhr6zhZSFyQpGHCjk4u",
    "has_restrooms": true,
    "has_water": true,
    "wheelchair_accessible": true,
    "nets_provided": false,
    "skill_levels": "advanced",
    "court_type": "dedicated"
  },
  {
    "county_slug": "imperial",
    "state": "CA",
    "verified": false,
    "name": "Holtville Recreation Park",
    "description": "Holtville Recreation Park is one of the most popular places to play pickleball in Holtville, CA. There are 2 outdoor concrete courts. The lines are permanent, but you'll need to bring your own net. The courts are free. The facility includes amenities like restrooms, water, and lights.",
    "address": "125 E 6th St",
    "city": "Holtville",
    "zip_code": "92250",
    "latitude": 32.813194,
    "longitude": -115.379328,
    "indoor": false,
    "lighted": true,
    "num_courts": 2,
    "surface_type": "Concrete",
    "fees": "Free",
    "website": "https://www.holtville.ca.gov/visitors.php?id=61",
    "photo_url": "https://cdn.filestackcontent.com/KF6FoT7QZ6Hhc7GnMsEc",
    "has_restrooms": true,
    "has_water": true,
    "nets_provided": false,
    "skill_levels": "advanced,beginner",
    "court_type": "dedicated",
    "hours": "Friday 8amâ€“12pm"
  },
  {
    "county_slug": "imperial",
    "state": "CA",
    "verified": false,
    "name": "Jacques 'n Jills Health Club",
    "description": "Come play pickleball at Jacques 'n Jills Health Club in El Centro, CA! There are 2 indoor wood courts. The lines are permanent, and portable nets are available. A membership is required to play. Amenities include food, restrooms, water, and lights.",
    "address": "220 Wake Ave",
    "city": "El Centro",
    "zip_code": "92243",
    "latitude": 32.772392,
    "longitude": -115.547389,
    "indoor": true,
    "lighted": true,
    "num_courts": 2,
    "surface_type": "Wood",
    "fees": "Members only",
    "phone": "7603526030",
    "website": "http://ivfitnessclub.com/",
    "photo_url": "https://cdn.filestackcontent.com/EWsn8oxRi0Z6ASQVBWig",
    "has_restrooms": true,
    "has_water": true,
    "nets_provided": true,
    "skill_levels": "advanced,beginner",
    "court_type": "dedicated"
  },
  {
    "county_slug": "imperial",
    "state": "CA",
    "verified": false,
    "name": "Rio Bend Rv And Golf Resort",
    "description": "Rio Bend Rv And Golf Resort is a place to play pickleball in El Centro, CA. There are 4 outdoor hard courts. The lines are permanent, but you'll need to bring your own net. The courts are private. Players have access to restrooms and water.",
    "address": "1589 Drew Rd",
    "city": "El Centro",
    "zip_code": "92243",
    "latitude": 32.766885,
    "longitude": -115.690494,
    "indoor": false,
    "num_courts": 4,
    "surface_type": "Hard",
    "fees": "Private",
    "phone": "7603527061",
    "website": "https://www.riobendrvgolfresort.com/",
    "photo_url": "https://cdn.filestackcontent.com/vPffuCFtRuuEeR4pMRlR",
    "has_restrooms": true,
    "has_water": true,
    "nets_provided": false,
    "skill_levels": "beginner",
    "court_type": "dedicated"
  },
  {
    "county_slug": "imperial",
    "state": "CA",
    "verified": false,
    "name": "Sunbeam Lake R. V. Resort",
    "description": "Sunbeam Lake R. V. Resort is a place to play pickleball in El Centro, CA. There are 3 outdoor concrete courts. These are dedicated courts with permanent lines and nets. The courts are private. The facility includes amenities like restrooms.",
    "address": "1716 Sunbeam Lake Dr",
    "city": "El Centro",
    "zip_code": "92243",
    "latitude": 32.780829,
    "longitude": -115.680489,
    "indoor": false,
    "num_courts": 3,
    "surface_type": "Concrete",
    "fees": "Private",
    "phone": "5095905424",
    "website": "http://www.sunbeamlake.com/",
    "photo_url": "https://cdn.filestackcontent.com/TJu7B66ROyAX8HnDS9FH",
    "has_restrooms": true,
    "nets_provided": true,
    "skill_levels": "beginner",
    "court_type": "dedicated"
  }
]