[
  {
    "county_slug": "kern",
    "state": "CA",
    "verified": false,
    "name": "Bakersfield Racquet Club",
    "description": "Bakersfield Racquet Club is one of the most popular places to play pickleball in Bakersfield, CA. There are 4 outdoor hard courts. These are dedicated courts with permanent lines and nets. Amenities include restrooms, food, water, lights, a pro shop or equipment store, trainers or lessons, wheelchair accessibility, adaptive programming, youth programming, and locker rooms. A membership is required to play.",
    "address": "1660 Pine St",
    "city": "Bakersfield",
    "zip_code": "93301",
    "latitude": 35.374385,
    "longitude": -119.031179,
    "indoor": false,
    "lighted": true,
    "num_courts": 4,
    "surface_type": "Hard",
    "fees": "Members only — $10 guests fee",
    "phone": "6613258652",
    "website": "https://brctennis.com/",
    "photo_url": "https://cdn.filestackcontent.com/KjK2c5ErTsm5R0KFuY5V",
    "has_restrooms": true,
    "has_water": true,
    "has_pro_shop": true,
    "wheelchair_accessible": true,
    "nets_provided": true,
    "skill_levels": "advanced,beginner,intermediate",
    "court_type": "dedicated"
  },
  {
    "county_slug": "kern",
    "state": "CA",
    "verified": false,
    "name": "Beale Park",
    "description": "Beale Park is a place to play pickleball in Bakersfield, CA. There are 6 outdoor hard courts. These are dedicated courts with permanent lines and nets. Amenities include restrooms and water. You can’t reserve the courts. The courts are free.",
    "address": "500 Oleander Ave",
    "city": "Bakersfield",
    "zip_code": "93304",
    "latitude": 35.362266,
    "longitude": -119.024593,
    "indoor": false,
    "num_courts": 6,
    "surface_type": "Hard",
    "fees": "Free",
    "phone": "+16613263866",
    "website": "https://www.bakersfieldcity.us/297/Recreation-Parks",
    "photo_url": "https://cdn.filestackcontent.com/sOoDwD5QcmF7nUloyugS",
    "has_restrooms": true,
    "has_water": true,
    "nets_provided": true,
    "skill_levels": "advanced,beginner,intermediate",
    "court_type": "dedicated"
  },
  {
    "county_slug": "kern",
    "state": "CA",
    "verified": false,
    "name": "Bear Valley Springs",
    "description": "Bear Valley Springs is one of the most popular places to play pickleball in Tehachapi, CA. There are 4 outdoor courts. These are dedicated courts with permanent lines and nets. A one-time fee is required to play.",
    "address": "26940 Bear Valley Rd",
    "city": "Tehachapi",
    "zip_code": "93561",
    "latitude": 35.172612,
    "longitude": -118.62088,
    "indoor": false,
    "num_courts": 4,
    "fees": "Fee required",
    "phone": "6613314657",
    "photo_url": "https://cdn.filestackcontent.com/0rI43fy8Rk2eNo8LGwZE",
    "nets_provided": true,
    "skill_levels": "beginner,intermediate",
    "court_type": "dedicated"
  },
  {
    "county_slug": "kern",
    "state": "CA",
    "verified": false,
    "name": "Campus Park",
    "description": "1 tennis court attached",
    "address": "Campus Park South",
    "city": "Bakersfield",
    "latitude": 35.314549,
    "longitude": -119.100534,
    "indoor": false,
    "lighted": true,
    "num_courts": 3,
    "surface_type": "Hard",
    "fees": "Free",
    "photo_url": "https://cdn.filestackcontent.com/hMRaDN4YROX5KNdSN0eu",
    "nets_provided": true,
    "skill_levels": "beginner,intermediate",
    "court_type": "dedicated"
  },
  {
    "county_slug": "kern",
    "state": "CA",
    "verified": false,
    "name": "Gameday Sports Academy",
    "description": "Come play pickleball at Gameday Sports Academy in Bakersfield, CA! There are 10 indoor hard courts. These are dedicated courts with permanent lines and nets. The courts are private. Players have access to restrooms. You can reserve the courts.",
    "address": "3101 Gilmore Avenue",
    "city": "Bakersfield",
    "latitude": 35.388768,
    "longitude": -119.039652,
    "indoor": true,
    "num_courts": 10,
    "surface_type": "Hard",
    "fees": "Private",
    "phone": "+16614894330",
    "website": "https://dignityhealthsportscomplex.com/",
    "email": "info@gamedaysportsacademy.com",
    "photo_url": "https://cdn.filestackcontent.com/Gg1Ps9RTFGzjCABWLdBu",
    "has_restrooms": true,
    "nets_provided": true,
    "skill_levels": "beginner",
    "court_type": "dedicated",
    "hours": "3pm - 9pm"
  },
  {
    "county_slug": "kern",
    "state": "CA",
    "verified": false,
    "name": "Greenacres Park PicklePlex",
    "description": "Come play pickleball at Greenacres Park PicklePlex in Bakersfield, CA! There are 8 outdoor asphalt and hard courts. These are dedicated courts with permanent lines and nets. The courts are free. The facility includes amenities like restrooms, water, and lights.",
    "address": "2014 Calloway Dr",
    "city": "Bakersfield",
    "zip_code": "93312",
    "latitude": 35.378133,
    "longitude": -119.1088,
    "indoor": false,
    "lighted": true,
    "num_courts": 8,
    "surface_type": "Asphalt, Hard",
    "fees": "Free",
    "phone": "6613922010",
    "website": "https://www.norfun.org/greenacres-community-center",
    "photo_url": "https://cdn.filestackcontent.com/p1BMz5BQtGilPHghDFLS",
    "has_restrooms": true,
    "has_water": true,
    "nets_provided": true,
    "skill_levels": "advanced,beginner,intermediate",
    "court_type": "dedicated"
  },
  {
    "county_slug": "kern",
    "state": "CA",
    "verified": false,
    "name": "Haggis Oaks",
    "description": "Haggis Oaks is one of the most popular places to play pickleball in Bakersfield, CA. There are 3 outdoor hard courts. These are dedicated courts with permanent lines and nets. The courts are free. Players have access to lights.",
    "address": "8915 Limoges Way",
    "city": "Bakersfield",
    "latitude": 35.332952,
    "longitude": -119.101879,
    "indoor": false,
    "lighted": true,
    "num_courts": 3,
    "surface_type": "Hard",
    "fees": "Free",
    "photo_url": "https://cdn.filestackcontent.com/Z7AXCbz0Rx2elubYg8gV",
    "nets_provided": true,
    "skill_levels": "beginner",
    "court_type": "dedicated"
  },
  {
    "county_slug": "kern",
    "state": "CA",
    "verified": false,
    "name": "Highgate Seven Oaks",
    "description": "Come play pickleball at Highgate Seven Oaks in Bakersfield, CA! There are 2 outdoor concrete courts. These are dedicated courts with permanent lines and nets. Players have access to restrooms and lights. The courts are private.",
    "address": "2200 HIGHBURY ST",
    "city": "Bakersfield",
    "latitude": 35.3356,
    "longitude": -119.160699,
    "indoor": false,
    "lighted": true,
    "num_courts": 2,
    "surface_type": "Concrete",
    "fees": "Private",
    "website": "http://www.highgatesevenoaks.com/bakersfield/community/regents/",
    "photo_url": "https://cdn.filestackcontent.com/6qi7UlVdTsS6lJetyGQn",
    "has_restrooms": true,
    "nets_provided": true,
    "skill_levels": "beginner,intermediate",
    "court_type": "dedicated",
    "hours": "Saturday 10am - 5pm"
  },
  {
    "county_slug": "kern",
    "state": "CA",
    "verified": false,
    "name": "Jastro Park",
    "description": "Jastro Park is one of the most popular places to play pickleball in Bakersfield, CA. There are 12 outdoor concrete courts. These are dedicated courts with permanent lines and nets. Amenities include lights. The courts are free.",
    "address": "2900 Truxtun Ave",
    "city": "Bakersfield",
    "zip_code": "93301",
    "latitude": 35.374406,
    "longitude": -119.035023,
    "indoor": false,
    "lighted": true,
    "num_courts": 12,
    "surface_type": "Concrete",
    "fees": "Free",
    "website": "https://www.bakersfieldcity.us/297/Recreation-Parks",
    "photo_url": "https://cdn.filestackcontent.com/vxkcGi8Re2BCqcmP0kBc",
    "nets_provided": true,
    "skill_levels": "beginner",
    "court_type": "dedicated"
  },
  {
    "county_slug": "kern",
    "state": "CA",
    "verified": false,
    "name": "Leroy Jackson Park",
    "description": "The best portable nets ever! Signs say tennis players must yield to pickleball.",
    "address": "East Drummond Avenue & East French Avenue",
    "city": "Ridgecrest",
    "latitude": 35.633244,
    "longitude": -117.661568,
    "indoor": false,
    "lighted": true,
    "num_courts": 12,
    "surface_type": "Concrete",
    "fees": "Free",
    "website": "https://www.ridgecrest-ca.gov/Facilities/Facility/Details/Leroy-Jackson-Park-Sports-Complex-10",
    "photo_url": "https://cdn.filestackcontent.com/2cbE4WQZT4uUmrVsicdu",
    "has_restrooms": true,
    "nets_provided": true,
    "skill_levels": "beginner,intermediate",
    "court_type": "dedicated"
  },
  {
    "county_slug": "kern",
    "state": "CA",
    "verified": false,
    "name": "Man O War Park",
    "description": "Newly resurfaced (May 2024) courts now face east-west",
    "address": "27200 Man O War Dr",
    "city": "Tehachapi",
    "zip_code": "93561",
    "latitude": 35.086771,
    "longitude": -118.617766,
    "indoor": false,
    "num_courts": 3,
    "surface_type": "Concrete",
    "fees": "Free",
    "phone": "6619728400",
    "photo_url": "https://cdn.filestackcontent.com/Fz8TblkgRVekFplnalDS",
    "nets_provided": true,
    "skill_levels": "beginner,intermediate",
    "court_type": "dedicated"
  },
  {
    "county_slug": "kern",
    "state": "CA",
    "verified": false,
    "name": "Mesa Marin Sports Complex",
    "description": "Mesa Marin Sports Complex is a place to play pickleball in Bakersfield, CA. There is 1 outdoor asphalt court. This is a dedicated court with a permanent net and lines. The court is free. The facility includes amenities like restrooms, water, and wheelchair accessibility.",
    "address": "10315 178 Hwy",
    "city": "Bakersfield",
    "zip_code": "93306",
    "latitude": 35.396737,
    "longitude": -118.887813,
    "indoor": false,
    "num_courts": 1,
    "surface_type": "Asphalt",
    "fees": "Free",
    "phone": "9165804156",
    "website": "https://www.bakersfieldcity.us/297/Recreation-Parks",
    "photo_url": "https://cdn.filestackcontent.com/5EAfOlRBS6lMmZZLk6eB",
    "has_restrooms": true,
    "has_water": true,
    "wheelchair_accessible": true,
    "nets_provided": true,
    "skill_levels": "beginner,intermediate",
    "court_type": "dedicated"
  },
  {
    "county_slug": "kern",
    "state": "CA",
    "verified": false,
    "name": "Pine Mountain Club P.O.",
    "description": "Pine Mountain Club P.O. is one of the most popular places to play pickleball in Frazier Park, CA. There are 4 outdoor hard courts. The lines are permanent, and portable nets are available. Amenities include food and lights. A one-time fee is required to play.",
    "address": "2524 Beechwood Way",
    "city": "Frazier Park",
    "zip_code": "93222",
    "latitude": 34.856169,
    "longitude": -119.162704,
    "indoor": false,
    "lighted": true,
    "num_courts": 4,
    "surface_type": "Hard",
    "fees": "Fee required",
    "phone": "6612423788",
    "website": "http://www.pinemountainclub.net/",
    "photo_url": "https://cdn.filestackcontent.com/PkMfOk7hSX6bCN88bCVe",
    "nets_provided": true,
    "skill_levels": "beginner",
    "court_type": "dedicated",
    "has_parking": true,
    "has_pro_shop": true
  },
  {
    "county_slug": "kern",
    "state": "CA",
    "verified": false,
    "name": "Riverside Park",
    "description": "Riverside Park is one of the most popular places to play pickleball in Kernville, CA. There are 2 outdoor concrete courts. The lines are permanent, but you'll need to bring your own net. Amenities include food and restrooms. The courts are free.",
    "address": "10 Kern River Dr",
    "city": "Kernville",
    "zip_code": "93238",
    "latitude": 35.753124,
    "longitude": -118.425171,
    "indoor": false,
    "num_courts": 2,
    "surface_type": "Concrete",
    "fees": "Free",
    "website": "https://www.facebook.com/groups/128366362265090",
    "photo_url": "https://cdn.filestackcontent.com/bNS72XVRSIEssBDNdIHV",
    "has_restrooms": true,
    "nets_provided": false,
    "skill_levels": "beginner",
    "court_type": "dedicated"
  },
  {
    "county_slug": "kern",
    "state": "CA",
    "verified": false,
    "name": "Stallion Springs Community Center",
    "description": "Stallion Springs Community Center is one of the most popular places to play pickleball in Tehachapi, CA. There are 3 indoor concrete courts. The lines are permanent, but you'll need to bring your own net. Players have access to restrooms and water. The courts are free.",
    "address": "27800 Stallion Springs Dr",
    "city": "Tehachapi",
    "zip_code": "93561",
    "latitude": 35.083588,
    "longitude": -118.625721,
    "indoor": true,
    "num_courts": 3,
    "surface_type": "Concrete",
    "fees": "Free",
    "phone": "6619728400",
    "website": "https://www.stallionspringscsd.com/",
    "photo_url": "https://cdn.filestackcontent.com/7M8eYsCXR0mmWWhcHFJf",
    "has_restrooms": true,
    "has_water": true,
    "nets_provided": false,
    "skill_levels": "beginner,intermediate",
    "court_type": "dedicated"
  },
  {
    "county_slug": "kern",
    "state": "CA",
    "verified": false,
    "name": "Stockdale Country Club",
    "description": "Stockdale Country Club is a place to play pickleball in Bakersfield, CA. There are 4 outdoor hard courts. These are dedicated courts with permanent lines and nets. A membership is required to play. The facility includes amenities like food, locker rooms, restrooms, water, youth programming, lights, a pro shop or equipment store, trainers or lessons, wheelchair accessibility, and adaptive programming.",
    "address": "7001 Stockdale Hwy",
    "city": "Bakersfield",
    "latitude": 35.345573,
    "longitude": -119.080417,
    "indoor": false,
    "lighted": true,
    "num_courts": 4,
    "surface_type": "Hard",
    "fees": "Members only",
    "phone": "+1 (661) 832-0310",
    "website": "https://www.stockdalecc.com/",
    "photo_url": "https://cdn.filestackcontent.com/cIzqNq78ROOTfhsI6ddq",
    "has_restrooms": true,
    "has_water": true,
    "has_pro_shop": true,
    "wheelchair_accessible": true,
    "nets_provided": true,
    "skill_levels": "intermediate",
    "court_type": "dedicated"
  },
  {
    "county_slug": "kern",
    "state": "CA",
    "verified": false,
    "name": "TPD Pickleball Courts",
    "description": "TPD Pickleball Courts is a place to play pickleball in Tehachapi, CA. There are 4 outdoor concrete courts. These are dedicated courts with permanent lines and nets.",
    "address": "220 West C Street",
    "city": "Tehachapi",
    "latitude": 35.12784,
    "longitude": -118.450874,
    "indoor": false,
    "num_courts": 4,
    "surface_type": "Concrete",
    "nets_provided": true,
    "skill_levels": "intermediate",
    "court_type": "dedicated"
  }
]