[
  {
    "county_slug": "lake",
    "state": "CA",
    "verified": false,
    "name": "Hidden Valley Lake",
    "description": "The courts are accessible and restricted to Hidden Valley Lake Association (HVLA) members and residents of the community. \n\nIf you know someone who lives in community and can get a key, they can let you into the courts as guests. There isn’t any active security or monitoring of the courts. \n\nThe courts have permanent pickleball lines and permanent tennis nets. The net height can be adjusted with cranks and center straps. There is a wooden post in the facility that has markings for pickleball and tennis heights for reference.",
    "address": "18174 Hidden Valley Rd. Hidden Valley Lake",
    "city": "Hidden Valley Lake",
    "latitude": 38.808145,
    "longitude": -122.569411,
    "indoor": false,
    "lighted": true,
    "num_courts": 2,
    "surface_type": "Concrete",
    "open_play_schedule": "HVL Pickleball Group meets on Tuesday and Thursday evenings from 5pm to 8:30pm. Courts are open during this time.",
    "fees": "Members only — Keys available to residents at the HVLA office for $7.",
    "website": "https://HVLA.com",
    "nets_provided": true,
    "skill_levels": "beginner,intermediate",
    "court_type": "dedicated",
    "has_pro_shop": true
  },
  {
    "county_slug": "lake",
    "state": "CA",
    "verified": false,
    "name": "Kelseyville Tennis Courts",
    "description": "Can park at 2nd and Lincoln",
    "address": "4020 Gard St",
    "city": "Kelseyville",
    "zip_code": "95451",
    "latitude": 38.979859,
    "longitude": -122.838328,
    "indoor": false,
    "lighted": true,
    "num_courts": 6,
    "surface_type": "Hard",
    "fees": "Free",
    "phone": "+13104868427",
    "website": "https://lctennis.org/",
    "email": "contact@lctennis.org",
    "photo_url": "https://cdn.filestackcontent.com/7I8RZdcGS2Wy314Iusoz",
    "has_restrooms": true,
    "has_water": true,
    "nets_provided": true,
    "skill_levels": "advanced,beginner",
    "court_type": "dedicated"
  },
  {
    "county_slug": "lake",
    "state": "CA",
    "verified": false,
    "name": "The HUB San Diego",
    "description": "Covered Center Stadium Court",
    "address": "9545 Campo Road",
    "city": "Spring Valley",
    "latitude": 32.747603,
    "longitude": -116.991209,
    "indoor": false,
    "lighted": true,
    "num_courts": 26,
    "surface_type": "Hard, Concrete",
    "fees": "Fee required",
    "phone": "(833) 4THEHUB Ext.1",
    "website": "https://thehubpickleball.com/the-hub-san-diego/",
    "email": "sd@thehubpickleball.com",
    "photo_url": "https://cdn.filestackcontent.com/cj0Aznh0RseGzpdYJZrL",
    "has_restrooms": true,
    "has_water": true,
    "has_pro_shop": true,
    "wheelchair_accessible": true,
    "nets_provided": true,
    "skill_levels": "beginner,intermediate",
    "court_type": "dedicated"
  }
]