[
  {
    "county_slug": "marin",
    "state": "CA",
    "verified": false,
    "name": "Albert J. Boro Community Center",
    "description": "Albert J. Boro Community Center is a place to play pickleball in San Rafael, CA. There are 3 indoor courts. Tape lines have been laid, and portable nets are available. Reservations are not available. A one-time fee is required to play. The facility includes amenities like restrooms, water, and wheelchair accessibility.",
    "address": "50 Canal St",
    "city": "San Rafael",
    "zip_code": "94901",
    "latitude": 37.968043,
    "longitude": -122.498206,
    "indoor": true,
    "num_courts": 3,
    "open_play_schedule": "Tuesdays and Fridays, 10 am - 1 pm, March 3 - May 30, 2023.  (Scheduled subject to change)",
    "fees": "Fee required — March 3, 2023 - May 30, 2023 $4 Fee Per Day",
    "phone": "(415) 485-3077",
    "website": "http://www.cityofsanrafael.org/",
    "photo_url": "https://cdn.filestackcontent.com/wWjMGg9ZS2qnbyJegi7n",
    "has_restrooms": true,
    "has_water": true,
    "wheelchair_accessible": true,
    "nets_provided": true,
    "skill_levels": "beginner,intermediate",
    "court_type": "shared",
    "hours": "8:30 a.m. - 5:00 p.m. Monday-Friday Contact Links Directory Feedback Access Links Accessibility Sitemap Social Media Facebook Instagram X Additional City Social Media Accounts Powered by Close window Close window",
    "has_parking": true
  },
  {
    "county_slug": "marin",
    "state": "CA",
    "verified": false,
    "name": "Albert Park",
    "description": "Courts are available on a first come first serve basis.",
    "address": "76 Albert Park Ln",
    "city": "San Rafael",
    "latitude": 37.968353,
    "longitude": -122.526613,
    "indoor": false,
    "lighted": true,
    "num_courts": 2,
    "surface_type": "Concrete, Asphalt, Hard",
    "fees": "Free",
    "phone": "+14154853333",
    "website": "https://www.cityofsanrafael.org/tennis",
    "email": "recreation@cityofsanrafael.org",
    "photo_url": "https://cdn.filestackcontent.com/f3RMjtU8QseabFgk6mpy",
    "skill_levels": "intermediate",
    "court_type": "dedicated",
    "hours": "8:30 a.m. - 5:00 p.m. Monday-Friday Contact Links Directory Feedback Access Links Accessibility Sitemap Social Media Facebook Instagram X Additional City Social Media Accounts Powered by This content is for decoration only skip decoration . Close window Search Site Search Close window"
  },
  {
    "county_slug": "marin",
    "state": "CA",
    "verified": false,
    "name": "Bay Club Rolling Hills",
    "description": "Bay Club Rolling Hills is one of the most popular places to play pickleball in Novato, CA. There are 12 outdoor hard courts. These are dedicated courts with permanent lines and nets. The facility includes amenities like food, lights, locker rooms, restrooms, water, and trainers or lessons. You can reserve the courts. A membership is required to play.",
    "address": "351 San Andreas Drive",
    "city": "Novato",
    "latitude": 38.125271,
    "longitude": -122.603769,
    "indoor": false,
    "lighted": true,
    "num_courts": 12,
    "surface_type": "Hard",
    "fees": "Members only — $10 for Fitness members",
    "phone": "415.897.2185",
    "website": "https://www.bayclubs.com/rollinghills",
    "email": "Bayclubconnect@bayclubs.com",
    "photo_url": "https://cdn.filestackcontent.com/CoKxJeRRHOBsMifQa4yA",
    "has_restrooms": true,
    "has_water": true,
    "nets_provided": true,
    "skill_levels": "beginner,intermediate",
    "court_type": "dedicated"
  },
  {
    "county_slug": "marin",
    "state": "CA",
    "verified": false,
    "name": "Bay Club Ross Valley",
    "description": "Bay Club Ross Valley is a place to play pickleball in Kentfield, CA. There are 6 outdoor hard courts. These are dedicated courts with permanent lines and nets. A membership is required to play.",
    "address": "235 Bon Air Road",
    "city": "Kentfield",
    "latitude": 37.949219,
    "longitude": -122.536013,
    "indoor": false,
    "num_courts": 6,
    "surface_type": "Hard",
    "fees": "Members only",
    "phone": "4154615431",
    "website": "https://www.bayclubs.com/rossvalley/",
    "photo_url": "https://cdn.filestackcontent.com/dFdbFOi0SFSU4CUXaE4r",
    "nets_provided": true,
    "skill_levels": "intermediate",
    "court_type": "dedicated"
  },
  {
    "county_slug": "marin",
    "state": "CA",
    "verified": false,
    "name": "Bolinas tennis court",
    "description": "Come play pickleball at Bolinas tennis court in Bolinas, CA! There is 1 outdoor hard court. The lines are permanent, but you'll need to bring your own net. The court is free.",
    "address": "Brighton Ave",
    "city": "Bolinas",
    "zip_code": "94924",
    "latitude": 37.908138,
    "longitude": -122.686757,
    "indoor": false,
    "num_courts": 1,
    "surface_type": "Hard",
    "fees": "Free",
    "website": "https://www.marincountyparks.org/parkspreserves/parks/bolinas-park",
    "photo_url": "https://cdn.filestackcontent.com/OvwkNcW4T1GOwsCFArwk",
    "nets_provided": false,
    "court_type": "dedicated",
    "wheelchair_accessible": true
  },
  {
    "county_slug": "marin",
    "state": "CA",
    "verified": false,
    "name": "Boyle Park Tennis Facility",
    "description": "Boyle Park Tennis Facility is one of the most popular places to play pickleball in Mill Valley, CA. There are 4 outdoor hard courts. The lines are permanent, but you'll need to bring your own net. Players have access to a pro shop or equipment store, restrooms, and water. A membership is required to play.",
    "address": "10 East Dr",
    "city": "Mill Valley",
    "zip_code": "94941",
    "latitude": 37.904484,
    "longitude": -122.537967,
    "indoor": false,
    "num_courts": 4,
    "surface_type": "Hard",
    "fees": "Members only",
    "phone": "4153886523",
    "website": "http://www.boyleparktennis.com/",
    "photo_url": "https://cdn.filestackcontent.com/2Phh7W0QRxiIcFaAMTKP",
    "has_restrooms": true,
    "has_water": true,
    "has_pro_shop": true,
    "nets_provided": false,
    "skill_levels": "advanced,beginner,intermediate",
    "court_type": "dedicated",
    "has_ball_machine": true
  },
  {
    "county_slug": "marin",
    "state": "CA",
    "verified": false,
    "name": "Canon Swim and Tennis Club",
    "description": "Canon Swim and Tennis Club is one of the most popular places to play pickleball in Fairfax, CA. There are 6 outdoor acrylic courts. These are dedicated courts with permanent lines and nets. The facility includes amenities like restrooms, food, water, and lights. A membership is required to play.",
    "address": "135 Mitchell Dr",
    "city": "Fairfax",
    "zip_code": "94930",
    "latitude": 38.002246,
    "longitude": -122.602566,
    "indoor": false,
    "lighted": true,
    "num_courts": 6,
    "surface_type": "Acrylic",
    "fees": "Members only",
    "phone": "4154579217",
    "website": "https://thecanonclub.com/",
    "photo_url": "https://cdn.filestackcontent.com/el2y78J5SbC1SIVvTLGx",
    "has_restrooms": true,
    "has_water": true,
    "nets_provided": true,
    "skill_levels": "intermediate",
    "court_type": "dedicated"
  },
  {
    "county_slug": "marin",
    "state": "CA",
    "verified": false,
    "name": "Corte Madera Town Park",
    "description": "Corte Madera Town Park is a place to play pickleball in Corte Madera, CA. There are 2 outdoor hard courts. These are dedicated courts with permanent lines and nets. The courts are free. Amenities include lights, restrooms, and water.",
    "address": "498 Tamalpais Dr",
    "city": "Corte Madera",
    "zip_code": "94925",
    "latitude": 37.92573,
    "longitude": -122.524103,
    "indoor": false,
    "lighted": true,
    "num_courts": 2,
    "surface_type": "Hard",
    "fees": "Free",
    "phone": "4159275072",
    "website": "https://www.townofcortemadera.org/199/Parks-Recreation",
    "photo_url": "https://cdn.filestackcontent.com/I0UAPR7SEmubGy6iAyPC",
    "has_restrooms": true,
    "has_water": true,
    "nets_provided": true,
    "skill_levels": "advanced,intermediate",
    "court_type": "dedicated",
    "hours": "Monday through Thursday from 8:30AM to 4:00PM (closed on Fridays) Engineering Support & Technical Review of Public Works and Sanitary District No. 2 Permits (sewer, encroachment, floodplain, etc.): Tuesdays and Thursdays between 8:30AM to 3:30PM. Loading Loading Do Not Show Again Close Arrow Left Arrow Right [] Slideshow Left Arrow Slideshow Right Arrow"
  },
  {
    "county_slug": "marin",
    "state": "CA",
    "verified": false,
    "name": "Dave Kregel Tennis",
    "description": "Dave Kregel Tennis is a place to play pickleball in San Rafael, CA. The court surface is concrete. Reservations are available. A one-time fee is required to play. The facility includes amenities like restrooms, lights, and trainers or lessons.",
    "address": "99 Lowell Ave",
    "city": "San Rafael",
    "latitude": 38.004385,
    "longitude": -122.522601,
    "indoor": false,
    "lighted": true,
    "surface_type": "Concrete",
    "fees": "Fee required",
    "phone": "+17079715074",
    "photo_url": "https://cdn.filestackcontent.com/CJZhi8BQzSXOFKHOORhV",
    "has_restrooms": true,
    "skill_levels": "intermediate"
  },
  {
    "county_slug": "marin",
    "state": "CA",
    "verified": false,
    "name": "Eastwood Park",
    "description": "Eastwood Park is one of the most popular places to play pickleball in Mill Valley, CA. There are 4 outdoor hard courts. The lines are permanent, and portable nets are available. Amenities include restrooms and water. The courts are free.",
    "address": "605 Eastwood Way",
    "city": "Mill Valley",
    "zip_code": "94941",
    "latitude": 37.881441,
    "longitude": -122.544345,
    "indoor": false,
    "num_courts": 4,
    "surface_type": "Hard",
    "fees": "Free",
    "website": "http://www.tamcsd.us/",
    "photo_url": "https://cdn.filestackcontent.com/FgXqYE2hSuqgzpyUADMz",
    "has_restrooms": true,
    "has_water": true,
    "nets_provided": true,
    "skill_levels": "advanced,intermediate",
    "court_type": "dedicated"
  },
  {
    "county_slug": "marin",
    "state": "CA",
    "verified": false,
    "name": "Flyte Racquet Club",
    "description": "We also have dry saunas in men’s and women’s locker rooms, upstairs lounge with shuffleboard, ping-pong table, pool table and conference room.  Our fully equipped gym and treatment rooms are almost complete.",
    "address": "440 Smith Ranch Rd",
    "city": "San Rafael",
    "latitude": 38.017919,
    "longitude": -122.521201,
    "indoor": false,
    "lighted": true,
    "num_courts": 23,
    "surface_type": "Hard, Acrylic",
    "fees": "Members only",
    "phone": "8054635983",
    "website": "https://flytemarin.com/",
    "email": "info@flytemarin.com",
    "photo_url": "https://cdn.filestackcontent.com/udVN7ujsSdevxxcoQMN4",
    "has_restrooms": true,
    "has_water": true,
    "wheelchair_accessible": true,
    "nets_provided": true,
    "skill_levels": "advanced,intermediate",
    "court_type": "dedicated"
  },
  {
    "county_slug": "marin",
    "state": "CA",
    "verified": false,
    "name": "Hill Pickleball Courts",
    "description": "Hill Pickleball Courts is one of the most popular places to play pickleball in Novato, CA. There are 6 outdoor hard courts. These are dedicated courts with permanent lines and nets. The courts are free. Amenities include restrooms, water, and wheelchair accessibility. Reservations are available.",
    "address": "1560 Hill Rd",
    "city": "Novato",
    "zip_code": "94947",
    "latitude": 38.096712,
    "longitude": -122.575714,
    "indoor": false,
    "num_courts": 6,
    "surface_type": "Hard",
    "fees": "Free",
    "phone": "4152461405",
    "website": "https://www.novato.org/government/parks-recreation-community-services/parks-facilities/hill-recreation-area?locale=eno",
    "photo_url": "https://cdn.filestackcontent.com/MrAUP3QXRE6Hl5kvpwPz",
    "has_restrooms": true,
    "has_water": true,
    "wheelchair_accessible": true,
    "nets_provided": true,
    "skill_levels": "intermediate",
    "court_type": "dedicated"
  },
  {
    "county_slug": "marin",
    "state": "CA",
    "verified": false,
    "name": "Lagunitas Pickleball Club",
    "description": "Lagunitas Pickleball Club is one of the most popular places to play pickleball in San Geronimo, CA. There is 1 outdoor hard court. The lines are overlaid on a tennis court, so the net is a little taller than a normal pickleball net. A one-time fee is required to play.",
    "address": "1 Lagunitas School Rd",
    "city": "San Geronimo",
    "zip_code": "94963",
    "latitude": 38.017357,
    "longitude": -122.675633,
    "indoor": false,
    "num_courts": 1,
    "surface_type": "Hard",
    "fees": "Fee required",
    "phone": "4157177657",
    "photo_url": "https://cdn.filestackcontent.com/ZZKwP3LYS0aYGjol3RTY",
    "skill_levels": "advanced,beginner,intermediate",
    "court_type": "dedicated"
  },
  {
    "county_slug": "marin",
    "state": "CA",
    "verified": false,
    "name": "Marinship Park",
    "description": "Marinship Park is one of the most popular places to play pickleball in Sausalito, CA. There are 3 outdoor hard courts. These are dedicated courts with permanent lines and nets. A membership is required to play. Amenities include restrooms. The courts can be reserved.",
    "address": "2201 Marinship Way",
    "city": "Sausalito",
    "latitude": 37.862355,
    "longitude": -122.494469,
    "indoor": false,
    "num_courts": 3,
    "surface_type": "Hard",
    "fees": "Members only",
    "website": "https://www.sausalito.gov/departments/parks-and-recreation/marinship-park",
    "photo_url": "https://cdn.filestackcontent.com/XT1rEVopT3Gv97wHvrSj",
    "has_restrooms": true,
    "nets_provided": true,
    "skill_levels": "advanced,intermediate",
    "court_type": "dedicated"
  },
  {
    "county_slug": "marin",
    "state": "CA",
    "verified": false,
    "name": "Martin Luther King Jr Park",
    "description": "Come play pickleball at Martin Luther King Jr Park in Sausalito, CA! There are 4 hard and wood courts. 2 are outdoors and 2 are indoors. These are dedicated courts with permanent lines and nets. The courts are free. The facility includes amenities like restrooms, water, and wheelchair accessibility.",
    "address": "VF9W+622",
    "city": "Sausalito",
    "latitude": 37.868012,
    "longitude": -122.504984,
    "indoor": false,
    "num_courts": 4,
    "surface_type": "Hard, Wood",
    "fees": "Free",
    "phone": "4154976764",
    "website": "https://www.sausalito.gov/Home/Components/FacilityDirectory/FacilityDirectory/88/839",
    "photo_url": "https://cdn.filestackcontent.com/LhNRgP87QbyE534ctICK",
    "has_restrooms": true,
    "has_water": true,
    "wheelchair_accessible": true,
    "nets_provided": true,
    "skill_levels": "advanced,intermediate",
    "court_type": "dedicated"
  },
  {
    "county_slug": "marin",
    "state": "CA",
    "verified": false,
    "name": "McInnis Park Pickleball/Tennis Courts",
    "description": "No locker rooms on site. Parking lot has high vehicle break ins. Please keep your valuables on you at all times.",
    "address": "310 Smith Ranch Road",
    "city": "San Rafael",
    "latitude": 38.020731,
    "longitude": -122.524612,
    "indoor": false,
    "num_courts": 4,
    "surface_type": "Hard",
    "fees": "Fee required — $13 reserves two pickleball courts (drawn over one tennis court) for one hour",
    "phone": "+14154464423",
    "website": "https://www.parks.marincounty.org/parkspreserves/parks/mcinnis-park",
    "email": "audreabocchi@AOL.com",
    "photo_url": "https://cdn.filestackcontent.com/YMiaoRgbSeiMYWwhT5NJ",
    "has_restrooms": true,
    "has_water": true,
    "wheelchair_accessible": true,
    "nets_provided": true,
    "skill_levels": "advanced,beginner,intermediate",
    "court_type": "dedicated"
  },
  {
    "county_slug": "marin",
    "state": "CA",
    "verified": false,
    "name": "McNears Beach Park",
    "description": "Two tennis courts one lined with Pickleball lines for two pickleball courts.",
    "address": "201 Cantera Way",
    "city": "San Rafael",
    "latitude": 37.994081,
    "longitude": -122.454163,
    "indoor": false,
    "num_courts": 2,
    "surface_type": "Asphalt",
    "fees": "Free",
    "phone": "+14154464424",
    "website": "https://www.parks.marincounty.org/parkspreserves/parks/mcnears-beach",
    "photo_url": "https://cdn.filestackcontent.com/ZGTia5eZTN69nB8PV4Rg",
    "nets_provided": true,
    "skill_levels": "advanced,intermediate",
    "court_type": "dedicated",
    "wheelchair_accessible": true
  },
  {
    "county_slug": "marin",
    "state": "CA",
    "verified": false,
    "name": "Osher Marin JCC",
    "description": "Osher Marin JCC is a place to play pickleball in San Rafael, CA. There are 4 hard and wood courts. 2 are outdoors and 2 are indoors. The lines are permanent, and portable nets are available. The facility includes amenities like restrooms, trainers or lessons, and wheelchair accessibility. A one-time fee is required to play. The courts can be reserved.",
    "address": "200 N San Pedro Rd",
    "city": "San Rafael",
    "latitude": 37.999609,
    "longitude": -122.522912,
    "indoor": false,
    "num_courts": 4,
    "surface_type": "Hard, Wood",
    "fees": "Fee required",
    "phone": "+14154448004",
    "website": "https://www.marinjcc.org/",
    "email": "membership@marinjcc.org",
    "photo_url": "https://cdn.filestackcontent.com/P3kpFBGGQyyJVPlAWriC",
    "has_restrooms": true,
    "wheelchair_accessible": true,
    "nets_provided": true,
    "skill_levels": "intermediate",
    "court_type": "dedicated",
    "hours": "Thursday 6am–7pm"
  },
  {
    "county_slug": "marin",
    "state": "CA",
    "verified": false,
    "name": "Piper Park",
    "description": "Piper Park is a place to play pickleball in Larkspur, CA. There are 8 outdoor hard courts. The lines are permanent, and portable nets are available. The facility includes amenities like restrooms and water. The courts are free.",
    "address": "250 Doherty Dr",
    "city": "Larkspur",
    "latitude": 37.938599,
    "longitude": -122.529949,
    "indoor": false,
    "num_courts": 8,
    "surface_type": "Hard",
    "fees": "Free",
    "photo_url": "https://cdn.filestackcontent.com/fMw5jCeSjV3NBy9YAPQA",
    "has_restrooms": true,
    "has_water": true,
    "nets_provided": true,
    "skill_levels": "advanced,intermediate",
    "court_type": "dedicated"
  },
  {
    "county_slug": "marin",
    "state": "CA",
    "verified": false,
    "name": "Pueblo Park",
    "description": "Pueblo Park is one of the most popular places to play pickleball in Santa Venetia, CA. There is 1 outdoor acrylic court. The lines are overlaid on a tennis court, so the net is a little taller than a normal pickleball net. The court is free. Players have access to restrooms.",
    "address": "Hacienda Way",
    "city": "Santa Venetia",
    "zip_code": "94903",
    "latitude": 38.016491,
    "longitude": -122.516245,
    "indoor": false,
    "num_courts": 1,
    "surface_type": "Acrylic",
    "fees": "Free",
    "phone": "4154991477",
    "website": "http://www.marincountyparks.org/depts/pk/divisions/parks/pueblo",
    "photo_url": "https://cdn.filestackcontent.com/XTT7PgNMSiCtuhvGiyfT",
    "has_restrooms": true,
    "skill_levels": "beginner,intermediate",
    "court_type": "dedicated"
  },
  {
    "county_slug": "marin",
    "state": "CA",
    "verified": false,
    "name": "Rec Golden Gate Village",
    "description": "Rec Golden Gate Village is one of the most popular places to play pickleball in Sausalito, CA. There are 4 outdoor asphalt courts. These are dedicated courts with permanent lines and nets. A one-time fee is required to play. The courts can be reserved.",
    "address": "100 Drake Ave",
    "city": "Sausalito",
    "latitude": 37.871186,
    "longitude": -122.509223,
    "indoor": false,
    "num_courts": 4,
    "surface_type": "Asphalt",
    "fees": "Fee required",
    "website": "https://www.rec.us/locations",
    "email": "support@rec.us",
    "photo_url": "https://cdn.filestackcontent.com/IUBocq48TXKJMKcczota",
    "nets_provided": true,
    "skill_levels": "advanced,beginner,intermediate",
    "court_type": "dedicated"
  },
  {
    "county_slug": "marin",
    "state": "CA",
    "verified": false,
    "name": "San Geronimo Valley Community Center",
    "description": "San Geronimo Valley Community Center is a place to play pickleball in San Geronimo, CA. There are 3 indoor wood courts. The lines are permanent, and portable nets are available. Reservations are available. A membership is required to play. Amenities include restrooms.",
    "address": "6350 Sir Francis Drake Blvd",
    "city": "San Geronimo",
    "latitude": 38.016522,
    "longitude": -122.674651,
    "indoor": true,
    "num_courts": 3,
    "surface_type": "Wood",
    "fees": "Members only",
    "phone": "+14154888888",
    "website": "https://www.sgvcc.org/",
    "email": "info@sgvcc.org",
    "photo_url": "https://cdn.filestackcontent.com/vdEq8DHRtG94ZHQB1DKc",
    "has_restrooms": true,
    "nets_provided": true,
    "skill_levels": "beginner,intermediate",
    "court_type": "dedicated"
  },
  {
    "county_slug": "marin",
    "state": "CA",
    "verified": false,
    "name": "Strawberry Recreation Center",
    "description": "Strawberry Recreation Center is one of the most popular places to play pickleball in Mill Valley, CA. There are 4 outdoor hard courts. The lines are permanent, and portable nets are available. The facility includes amenities like restrooms, water, lights, and trainers or lessons. A one-time fee is required to play. Reservations are available.",
    "address": "118 E Strawberry Dr",
    "city": "Mill Valley",
    "zip_code": "94941",
    "latitude": 37.897674,
    "longitude": -122.506411,
    "indoor": false,
    "lighted": true,
    "num_courts": 4,
    "surface_type": "Hard",
    "fees": "Fee required",
    "phone": "4153836494",
    "website": "https://strawberry.marin.org/",
    "photo_url": "https://cdn.filestackcontent.com/XIJWSzvQnmsDndRi5TOL",
    "has_restrooms": true,
    "has_water": true,
    "nets_provided": true,
    "skill_levels": "advanced,beginner,intermediate",
    "court_type": "dedicated",
    "hours": "Friday, 9 am – 5:30 pm"
  },
  {
    "county_slug": "marin",
    "state": "CA",
    "verified": false,
    "name": "Town of Ross Pickleball Court Clinics",
    "description": "Come play pickleball at Town of Ross Pickleball Court Clinics in Ross, CA! There are 4 outdoor hard courts. The lines are permanent, and portable nets are available. The courts are private.",
    "address": "53 Poplar Ave",
    "city": "Ross",
    "latitude": 37.958996,
    "longitude": -122.554313,
    "indoor": false,
    "num_courts": 4,
    "surface_type": "Hard",
    "fees": "Private — Anyone can join the pickleball clinics offered by Ross Park and Rec",
    "website": "https://rossrecreation.org/pickleball/",
    "photo_url": "https://cdn.filestackcontent.com/ds09YqtmTli4mce6dRJ4",
    "nets_provided": true,
    "skill_levels": "beginner",
    "court_type": "dedicated"
  }
]