[
  {
    "county_slug": "mendocino",
    "state": "CA",
    "verified": false,
    "name": "ARRC/ Alex Rorabaugh Recreation Center",
    "description": "Come play pickleball at ARRC/ Alex Rorabaugh Recreation Center in Ukiah, CA! There are 2 indoor courts. The lines are permanent, but you'll need to bring your own net. A one-time fee is required to play. Amenities include restrooms and wheelchair accessibility.",
    "address": "1640 S State St",
    "city": "Ukiah",
    "zip_code": "95482",
    "latitude": 39.122717,
    "longitude": -123.206161,
    "indoor": true,
    "num_courts": 2,
    "fees": "Fee required",
    "phone": "7072722270",
    "website": "https://www.ukiahrec.org/",
    "photo_url": "https://cdn.filestackcontent.com/fKM4kXsTYqHITgjAxBUO",
    "has_restrooms": true,
    "wheelchair_accessible": true,
    "nets_provided": false,
    "skill_levels": "beginner,intermediate",
    "court_type": "dedicated",
    "hours": "5pm-9pm"
  },
  {
    "county_slug": "mendocino",
    "state": "CA",
    "verified": false,
    "name": "Birkdale United Reformed Church",
    "description": "Come play pickleball at Birkdale United Reformed Church in Ukiah, CA! There is 1 indoor wood court. The lines are permanent, and portable nets are available. Reservations are not available. The court is private. The facility includes amenities like restrooms.",
    "address": "40 Grosvenor Road",
    "city": "Ukiah",
    "latitude": 39.150166,
    "longitude": -123.207786,
    "indoor": true,
    "num_courts": 1,
    "surface_type": "Wood",
    "fees": "Private",
    "website": "https://www.birkdaleurc.org.uk/welcome.htm",
    "photo_url": "https://cdn.filestackcontent.com/L8D6HrgcRZiHAnLCbybp",
    "has_restrooms": true,
    "nets_provided": true,
    "court_type": "dedicated"
  },
  {
    "county_slug": "mendocino",
    "state": "CA",
    "verified": false,
    "name": "Fort Bragg PickleBall Courts",
    "description": "Come play pickleball at Fort Bragg PickleBall Courts in Fort Bragg, CA! There are 8 outdoor hard courts. These are dedicated courts with permanent lines and nets. The courts cannot be reserved. The courts are free.",
    "address": "500 North Harold Street",
    "city": "Fort Bragg",
    "latitude": 39.448296,
    "longitude": -123.797945,
    "indoor": false,
    "num_courts": 8,
    "surface_type": "Hard",
    "fees": "Free",
    "nets_provided": true,
    "skill_levels": "intermediate",
    "court_type": "dedicated"
  },
  {
    "county_slug": "mendocino",
    "state": "CA",
    "verified": false,
    "name": "Harold O. Bainbridge Park",
    "description": "Harold O. Bainbridge Park is a place to play pickleball in Fort Bragg, CA. There are 2 outdoor hard courts. The lines are permanent, but you'll need to bring your own net. Amenities include restrooms, water, and lights. The courts are free.",
    "address": "E Laurel St",
    "city": "Fort Bragg",
    "zip_code": "95437",
    "latitude": 39.445318,
    "longitude": -123.801644,
    "indoor": false,
    "lighted": true,
    "num_courts": 2,
    "surface_type": "Hard",
    "fees": "Free",
    "phone": "5305705706",
    "website": "https://city.fortbragg.com/",
    "photo_url": "https://cdn.filestackcontent.com/cVDAAuirQwK5p67dROmb",
    "has_restrooms": true,
    "has_water": true,
    "nets_provided": false,
    "skill_levels": "beginner,intermediate",
    "court_type": "dedicated"
  },
  {
    "county_slug": "mendocino",
    "state": "CA",
    "verified": false,
    "name": "Mendocino Medley",
    "description": "Come play pickleball at Mendocino Medley in Noyo, CA! There is 1 outdoor hard court. The lines are permanent, and portable nets are available. The court is private.",
    "address": "18021 Georges Lane",
    "city": "Noyo",
    "latitude": 39.40373,
    "longitude": -123.79957,
    "indoor": false,
    "num_courts": 1,
    "surface_type": "Hard",
    "fees": "Private",
    "photo_url": "https://cdn.filestackcontent.com/SRLldZynS42GEE6Vt04s",
    "nets_provided": true,
    "skill_levels": "beginner",
    "court_type": "dedicated"
  },
  {
    "county_slug": "mendocino",
    "state": "CA",
    "verified": false,
    "name": "Oak Manor Park",
    "description": "Come play pickleball at Oak Manor Park in Ukiah, CA! There are 3 outdoor courts. The lines are overlaid on a tennis court, so the net is a little taller than a normal pickleball net. The courts are free.",
    "address": "Oak Manor Dr",
    "city": "Ukiah",
    "zip_code": "95482",
    "latitude": 39.15084,
    "longitude": -123.192489,
    "indoor": false,
    "num_courts": 3,
    "fees": "Free",
    "phone": "4255912367",
    "website": "http://www.cityofukiah.com/",
    "photo_url": "https://cdn.filestackcontent.com/WIrbTsikRnuuiBMBOUnP",
    "skill_levels": "beginner,intermediate",
    "court_type": "dedicated",
    "has_parking": true
  }
]