[
  {
    "county_slug": "merced",
    "state": "CA",
    "verified": false,
    "name": "Applegate Park",
    "description": "Come play pickleball at Applegate Park in Merced, CA! There are 4 outdoor hard courts. The lines are permanent, but you'll need to bring your own net. The facility includes amenities like restrooms, water, lights, and trainers or lessons. The courts cannot be reserved. The courts are free.",
    "address": "1045 West 25th Street",
    "city": "Merced",
    "latitude": 37.312503,
    "longitude": -120.483644,
    "indoor": false,
    "lighted": true,
    "num_courts": 4,
    "surface_type": "Hard",
    "fees": "Free",
    "phone": "+12093887000",
    "website": "https://www.cityofmerced.org/Home/Components/FacilityDirectory/FacilityDirectory/68/1405",
    "email": "pickleballmerced@gmail.com",
    "photo_url": "https://cdn.filestackcontent.com/HaMSV77EQ93HtnaNR62F",
    "has_restrooms": true,
    "has_water": true,
    "nets_provided": false,
    "skill_levels": "advanced,beginner",
    "court_type": "dedicated"
  },
  {
    "county_slug": "merced",
    "state": "CA",
    "verified": false,
    "name": "Cresthills Park",
    "description": "Come play pickleball at Cresthills Park in Los Banos, CA! There are 3 outdoor courts. The lines are permanent, but you'll need to bring your own net. The courts are free.",
    "address": "700 Pioneer Rd",
    "city": "Los Banos",
    "zip_code": "93635",
    "latitude": 37.04295,
    "longitude": -120.8464,
    "indoor": false,
    "num_courts": 3,
    "fees": "Free",
    "phone": "2098299788",
    "photo_url": "https://cdn.filestackcontent.com/1k2uzMx8RIOKUkmu8yDt",
    "nets_provided": false,
    "skill_levels": "beginner,intermediate",
    "court_type": "dedicated"
  },
  {
    "county_slug": "merced",
    "state": "CA",
    "verified": false,
    "name": "In Shape Yosemite Avenue health Club Merced",
    "description": "Come play pickleball at In Shape Yosemite Avenue health Club Merced in Merced, CA! There are 12 outdoor hard courts. These are dedicated courts with permanent lines and nets. Amenities include lights and restrooms. You can reserve the courts. A membership is required to play.",
    "address": "350 E Yosemite Ave",
    "city": "Merced",
    "zip_code": "95340",
    "latitude": 37.331513,
    "longitude": -120.465545,
    "indoor": false,
    "lighted": true,
    "num_courts": 12,
    "surface_type": "Hard",
    "fees": "Members only",
    "phone": "2097223988",
    "website": "https://www.inshape.com/gyms/merced-yosemite-ave-california-95340?utm_source=Yext&utm_medium=Listing&utm_campaign=GOOGLE",
    "photo_url": "https://cdn.filestackcontent.com/3EO0IGTGRi6pL5Fo1uci",
    "has_restrooms": true,
    "nets_provided": true,
    "skill_levels": "beginner,intermediate",
    "court_type": "dedicated"
  },
  {
    "county_slug": "merced",
    "state": "CA",
    "verified": false,
    "name": "Los Banos Community Center",
    "description": "Los Banos Community Center is one of the most popular places to play pickleball in Los Banos, CA. There are 2 indoor courts. The lines are permanent, but you'll need to bring your own net. The courts are free. Players have access to restrooms and water.",
    "address": "645 7th St",
    "city": "Los Banos",
    "zip_code": "93635",
    "latitude": 37.062741,
    "longitude": -120.845816,
    "indoor": true,
    "num_courts": 2,
    "fees": "Free",
    "phone": "2098299788",
    "website": "http://www.losbanos.org/city-government/departments/recreation/",
    "photo_url": "https://cdn.filestackcontent.com/OYzLNYlbQq2CzKZecEMD",
    "has_restrooms": true,
    "has_water": true,
    "nets_provided": false,
    "skill_levels": "beginner",
    "court_type": "dedicated"
  },
  {
    "county_slug": "merced",
    "state": "CA",
    "verified": false,
    "name": "Los Banos Fitness and Racquet Club",
    "description": "Los Banos Fitness and Racquet Club is one of the most popular places to play pickleball in Los Banos, CA. There are 12 outdoor hard courts. These are dedicated courts with permanent lines and nets. Players have access to food, restrooms, water, and lights. A one-time fee is required to play.",
    "address": "1520 Racquet Club Dr",
    "city": "Los Banos",
    "zip_code": "93635",
    "latitude": 37.064562,
    "longitude": -120.832007,
    "indoor": false,
    "lighted": true,
    "num_courts": 12,
    "surface_type": "Hard",
    "fees": "Fee required",
    "phone": "2098266011",
    "website": "http://lbfitness.com/",
    "photo_url": "https://cdn.filestackcontent.com/ucTBMe6oSXOmmgbAQ1Yt",
    "has_restrooms": true,
    "has_water": true,
    "nets_provided": true,
    "skill_levels": "advanced,beginner,intermediate",
    "court_type": "dedicated"
  },
  {
    "county_slug": "merced",
    "state": "CA",
    "verified": false,
    "name": "McCombs Gym, Merced County",
    "description": "McCombs Gym, Merced County is one of the most popular places to play pickleball in Merced, CA. There are 4 indoor hard courts. The lines are permanent, and portable nets are available. Amenities include restrooms, water, lights, wheelchair accessibility, and trainers or lessons. A one-time fee is required to play.",
    "address": "615 W 15th St",
    "city": "Merced",
    "latitude": 37.300219,
    "longitude": -120.486486,
    "indoor": true,
    "lighted": true,
    "num_courts": 4,
    "surface_type": "Hard",
    "fees": "Fee required â€” Must register with the city Recreation Dept $20/month or $5/session, can pay cash at the door",
    "phone": "+12093856235",
    "website": "https://www.cityofmerced.org/departments/parks-community-services/recreation-programs",
    "email": "picklballmerced@gmail.com",
    "photo_url": "https://cdn.filestackcontent.com/v6Cs5QjRLysiTy4OFaoZ",
    "has_restrooms": true,
    "has_water": true,
    "wheelchair_accessible": true,
    "nets_provided": true,
    "skill_levels": "beginner",
    "court_type": "dedicated"
  },
  {
    "county_slug": "merced",
    "state": "CA",
    "verified": false,
    "name": "San Luis High School",
    "description": "San Luis High School is a place to play pickleball in Los Banos, CA. There are 2 indoor asphalt courts. The lines are permanent, but you'll need to bring your own net. The courts are free. Players have access to restrooms.",
    "address": "125 7th St",
    "city": "Los Banos",
    "zip_code": "93635",
    "latitude": 37.067368,
    "longitude": -120.842411,
    "indoor": true,
    "num_courts": 2,
    "surface_type": "Asphalt",
    "fees": "Free",
    "phone": "2098299788",
    "website": "http://www.losbanosusd.k12.ca.us/eo/Department/San-Luis-High-School",
    "photo_url": "https://cdn.filestackcontent.com/eCztmEbaQ2Gec1gta6S0",
    "has_restrooms": true,
    "nets_provided": false,
    "skill_levels": "beginner,intermediate",
    "court_type": "dedicated"
  }
]