[
  {
    "county_slug": "mono",
    "state": "CA",
    "verified": false,
    "name": "Community Center Park",
    "description": "Come play pickleball at Community Center Park in Mammoth Lakes, CA! There are 2 outdoor asphalt courts. The lines are overlaid on a tennis court, so the net is a little taller than a normal pickleball net. The courts are free. Reservations are not available.",
    "address": "1000 Forest Trail",
    "city": "Mammoth Lakes",
    "latitude": 37.652425,
    "longitude": -118.984275,
    "indoor": false,
    "num_courts": 2,
    "surface_type": "Asphalt",
    "fees": "Free",
    "phone": "+17609348989",
    "website": "http://www.ci.mammoth-lakes.ca.us/",
    "photo_url": "https://cdn.filestackcontent.com/enJbQVetQ9ip4j6bdH8C",
    "skill_levels": "advanced,intermediate",
    "court_type": "dedicated"
  },
  {
    "county_slug": "mono",
    "state": "CA",
    "verified": false,
    "name": "Mammoth Creek Park",
    "description": "Mammoth Creek Park is a place to play pickleball in Mammoth Lakes, CA. There is 1 outdoor hard court. The lines are overlaid on a tennis court, so the net is a little taller than a normal pickleball net. The court cannot be reserved. The court is free.",
    "address": "437 Old Mammoth Rd",
    "city": "Mammoth Lakes",
    "latitude": 37.6429,
    "longitude": -118.98216,
    "indoor": false,
    "num_courts": 1,
    "surface_type": "Hard",
    "fees": "Free",
    "website": "https://www.townofmammothlakes.ca.gov/979/CRC",
    "photo_url": "https://cdn.filestackcontent.com/RSJhtVxOTxiNkuu3N3zu",
    "skill_levels": "beginner,intermediate",
    "court_type": "dedicated",
    "has_parking": true,
    "has_restrooms": true,
    "wheelchair_accessible": true
  },
  {
    "county_slug": "mono",
    "state": "CA",
    "verified": false,
    "name": "Mammoth Lakes Pickleball Complex",
    "description": "Courts and equipment (paddles and balls) are available on a first-come, first-serve basis. For more information, please contact the Parks and Recreation Department on (760) 965-3690.",
    "address": "416 Sierra Park Rd",
    "city": "Mammoth Lakes",
    "latitude": 37.639703,
    "longitude": -118.963088,
    "indoor": false,
    "num_courts": 6,
    "open_play_schedule": "It is open seven (7) days a week, 8:00am-8:00pm, from April to November (weather dependent).",
    "fees": "Free",
    "phone": "(760) 965-3690",
    "website": "https://www.townofmammothlakes.ca.gov/1235/Mammoth-Lakes-Pickleball-Complex",
    "email": "parksandrec@townofmammothlakes.ca.gov",
    "photo_url": "https://cdn.filestackcontent.com/k0y1ZUKQ4a8KVpsSVjgY",
    "has_restrooms": true,
    "nets_provided": true,
    "skill_levels": "beginner,intermediate",
    "court_type": "dedicated",
    "has_parking": true
  },
  {
    "county_slug": "mono",
    "state": "CA",
    "verified": false,
    "name": "Snowcreek Athletic Club",
    "description": "Come play pickleball at Snowcreek Athletic Club in Mammoth Lakes, CA! There are 4 hard courts. 2 are outdoors and 2 are indoors. The lines are permanent, and portable nets are available. A membership is required to play. Reservations are available. The facility includes amenities like restrooms, water, and lights.",
    "address": "1616 Old Mammoth Rd",
    "city": "Mammoth Lakes",
    "zip_code": "93546",
    "latitude": 37.62906,
    "longitude": -118.979782,
    "indoor": false,
    "lighted": true,
    "num_courts": 4,
    "surface_type": "Hard",
    "fees": "Members only",
    "phone": "7609348511",
    "website": "http://snowcreekathleticclub.com/",
    "photo_url": "https://cdn.filestackcontent.com/dKNuOMIwSoOKWKXpvFT2",
    "has_restrooms": true,
    "has_water": true,
    "nets_provided": true,
    "skill_levels": "intermediate",
    "court_type": "dedicated"
  },
  {
    "county_slug": "mono",
    "state": "CA",
    "verified": false,
    "name": "Walker Community Park",
    "description": "Walker Community Park is a place to play pickleball in Coleville, CA. There is 1 outdoor hard court. The lines are overlaid on a tennis court, so the net is a little taller than a normal pickleball net. The court is free. The facility includes amenities like restrooms and water.",
    "address": "422 Mule Deer Road",
    "city": "Coleville",
    "latitude": 38.514398,
    "longitude": -119.479718,
    "indoor": false,
    "num_courts": 1,
    "surface_type": "Hard",
    "fees": "Free",
    "photo_url": "https://cdn.filestackcontent.com/hEOflAfQeuqo7r9RTo4n",
    "has_restrooms": true,
    "has_water": true,
    "skill_levels": "beginner",
    "court_type": "shared"
  }
]