[
  {
    "county_slug": "monterey",
    "state": "CA",
    "verified": false,
    "name": "Carmel Valley Athletic Club",
    "description": "Carmel Valley Athletic Club is one of the most popular places to play pickleball in Carmel Highlands, CA. There are 4 outdoor hard courts. The lines are permanent, and portable nets are available. A membership is required to play. Players have access to restrooms, food, locker rooms, a pro shop or equipment store, water, and lights.",
    "address": "27300 Ranch San Carlos Rd",
    "city": "Carmel Highlands",
    "zip_code": "93923",
    "latitude": 36.530463,
    "longitude": -121.866806,
    "indoor": false,
    "lighted": true,
    "num_courts": 4,
    "surface_type": "Hard",
    "fees": "Members only",
    "phone": "8316242737",
    "website": "http://www.cvaconline.com/",
    "photo_url": "https://cdn.filestackcontent.com/jBN8W66RGKwi0I3xp9aA",
    "has_restrooms": true,
    "has_water": true,
    "has_pro_shop": true,
    "nets_provided": true,
    "skill_levels": "beginner,intermediate",
    "court_type": "dedicated"
  },
  {
    "county_slug": "monterey",
    "state": "CA",
    "verified": false,
    "name": "Carmel Valley Ranch Resort",
    "description": "Carmel Valley Ranch Resort is a place to play pickleball in Carmel Highlands, CA. There are 4 outdoor clay and hard courts. These are dedicated courts with permanent lines and nets. The facility includes amenities like restrooms, water, and trainers or lessons. The courts can be reserved. A one-time fee is required to play.",
    "address": "1 Old Ranch Rd",
    "city": "Carmel Highlands",
    "zip_code": "93923",
    "latitude": 36.519771,
    "longitude": -121.806876,
    "indoor": false,
    "num_courts": 4,
    "surface_type": "Clay, Hard",
    "fees": "Fee required",
    "phone": "8316262550",
    "website": "http://www.carmelvalleyranch.com/",
    "photo_url": "https://cdn.filestackcontent.com/r6y8g29wSmSRdQsm39UG",
    "has_restrooms": true,
    "has_water": true,
    "nets_provided": true,
    "skill_levels": "advanced,intermediate",
    "court_type": "dedicated"
  },
  {
    "county_slug": "monterey",
    "state": "CA",
    "verified": false,
    "name": "Chamisal Tennis & Fitness Club",
    "description": "Come play pickleball at Chamisal Tennis & Fitness Club in Salinas, CA! There are 8 outdoor hard courts. These are dedicated courts with permanent lines and nets. A membership is required to play. The courts can be reserved. Amenities include restrooms and water.",
    "address": "185 Robley Road",
    "city": "Salinas",
    "latitude": 36.55555,
    "longitude": -121.747819,
    "indoor": false,
    "num_courts": 8,
    "surface_type": "Hard",
    "fees": "Members only",
    "phone": "8314841135",
    "website": "http://www.chamisal.com/",
    "email": "info@Chamisal.com",
    "photo_url": "https://cdn.filestackcontent.com/KEJE8AgRQuk0kJeFOpwb",
    "has_restrooms": true,
    "has_water": true,
    "nets_provided": true,
    "skill_levels": "intermediate",
    "court_type": "dedicated"
  },
  {
    "county_slug": "monterey",
    "state": "CA",
    "verified": false,
    "name": "Claremont Manor Park",
    "description": "Claremont Manor Park is one of the most popular places to play pickleball in Salinas, CA. There are 2 outdoor hard courts. The lines are overlaid on a tennis court, so the net is a little taller than a normal pickleball net. The courts are free. Players have access to restrooms, water, and wheelchair accessibility. The courts cannot be reserved.",
    "address": "1220 San Fernando Dr",
    "city": "Salinas",
    "latitude": 36.65563,
    "longitude": -121.648865,
    "indoor": false,
    "num_courts": 2,
    "surface_type": "Hard",
    "fees": "Free",
    "phone": "+18317587351",
    "photo_url": "https://cdn.filestackcontent.com/mLTLQ4VSyyOXubRNxl3P",
    "has_restrooms": true,
    "has_water": true,
    "wheelchair_accessible": true,
    "skill_levels": "beginner",
    "court_type": "dedicated"
  },
  {
    "county_slug": "monterey",
    "state": "CA",
    "verified": false,
    "name": "Del Rey Oaks Tennis Courts",
    "description": "Under construction. Completion date 12/2026.",
    "address": "901 Angelus Way",
    "city": "Del Rey Oaks",
    "zip_code": "93940",
    "latitude": 36.594555,
    "longitude": -121.844709,
    "indoor": false,
    "num_courts": 2,
    "open_play_schedule": "Unknown",
    "fees": "Free",
    "phone": "8313948511",
    "website": "https://www.delreyoaks.org/parksrec/page/tennis-court-rules-registration",
    "photo_url": "https://cdn.filestackcontent.com/77xUjHTSlmdjTaIIObzP",
    "nets_provided": false,
    "skill_levels": "advanced,intermediate",
    "court_type": "dedicated"
  },
  {
    "county_slug": "monterey",
    "state": "CA",
    "verified": false,
    "name": "Kim Grant Pickleball Acadamey",
    "description": "Kim Grant Pickleball Acadamey is one of the most popular places to play pickleball in Seaside, CA. There are 20 outdoor concrete courts. These are dedicated courts with permanent lines and nets. You can reserve the courts. The facility includes amenities like lights, a pro shop or equipment store, restrooms, trainers or lessons, and food. A membership is required to play.",
    "address": "1553 Kimball Ave",
    "city": "Seaside",
    "zip_code": "93955",
    "latitude": 36.599544,
    "longitude": -121.83167,
    "indoor": false,
    "lighted": true,
    "num_courts": 20,
    "surface_type": "Concrete",
    "fees": "Members only",
    "phone": "8313946629",
    "website": "http://www.meadowbrookswimandtennis.com/",
    "photo_url": "https://cdn.filestackcontent.com/9iHpCSvQQqyaVslOMjgv",
    "has_restrooms": true,
    "has_pro_shop": true,
    "nets_provided": true,
    "skill_levels": "intermediate",
    "court_type": "dedicated",
    "hours": "Sun, 9am-12:30pm"
  },
  {
    "county_slug": "monterey",
    "state": "CA",
    "verified": false,
    "name": "Los Arboles Sports Complex",
    "description": "Los Arboles Sports Complex is a place to play pickleball in Marina, CA. There are 2 outdoor hard courts. The lines are overlaid on a tennis court, so the net is a little taller than a normal pickleball net. The courts are free.",
    "address": "327 Reindollar Ave",
    "city": "Marina",
    "latitude": 36.676949,
    "longitude": -121.796319,
    "indoor": false,
    "num_courts": 2,
    "surface_type": "Hard",
    "fees": "Free",
    "phone": "+18318841231",
    "photo_url": "https://cdn.filestackcontent.com/OTh0y2TcOYLbCVAm8Eg7",
    "skill_levels": "beginner,intermediate",
    "court_type": "dedicated"
  },
  {
    "county_slug": "monterey",
    "state": "CA",
    "verified": false,
    "name": "Monterey Bay Racquet Club",
    "description": "Monterey Bay Racquet Club is one of the most popular places to play pickleball in Monterey, CA. There are 10 outdoor hard courts. The lines are permanent, and portable nets are available. A one-time fee is required to play. You can reserve the courts. The facility includes amenities like lights, restrooms, a pro shop or equipment store, water, trainers or lessons, and food.",
    "address": "15 Old Golf Course Rd",
    "city": "Monterey",
    "latitude": 36.592735,
    "longitude": -121.874628,
    "indoor": false,
    "lighted": true,
    "num_courts": 10,
    "surface_type": "Hard",
    "fees": "Fee required — Free for members / non-member fee is $20",
    "website": "https://www.montereybayrc.com/",
    "email": "stacia@sambar.com",
    "photo_url": "https://cdn.filestackcontent.com/0PeNbaGpQXSlmh14Cek0",
    "has_restrooms": true,
    "has_water": true,
    "has_pro_shop": true,
    "nets_provided": true,
    "skill_levels": "beginner,intermediate",
    "court_type": "dedicated"
  },
  {
    "county_slug": "monterey",
    "state": "CA",
    "verified": false,
    "name": "Monterey Peninsula College",
    "description": "Monterey Peninsula College is a place to play pickleball in Monterey, CA. There are 8 outdoor acrylic courts. These are dedicated courts with permanent lines and nets. Players have access to wheelchair accessibility, restrooms, and water. The courts are free.",
    "address": "980 Fremont St",
    "city": "Monterey",
    "zip_code": "93940",
    "latitude": 36.590787,
    "longitude": -121.886036,
    "indoor": false,
    "num_courts": 8,
    "surface_type": "Acrylic",
    "fees": "Free",
    "phone": "+18316464000",
    "website": "http://www.mpc.com",
    "email": "wbates@mpc.edu",
    "photo_url": "https://cdn.filestackcontent.com/6JOUPudSe6LoLTzUlddA",
    "has_restrooms": true,
    "has_water": true,
    "wheelchair_accessible": true,
    "nets_provided": true,
    "skill_levels": "advanced,beginner,intermediate",
    "court_type": "dedicated"
  },
  {
    "county_slug": "monterey",
    "state": "CA",
    "verified": false,
    "name": "Monterey Sports Center",
    "description": "Come play pickleball at Monterey Sports Center in Monterey, CA! There are 3 indoor courts. The lines are permanent, and portable nets are available. A membership is required to play. Players have access to lights.",
    "address": "301 E Franklin St",
    "city": "Monterey",
    "zip_code": "93940",
    "latitude": 36.599819,
    "longitude": -121.892538,
    "indoor": true,
    "lighted": true,
    "num_courts": 3,
    "fees": "Members only",
    "phone": "8316463730",
    "website": "http://www.monterey.org/sportscenter/",
    "photo_url": "https://cdn.filestackcontent.com/z34TzbMqQnqSzN2g4OxO",
    "nets_provided": true,
    "skill_levels": "beginner,intermediate",
    "court_type": "dedicated",
    "has_parking": true
  },
  {
    "county_slug": "monterey",
    "state": "CA",
    "verified": false,
    "name": "Monterey Tennis Center",
    "description": "Monterey Tennis Center is a place to play pickleball in Monterey, CA. There are 4 outdoor hard courts. The lines are permanent, and portable nets are available. The courts are free. The facility includes amenities like restrooms, a pro shop or equipment store, water, and lights.",
    "address": "401 Pearl St",
    "city": "Monterey",
    "zip_code": "93940",
    "latitude": 36.598095,
    "longitude": -121.891197,
    "indoor": false,
    "lighted": true,
    "num_courts": 4,
    "surface_type": "Hard",
    "fees": "Free",
    "phone": "8316463881",
    "photo_url": "https://cdn.filestackcontent.com/lm83TqMEQZy4iwnkdhUx",
    "has_restrooms": true,
    "has_water": true,
    "has_pro_shop": true,
    "nets_provided": true,
    "skill_levels": "advanced,beginner,intermediate",
    "court_type": "dedicated"
  },
  {
    "county_slug": "monterey",
    "state": "CA",
    "verified": false,
    "name": "Morris Dill Courts Pacific Grove",
    "description": "Come play pickleball at Morris Dill Courts Pacific Grove in Pacific Grove, CA! There are 4 outdoor acrylic courts. The lines are permanent, and portable nets are available. Reservations are not available. The courts are free. Players have access to restrooms, locker rooms, and wheelchair accessibility.",
    "address": "515 Junipero Avenue",
    "city": "Pacific Grove",
    "latitude": 36.616137,
    "longitude": -121.917955,
    "indoor": false,
    "num_courts": 4,
    "surface_type": "Acrylic",
    "fees": "Free",
    "phone": "+18316483135",
    "website": "https://www.cityofpacificgrove.org/living/recreation/facilities/morris-dill-tennis-courts",
    "photo_url": "https://cdn.filestackcontent.com/zGN6heckSH6J258jrZQi",
    "has_restrooms": true,
    "wheelchair_accessible": true,
    "nets_provided": true,
    "skill_levels": "advanced,beginner,intermediate",
    "court_type": "dedicated",
    "has_parking": true
  },
  {
    "county_slug": "monterey",
    "state": "CA",
    "verified": false,
    "name": "Quail Lodge",
    "description": "Come play pickleball at Quail Lodge in Carmel Highlands, CA! There are 2 outdoor hard courts. The lines are permanent, and portable nets are available. The courts can be reserved. A membership is required to play. Amenities include restrooms.",
    "address": "8205 Valley Greens Dr",
    "city": "Carmel Highlands",
    "zip_code": "93923",
    "latitude": 36.532398,
    "longitude": -121.851502,
    "indoor": false,
    "num_courts": 2,
    "surface_type": "Hard",
    "fees": "Members only",
    "phone": "8316208808",
    "website": "https://www.quaillodge.com/",
    "photo_url": "https://cdn.filestackcontent.com/Rkt0hHLMRKK0Kuq9XOiw",
    "has_restrooms": true,
    "nets_provided": true,
    "skill_levels": "intermediate",
    "court_type": "dedicated"
  },
  {
    "county_slug": "monterey",
    "state": "CA",
    "verified": false,
    "name": "Spanish Bay Courts",
    "description": "Spanish Bay Courts is one of the most popular places to play pickleball in Del Monte Forest, CA. There are 5 outdoor concrete courts. These are dedicated courts with permanent lines and nets. The courts are private. Players have access to restrooms, water, locker rooms, a pro shop or equipment store, and trainers or lessons. You can’t reserve the courts.",
    "address": "2700 17 Mile Drive",
    "city": "Del Monte Forest",
    "latitude": 36.610512,
    "longitude": -121.941704,
    "indoor": false,
    "num_courts": 5,
    "surface_type": "Concrete",
    "fees": "Private",
    "phone": "+18315745605",
    "website": "http://www.pebblebeach.com/accommodations/the-inn-at-spanish-bay",
    "photo_url": "https://cdn.filestackcontent.com/SSXM9XF1TrGpdSlrku54",
    "has_restrooms": true,
    "has_water": true,
    "has_pro_shop": true,
    "nets_provided": true,
    "skill_levels": "beginner",
    "court_type": "dedicated",
    "has_parking": true
  },
  {
    "county_slug": "monterey",
    "state": "CA",
    "verified": false,
    "name": "Via Paraiso Park",
    "description": "The two dedicated pickleball courts are open 9 a.m to 5 p.m./dusk seven days a week.  There is a rack system for organizing open play.  \nFor more information about pickleball at Via Paraiso Park as well as on the entire Monterey Peninsula, please see \"Where to play pickleball on the Monterey peninsula\" at this URL: Montereypickleball.com",
    "address": "129 Via Paraiso",
    "city": "Monterey",
    "zip_code": "93940",
    "latitude": 36.593254,
    "longitude": -121.906111,
    "indoor": false,
    "num_courts": 2,
    "surface_type": "Asphalt",
    "fees": "Free",
    "phone": "+18312362682",
    "email": "jazwag@mac.com",
    "photo_url": "https://cdn.filestackcontent.com/btpmcHaSaHkFsAcIDXQg",
    "has_restrooms": true,
    "has_water": true,
    "wheelchair_accessible": true,
    "nets_provided": true,
    "skill_levels": "beginner,intermediate",
    "court_type": "dedicated"
  },
  {
    "county_slug": "monterey",
    "state": "CA",
    "verified": false,
    "name": "Wheeler Street Tennis Courts",
    "description": "Wheeler Street Tennis Courts is one of the most popular places to play pickleball in Seaside, CA. There are 4 outdoor hard courts. These are dedicated courts with permanent lines and nets. The courts are free.",
    "address": "1043 Highlander Dr",
    "city": "Seaside",
    "zip_code": "93955",
    "latitude": 36.598217,
    "longitude": -121.844696,
    "indoor": false,
    "num_courts": 4,
    "surface_type": "Hard",
    "fees": "Free",
    "phone": "(831) 899-6700",
    "website": "http://ci.seaside.ca.us/",
    "photo_url": "https://cdn.filestackcontent.com/7k5GTf5uRHi6PdKMciOO",
    "nets_provided": true,
    "skill_levels": "intermediate",
    "court_type": "dedicated"
  }
]