[
  {
    "county_slug": "napa",
    "state": "CA",
    "verified": false,
    "name": "Calistoga High School Tennis and Pickleball Courts",
    "description": "Come play pickleball at Calistoga High School Tennis and Pickleball Courts in Calistoga, CA! There are 4 outdoor hard courts. The lines are overlaid on a tennis court, so the net is a little taller than a normal pickleball net. The courts are free. Players have access to restrooms and lights.",
    "address": "1608 Lake St",
    "city": "Calistoga",
    "zip_code": "94515",
    "latitude": 38.583829,
    "longitude": -122.580717,
    "indoor": false,
    "lighted": true,
    "num_courts": 4,
    "surface_type": "Hard",
    "fees": "Free",
    "phone": "+17079422844",
    "website": "https://cjshs.calistogaschools.org/",
    "photo_url": "https://cdn.filestackcontent.com/KaSmHhR0ifDQF2qxrAS6",
    "has_restrooms": true,
    "skill_levels": "beginner,intermediate",
    "court_type": "dedicated"
  },
  {
    "county_slug": "napa",
    "state": "CA",
    "verified": false,
    "name": "Crane Park",
    "description": "Crane Park is one of the most popular places to play pickleball in St. Helena, CA. There are 4 outdoor acrylic courts. These are dedicated courts with permanent lines and nets. Reservations are not available. Amenities include restrooms, water, and lights. The courts are free.",
    "address": "300 S Crane Ave",
    "city": "St. Helena",
    "latitude": 38.49234,
    "longitude": -122.46481,
    "indoor": false,
    "lighted": true,
    "num_courts": 4,
    "surface_type": "Acrylic",
    "fees": "Free",
    "phone": "+17079689222",
    "website": "https://www.sthelena.com/listing/crane-park/",
    "photo_url": "https://cdn.filestackcontent.com/vWLytnB3QgmXGJyFZgPP",
    "has_restrooms": true,
    "has_water": true,
    "nets_provided": true,
    "skill_levels": "intermediate",
    "court_type": "dedicated"
  },
  {
    "county_slug": "napa",
    "state": "CA",
    "verified": false,
    "name": "Las Flores Community Center",
    "description": "Las Flores Community Center is one of the most popular places to play pickleball in Napa, CA. There are 4 outdoor asphalt courts. These are dedicated courts with permanent lines and nets. The courts are free. The facility includes amenities like restrooms.",
    "address": "4300 Linda Vista Ave",
    "city": "Napa",
    "zip_code": "94558",
    "latitude": 38.331244,
    "longitude": -122.327957,
    "indoor": false,
    "num_courts": 4,
    "surface_type": "Asphalt",
    "open_play_schedule": "Open play all day. 4 out/ 4 in when 7 or more paddles are in the saddle. Otherwise,  winners stay on and the next 2 players challenge.  Popular open time is 7am-11am then again 5pm until sunset. There are no court lights. No water fountain.  There is a portable toilet nearby. Free parking.",
    "fees": "Free",
    "phone": "7072549985",
    "website": "http://www.cityofnapa.org/parksandrec",
    "photo_url": "https://cdn.filestackcontent.com/Bgd6TAfYSLyMa5I22hbk",
    "has_restrooms": true,
    "nets_provided": true,
    "skill_levels": "beginner,intermediate",
    "court_type": "dedicated"
  },
  {
    "county_slug": "napa",
    "state": "CA",
    "verified": false,
    "name": "Napa Pickleball Club",
    "description": "Napa Pickleball Club is one of the most popular places to play pickleball in Napa, CA. There are 4 outdoor hard and wood courts. The lines are permanent, and portable nets are available. The courts are free. The facility includes amenities like lights and restrooms.",
    "address": "4300 Linda Vista Avenue",
    "city": "Napa",
    "latitude": 38.331279,
    "longitude": -122.327941,
    "indoor": false,
    "lighted": true,
    "num_courts": 4,
    "surface_type": "Hard, Wood",
    "fees": "Free",
    "website": "https://www.napavalleypickleball.com/",
    "photo_url": "https://cdn.filestackcontent.com/oAzNME0oReW5IY5vfmdt",
    "has_restrooms": true,
    "nets_provided": true,
    "skill_levels": "beginner,intermediate",
    "court_type": "dedicated"
  },
  {
    "county_slug": "napa",
    "state": "CA",
    "verified": false,
    "name": "Napa Valley Country Club",
    "description": "Napa Valley Country Club is a place to play pickleball in Napa, CA. There are 4 outdoor hard courts. These are dedicated courts with permanent lines and nets. Reservations are not available. A membership is required to play. Amenities include restrooms and water.",
    "address": "3385 Hagen Rd",
    "city": "Napa",
    "zip_code": "94558",
    "latitude": 38.31826,
    "longitude": -122.240945,
    "indoor": false,
    "num_courts": 4,
    "surface_type": "Hard",
    "fees": "Members only",
    "phone": "7072522299",
    "website": "http://www.napavalleycc.com/",
    "has_restrooms": true,
    "has_water": true,
    "nets_provided": true,
    "skill_levels": "intermediate",
    "court_type": "dedicated"
  },
  {
    "county_slug": "napa",
    "state": "CA",
    "verified": false,
    "name": "Napa Valley Tennis Association",
    "description": "Come play pickleball at Napa Valley Tennis Association in Napa, CA! There are 6 outdoor hard courts. The lines are overlaid on a tennis court, so the net is a little taller than a normal pickleball net. A membership is required to play. The facility includes amenities like restrooms and trainers or lessons. Reservations are available.",
    "address": "1375 Trower Ave",
    "city": "Napa",
    "latitude": 38.333287,
    "longitude": -122.304727,
    "indoor": false,
    "num_courts": 6,
    "surface_type": "Hard",
    "fees": "Members only",
    "phone": "+17072578316",
    "website": "https://www.napatennis.org/",
    "photo_url": "https://cdn.filestackcontent.com/pQAqqIJKR9OZiy4hROyE",
    "has_restrooms": true,
    "court_type": "dedicated",
    "has_parking": true
  },
  {
    "county_slug": "napa",
    "state": "CA",
    "verified": false,
    "name": "Silverado Country Club and Resort",
    "description": "Pickleball courts are open only to Silverado Resort guests and Silverado Country Club Members. The Resort has rental racquets available. Pickleball courts are open year-round during daylight hours, weather permitting. Court reservations can be booked 3 days in advance by calling 707-257-5555.",
    "address": "1600 Atlas Peak Rd",
    "city": "Napa",
    "zip_code": "94558",
    "latitude": 38.348684,
    "longitude": -122.264272,
    "indoor": false,
    "num_courts": 3,
    "surface_type": "Hard",
    "fees": "Private",
    "phone": "+17072575555",
    "website": "https://www.silveradoresort.com/?utm_source=pickleheads&utm_medium=website&utm_campaign=court-listing",
    "email": "info@silveradoresort.com",
    "photo_url": "https://cdn.filestackcontent.com/tPzZaQ6lT0W0H62URDIw",
    "has_restrooms": true,
    "has_water": true,
    "wheelchair_accessible": true,
    "nets_provided": true,
    "skill_levels": "intermediate",
    "court_type": "dedicated"
  },
  {
    "county_slug": "napa",
    "state": "CA",
    "verified": false,
    "name": "The Crush Pad",
    "description": "The Crush Pad is a place to play pickleball in Napa, CA. There are 2 outdoor concrete courts. The lines are permanent, and portable nets are available. A one-time fee is required to play. The facility includes amenities like food, restrooms, water, lights, and wheelchair accessibility. You can reserve the courts.",
    "address": "8305 St Helena Hwy",
    "city": "Napa",
    "latitude": 38.445925,
    "longitude": -122.415363,
    "indoor": false,
    "lighted": true,
    "num_courts": 2,
    "surface_type": "Concrete",
    "fees": "Fee required â€” Free Entry",
    "phone": "+17077549156",
    "website": "https://www.exploretock.com/onehopewine/event/557725/the-crush-pad-by-onehope",
    "email": "visit@onehopewine.com",
    "photo_url": "https://cdn.filestackcontent.com/kkeMqk3lRviJ4kn3tSBW",
    "has_restrooms": true,
    "has_water": true,
    "wheelchair_accessible": true,
    "nets_provided": true,
    "skill_levels": "beginner,intermediate",
    "court_type": "dedicated"
  },
  {
    "county_slug": "napa",
    "state": "CA",
    "verified": false,
    "name": "Yountville Community Center",
    "description": "Yountville Community Center is a place to play pickleball in Yountville, CA. There are 6 courts. 4 are outdoors and 2 are indoors. The lines are permanent, but you'll need to bring your own net. Amenities include restrooms, water, and lights. A one-time fee is required to play.",
    "address": "6516 Washington St",
    "city": "Yountville",
    "zip_code": "94599",
    "latitude": 38.401998,
    "longitude": -122.360466,
    "indoor": false,
    "lighted": true,
    "num_courts": 6,
    "fees": "Fee required",
    "phone": "7079448712",
    "website": "https://www.townofyountville.com/",
    "photo_url": "https://cdn.filestackcontent.com/gOji5WtT6CcBJIL7Ssmw",
    "has_restrooms": true,
    "has_water": true,
    "nets_provided": false,
    "skill_levels": "beginner",
    "court_type": "dedicated"
  },
  {
    "county_slug": "napa",
    "state": "CA",
    "verified": false,
    "name": "Yountville Vineyard Park",
    "description": "Yountville Vineyard Park is one of the most popular places to play pickleball in Yountville, CA. There are 4 outdoor courts. These are dedicated courts with permanent lines and nets. The facility includes amenities like restrooms. The courts are free.",
    "address": "1800 Oak Cir",
    "city": "Yountville",
    "zip_code": "94599",
    "latitude": 38.402548,
    "longitude": -122.353481,
    "indoor": false,
    "num_courts": 4,
    "fees": "Free",
    "website": "https://www.townofyountville.com/departments-services/parks-recreation/parks-and-facilities/park-trail-and-bocce-court-information",
    "photo_url": "https://cdn.filestackcontent.com/qaJtBGi9QSGGM23qTYP0",
    "has_restrooms": true,
    "nets_provided": true,
    "skill_levels": "intermediate",
    "court_type": "dedicated"
  }
]