[
  {
    "county_slug": "nevada",
    "state": "CA",
    "verified": false,
    "name": "Donner Trail Elementary",
    "description": "Come play pickleball at Donner Trail Elementary in Soda Springs, CA! You’ll have to create your own lines and bring your own net. A membership is required to play.",
    "address": "52680 Donner Pass Rd",
    "city": "Soda Springs",
    "zip_code": "95728",
    "latitude": 39.32539,
    "longitude": -120.409358,
    "indoor": false,
    "fees": "Members only",
    "photo_url": "https://cdn.filestackcontent.com/Xa8UOc18S4mCRvpkR2Og",
    "nets_provided": false,
    "skill_levels": "advanced",
    "court_type": "shared"
  },
  {
    "county_slug": "nevada",
    "state": "CA",
    "verified": false,
    "name": "Grass Valley Veterans Memorial Building Auditorium",
    "description": "Grass Valley Veterans Memorial Building Auditorium is a place to play pickleball in Grass Valley, CA. There are 3 indoor courts. The lines are permanent, but you'll need to bring your own net. Players have access to restrooms, water, and lights. A one-time fee is required to play.",
    "address": "255 S Auburn St",
    "city": "Grass Valley",
    "zip_code": "95945",
    "latitude": 39.214386,
    "longitude": -121.06058,
    "indoor": true,
    "lighted": true,
    "num_courts": 3,
    "fees": "Fee required",
    "phone": "530274838",
    "website": "https://www.mynevadacounty.com/830/Grass-Valley-Veterans-Memorial-Building",
    "photo_url": "https://cdn.filestackcontent.com/m51nn8SXRYyrMbPBDfr9",
    "has_restrooms": true,
    "has_water": true,
    "nets_provided": false,
    "skill_levels": "beginner,intermediate",
    "court_type": "dedicated",
    "has_parking": true
  },
  {
    "county_slug": "nevada",
    "state": "CA",
    "verified": false,
    "name": "Lake Wildwood South",
    "description": "Come play pickleball at Lake Wildwood South in Penn Valley, CA! There are 6 outdoor asphalt courts. The lines are permanent, but you'll need to bring your own net. The courts are private. The facility includes amenities like restrooms and lights.",
    "address": "14026 Strawberry Cir",
    "city": "Penn Valley",
    "zip_code": "95946",
    "latitude": 39.243077,
    "longitude": -121.20106,
    "indoor": false,
    "lighted": true,
    "num_courts": 6,
    "surface_type": "Asphalt",
    "fees": "Private",
    "phone": "5302059752",
    "website": "https://www.lwwa.org/lifestyle/recreation-and-community/tennis-and-pickleball",
    "photo_url": "https://cdn.filestackcontent.com/EVyGlaxSPWGVKT5NRNfJ",
    "has_restrooms": true,
    "nets_provided": false,
    "skill_levels": "advanced",
    "court_type": "dedicated"
  },
  {
    "county_slug": "nevada",
    "state": "CA",
    "verified": false,
    "name": "Memorial Park",
    "description": "Come play pickleball at Memorial Park in Grass Valley, CA! There are 6 outdoor hard and concrete courts. These are dedicated courts with permanent lines and nets. The courts are free. The facility includes amenities like lights, restrooms, water, and wheelchair accessibility.",
    "address": "415 Central Ave",
    "city": "Grass Valley",
    "zip_code": "95945",
    "latitude": 39.215684,
    "longitude": -121.055381,
    "indoor": false,
    "lighted": true,
    "num_courts": 6,
    "surface_type": "Hard, Concrete",
    "fees": "Free",
    "phone": "5305597766",
    "website": "https://www.grassvalleypickleballclub.org",
    "photo_url": "https://cdn.filestackcontent.com/Upxl5qTi6W0vNFzfcNwo",
    "has_restrooms": true,
    "has_water": true,
    "wheelchair_accessible": true,
    "nets_provided": true,
    "skill_levels": "beginner,intermediate",
    "court_type": "dedicated",
    "hours": "8 AM–12 PM"
  },
  {
    "county_slug": "nevada",
    "state": "CA",
    "verified": false,
    "name": "NEO Youth Center",
    "description": "NEO Youth Center is a place to play pickleball in Grass Valley, CA. There are 2 outdoor asphalt courts. These are dedicated courts with permanent lines and nets. Amenities include restrooms. A membership is required to play.",
    "address": "200 Litton Dr",
    "city": "Grass Valley",
    "latitude": 39.233629,
    "longitude": -121.05595,
    "indoor": false,
    "num_courts": 2,
    "surface_type": "Asphalt",
    "open_play_schedule": "SOON TO OPEN!",
    "fees": "Members only",
    "phone": "+15302654311",
    "website": "https://bffyouth.org/neo/",
    "photo_url": "https://cdn.filestackcontent.com/Rrbmk4u6RleQCl1boF38",
    "has_restrooms": true,
    "nets_provided": true,
    "skill_levels": "beginner,intermediate",
    "court_type": "dedicated"
  },
  {
    "county_slug": "nevada",
    "state": "CA",
    "verified": false,
    "name": "Riverview Sports Park",
    "description": "Coming soon!",
    "address": "12200 Joerger Dr",
    "city": "Truckee",
    "latitude": 39.327698,
    "longitude": -120.154002,
    "indoor": false,
    "surface_type": "Hard",
    "open_play_schedule": "Ready for play in July of 2023.",
    "fees": "Free",
    "phone": "+15305827720",
    "website": "http://www.tdrpd.org/riverview-sports-park",
    "photo_url": "https://cdn.filestackcontent.com/sTrmFYlyQkSm75Vl30Ly",
    "nets_provided": true,
    "skill_levels": "advanced,intermediate",
    "court_type": "dedicated"
  },
  {
    "county_slug": "nevada",
    "state": "CA",
    "verified": false,
    "name": "Sierra Academy of Expeditionary Learning",
    "description": "Sierra Academy of Expeditionary Learning is one of the most popular places to play pickleball in Nevada City, CA. There are 2 indoor asphalt courts. The lines are permanent, and portable nets are available. Amenities include restrooms. The courts are private.",
    "address": "505 Main St",
    "city": "Nevada City",
    "latitude": 39.265183,
    "longitude": -121.018906,
    "indoor": true,
    "num_courts": 2,
    "surface_type": "Asphalt",
    "fees": "Private",
    "phone": "+15302682200",
    "website": "https://www.sierraacademy.net/",
    "photo_url": "https://cdn.filestackcontent.com/G8jc0GKQTXyedifwl1rE",
    "has_restrooms": true,
    "nets_provided": true,
    "court_type": "dedicated"
  },
  {
    "county_slug": "nevada",
    "state": "CA",
    "verified": false,
    "name": "South Yuba Club",
    "description": "Nevada caddies premiere Pickleball location with 11 state of the Art courts swimming health club lessons open play. Come join our fun community.",
    "address": "130 W Berryhill Dr",
    "city": "Grass Valley",
    "zip_code": "95945",
    "latitude": 39.225207,
    "longitude": -121.056694,
    "indoor": false,
    "num_courts": 11,
    "surface_type": "Concrete",
    "open_play_schedule": "See playtime scheduler.com",
    "phone": "+15302727676",
    "website": "http://www.southyubaclub.com",
    "photo_url": "https://cdn.filestackcontent.com/mzUa0vNFQEmA05bHpllR",
    "has_restrooms": true,
    "has_water": true,
    "nets_provided": true,
    "skill_levels": "beginner,intermediate",
    "court_type": "dedicated",
    "hours": "7am-5pm"
  },
  {
    "county_slug": "nevada",
    "state": "CA",
    "verified": false,
    "name": "Tahoe Donner Tennis Center",
    "description": "2 dedicated courts and 8 combined line courts.",
    "address": "11509 Northwoods Blvd",
    "city": "Truckee",
    "zip_code": "96161",
    "latitude": 39.344592,
    "longitude": -120.215695,
    "indoor": false,
    "num_courts": 10,
    "surface_type": "Hard",
    "open_play_schedule": "Court reserve",
    "fees": "Fee required",
    "phone": "5305879474",
    "website": "http://www.tahoedonner.com/recreation/tennis/",
    "photo_url": "https://cdn.filestackcontent.com/2a4590fzQmKg9xOTHFQM",
    "has_restrooms": true,
    "has_water": true,
    "has_pro_shop": true,
    "nets_provided": true,
    "skill_levels": "advanced,beginner,intermediate",
    "court_type": "dedicated",
    "has_parking": true
  },
  {
    "county_slug": "nevada",
    "state": "CA",
    "verified": false,
    "name": "Truckee Donner Recreation and Park District",
    "description": "$6 drop in Tuesdays and Thursdays 10:30-2:30\nCheck Truckee Donner Recreation and Park District Web Page to get updated information",
    "address": "10981 Truckee Way",
    "city": "Truckee",
    "latitude": 39.339334,
    "longitude": -120.17218,
    "indoor": true,
    "num_courts": 4,
    "surface_type": "Hard",
    "open_play_schedule": "NO OPEN COURT TIMES",
    "fees": "Fee required — $8 fee for drop in and paddles and balls are included.",
    "phone": "5305827720",
    "website": "http://www.tdrpd.org/",
    "email": "info@tdrpd.org",
    "photo_url": "https://cdn.filestackcontent.com/fgL4Xcx4QXuaQNKRlGiw",
    "has_restrooms": true,
    "has_water": true,
    "nets_provided": true,
    "skill_levels": "intermediate",
    "court_type": "shared"
  },
  {
    "county_slug": "nevada",
    "state": "CA",
    "verified": false,
    "name": "Western Gateway Park",
    "description": "Western Gateway Park is a place to play pickleball in Penn Valley, CA. There are 10 outdoor asphalt courts. These are dedicated courts with permanent lines and nets. The courts are free. The facility includes amenities like trainers or lessons.",
    "address": "18560 Penn Valley Dr",
    "city": "Penn Valley",
    "zip_code": "95946",
    "latitude": 39.202858,
    "longitude": -121.191478,
    "indoor": false,
    "num_courts": 10,
    "surface_type": "Asphalt",
    "fees": "Free",
    "phone": "+15302059752",
    "website": "http://www.westerngatewaypark.com/",
    "photo_url": "https://cdn.filestackcontent.com/vca4K4STKvXCLZ5uzSoA",
    "nets_provided": true,
    "skill_levels": "beginner,intermediate",
    "court_type": "dedicated"
  }
]