[
  {
    "county_slug": "placer",
    "state": "CA",
    "verified": false,
    "name": "Auburn District Regional Park",
    "description": "Auburn District Regional Park is one of the most popular places to play pickleball in Auburn, CA. There are 6 outdoor hard courts. These are dedicated courts with permanent lines and nets. The courts are free. Players have access to restrooms and lights.",
    "address": "3770 Richardson Dr",
    "city": "Auburn",
    "zip_code": "95602",
    "latitude": 38.952376,
    "longitude": -121.106647,
    "indoor": false,
    "lighted": true,
    "num_courts": 6,
    "surface_type": "Hard",
    "fees": "Free",
    "phone": "5308858461",
    "website": "http://auburnrec.com/parks_regional.php",
    "photo_url": "https://cdn.filestackcontent.com/XkKkP3ugRfiG1XIoftDw",
    "has_restrooms": true,
    "nets_provided": true,
    "skill_levels": "beginner,intermediate",
    "court_type": "dedicated"
  },
  {
    "county_slug": "placer",
    "state": "CA",
    "verified": false,
    "name": "Auburn Racquet & Fitness Club",
    "description": "Come play pickleball at Auburn Racquet & Fitness Club in Auburn, CA! There are 4 outdoor concrete courts. These are dedicated courts with permanent lines and nets. A membership is required to play. Amenities include restrooms, water, lights, locker rooms, food, youth programming, a pro shop or equipment store, trainers or lessons, wheelchair accessibility, and adaptive programming.",
    "address": "1225 Racquet Club Dr",
    "city": "Auburn",
    "zip_code": "95603",
    "latitude": 38.930587,
    "longitude": -121.070575,
    "indoor": false,
    "lighted": true,
    "num_courts": 4,
    "surface_type": "Concrete",
    "fees": "Members only",
    "phone": "5308851602",
    "website": "http://www.ar-fc.com/",
    "email": "info@ar-fc.com",
    "photo_url": "https://cdn.filestackcontent.com/XONKFegiSwyBu9mqGN9s",
    "has_restrooms": true,
    "has_water": true,
    "has_pro_shop": true,
    "wheelchair_accessible": true,
    "nets_provided": true,
    "skill_levels": "beginner,intermediate",
    "court_type": "dedicated",
    "hours": "5 AM–9 PM"
  },
  {
    "county_slug": "placer",
    "state": "CA",
    "verified": false,
    "name": "Auburn Recreation Park",
    "description": "Scheduled play times",
    "address": "123 Recreation Dr",
    "city": "Auburn",
    "zip_code": "95603",
    "latitude": 38.889599,
    "longitude": -121.079912,
    "indoor": true,
    "lighted": true,
    "num_courts": 3,
    "surface_type": "Wood",
    "phone": "5308858461",
    "website": "http://www.auburnrec.com/parks_recreation.php",
    "photo_url": "https://cdn.filestackcontent.com/WknpSMPHRTyzhw5xE9ee",
    "has_restrooms": true,
    "nets_provided": true,
    "skill_levels": "beginner,intermediate",
    "court_type": "dedicated"
  },
  {
    "county_slug": "placer",
    "state": "CA",
    "verified": false,
    "name": "CaliBoud FlexCourt",
    "description": "CaliBoud FlexCourt is a place to play pickleball in Rocklin, CA. The lines are permanent, but you'll need to bring your own net. The courts are private.",
    "address": "5401 Coulter Ct",
    "city": "Rocklin",
    "zip_code": "95677",
    "latitude": 38.804603,
    "longitude": -121.199471,
    "indoor": false,
    "fees": "Private",
    "photo_url": "https://cdn.filestackcontent.com/2lIZm0kFRGuhTtQaVE5L",
    "nets_provided": false,
    "court_type": "dedicated"
  },
  {
    "county_slug": "placer",
    "state": "CA",
    "verified": false,
    "name": "Campus Oaks Park",
    "description": "Campus Oaks Park is one of the most popular places to play pickleball in Roseville, CA. There are 2 outdoor acrylic courts. These are dedicated courts with permanent lines and nets. The facility includes amenities like restrooms and lights. The courts are free.",
    "address": "580 Roseville Parkway",
    "city": "Roseville",
    "latitude": 38.787483,
    "longitude": -121.321624,
    "indoor": false,
    "lighted": true,
    "num_courts": 2,
    "surface_type": "Acrylic",
    "fees": "Free",
    "phone": "+19167727529",
    "website": "https://www.roseville.ca.us/government/departments/parks/parks_places/campus_oaks_park/",
    "photo_url": "https://cdn.filestackcontent.com/TaSkkwgIQHKX00Uacdyu",
    "has_restrooms": true,
    "nets_provided": true,
    "skill_levels": "beginner,intermediate",
    "court_type": "dedicated",
    "has_parking": true
  },
  {
    "county_slug": "placer",
    "state": "CA",
    "verified": false,
    "name": "Cresthaven Park",
    "description": "Cresthaven Park is one of the most popular places to play pickleball in Roseville, CA. There are 2 outdoor hard courts. These are dedicated courts with permanent lines and nets. The courts are free. Amenities include restrooms and water.",
    "address": "Community Dr",
    "city": "Roseville",
    "zip_code": "95678",
    "latitude": 38.727114,
    "longitude": -121.298098,
    "indoor": false,
    "num_courts": 2,
    "surface_type": "Hard",
    "fees": "Free",
    "website": "http://www.roseville.ca.us/",
    "photo_url": "https://cdn.filestackcontent.com/rlH69Io0TbC4m0U1pe0f",
    "has_restrooms": true,
    "has_water": true,
    "nets_provided": true,
    "skill_levels": "beginner,intermediate",
    "court_type": "dedicated",
    "has_parking": true
  },
  {
    "county_slug": "placer",
    "state": "CA",
    "verified": false,
    "name": "Electric Pickle",
    "description": "Electric Pickle is a place to play pickleball in Roseville, CA. There are 9 hard courts. 5 are outdoors and 4 are indoors. These are dedicated courts with permanent lines and nets. Players have access to lights, restrooms, and water.",
    "address": "290 Conference Center Drive",
    "city": "Roseville",
    "latitude": 38.777993,
    "longitude": -121.269956,
    "indoor": false,
    "lighted": true,
    "num_courts": 9,
    "surface_type": "Hard",
    "photo_url": "https://cdn.filestackcontent.com/bhSa6AhCQOW5GXL2dvnE",
    "has_restrooms": true,
    "has_water": true,
    "nets_provided": true,
    "skill_levels": "beginner",
    "court_type": "dedicated"
  },
  {
    "county_slug": "placer",
    "state": "CA",
    "verified": false,
    "name": "Gibson Park",
    "description": "Gibson Park is a place to play pickleball in Roseville, CA. There are 9 outdoor hard courts. These are dedicated courts with permanent lines and nets. The courts are free. Amenities include lights, restrooms, water, and wheelchair accessibility. Reservations are not available.",
    "address": "201 Gibson Dr",
    "city": "Roseville",
    "latitude": 38.775983,
    "longitude": -121.275079,
    "indoor": false,
    "lighted": true,
    "num_courts": 9,
    "surface_type": "Hard",
    "open_play_schedule": "Courts are first come first serve.",
    "fees": "Free",
    "website": "https://www.roseville.ca.us/government/departments/parks/parks_places/Park_Development",
    "photo_url": "https://cdn.filestackcontent.com/Zo9hmvO5S56KN169oN9v",
    "has_restrooms": true,
    "has_water": true,
    "wheelchair_accessible": true,
    "nets_provided": true,
    "skill_levels": "advanced,beginner,intermediate",
    "court_type": "dedicated"
  },
  {
    "county_slug": "placer",
    "state": "CA",
    "verified": false,
    "name": "Granlibakken Ski & Racquet Resort",
    "description": "Granlibakken Ski & Racquet Resort is a place to play pickleball in Tahoe City, CA. There are 8 outdoor courts. The lines are permanent, and portable nets are available. A one-time fee is required to play.",
    "address": "725 State Rte 89",
    "city": "Tahoe City",
    "zip_code": "96145",
    "latitude": 39.155269,
    "longitude": -120.146167,
    "indoor": false,
    "num_courts": 8,
    "fees": "Fee required",
    "phone": "8057588610",
    "website": "https://granlibakken.com/ski-board-sled-hill/",
    "photo_url": "https://cdn.filestackcontent.com/kOqtCKQz6qxhscW8EnjA",
    "nets_provided": true,
    "skill_levels": "beginner,intermediate",
    "court_type": "dedicated",
    "has_parking": true
  },
  {
    "county_slug": "placer",
    "state": "CA",
    "verified": false,
    "name": "Hallbilly Courts",
    "description": "Hallbilly Courts is a place to play pickleball in Auburn, CA. There are 2 outdoor concrete and acrylic courts. The lines are permanent, and portable nets are available. The facility includes amenities like lights. The courts are private.",
    "address": "2200 Fawn Hill Lane",
    "city": "Auburn",
    "latitude": 38.912708,
    "longitude": -121.143457,
    "indoor": false,
    "lighted": true,
    "num_courts": 2,
    "surface_type": "Concrete, Acrylic",
    "fees": "Private",
    "phone": "5303057274",
    "email": "Homes@kariehall.com",
    "photo_url": "https://cdn.filestackcontent.com/RxmzuBkoRTqoHu6NrXsA",
    "nets_provided": true,
    "skill_levels": "beginner,intermediate",
    "court_type": "dedicated"
  },
  {
    "county_slug": "placer",
    "state": "CA",
    "verified": false,
    "name": "Harry Crabb Park",
    "description": "Harry Crabb Park is one of the most popular places to play pickleball in Roseville, CA. There are 2 outdoor hard courts. These are dedicated courts with permanent lines and nets. Players have access to restrooms. The courts are free.",
    "address": "1000 Scarborough Dr",
    "city": "Roseville",
    "zip_code": "95661",
    "latitude": 38.768162,
    "longitude": -121.235026,
    "indoor": false,
    "num_courts": 2,
    "surface_type": "Hard",
    "fees": "Free",
    "phone": "9167745748",
    "website": "https://www.roseville.ca.us/government/departments/parks/parks_places/crabb_park",
    "photo_url": "https://cdn.filestackcontent.com/fEhyF7LSsmw9jhmhVimr",
    "has_restrooms": true,
    "nets_provided": true,
    "skill_levels": "beginner",
    "court_type": "dedicated",
    "has_parking": true
  },
  {
    "county_slug": "placer",
    "state": "CA",
    "verified": false,
    "name": "Heritage Solaire",
    "description": "Heritage Solaire is one of the most popular places to play pickleball in Roseville, CA. There are 3 outdoor hard courts. These are dedicated courts with permanent lines and nets. Amenities include restrooms and lights. The courts are private.",
    "address": "6140 Element Ln",
    "city": "Roseville",
    "zip_code": "95747",
    "latitude": 38.77356,
    "longitude": -121.392553,
    "indoor": false,
    "lighted": true,
    "num_courts": 3,
    "surface_type": "Hard",
    "fees": "Private",
    "website": "https://www.lennar.com/new-homes/california/sacramento/roseville/heritage-solaire",
    "photo_url": "https://cdn.filestackcontent.com/LYwPYaETJmJqcMk8xbDn",
    "has_restrooms": true,
    "nets_provided": true,
    "skill_levels": "intermediate",
    "court_type": "dedicated"
  },
  {
    "county_slug": "placer",
    "state": "CA",
    "verified": false,
    "name": "Johnson Ranch Sports Club",
    "description": "Come play pickleball at Johnson Ranch Sports Club in Roseville, CA! There are 24 outdoor hard courts. These are dedicated courts with permanent lines and nets. A membership is required to play. The facility includes amenities like food, locker rooms, restrooms, water, and lights.",
    "address": "2600 Eureka Rd",
    "city": "Roseville",
    "latitude": 38.735554,
    "longitude": -121.229481,
    "indoor": false,
    "lighted": true,
    "num_courts": 24,
    "surface_type": "Hard",
    "fees": "Members only",
    "phone": "+1 (916) 953-5553",
    "website": "https://sparetimesportsclubs.com",
    "photo_url": "https://cdn.filestackcontent.com/FDZpojp2RlGfoJOc2pmD",
    "has_restrooms": true,
    "has_water": true,
    "nets_provided": true,
    "skill_levels": "beginner,intermediate",
    "court_type": "dedicated"
  },
  {
    "county_slug": "placer",
    "state": "CA",
    "verified": false,
    "name": "Johnson Ranch Sports Club - North",
    "description": "Come play pickleball at Johnson Ranch Sports Club - North in Roseville, CA! There are 4 outdoor hard courts. These are dedicated courts with permanent lines and nets. Amenities include restrooms, water, and lights. The courts are private.",
    "address": "2501 Eureka Rd",
    "city": "Roseville",
    "zip_code": "95661",
    "latitude": 38.739235,
    "longitude": -121.235185,
    "indoor": false,
    "lighted": true,
    "num_courts": 4,
    "surface_type": "Hard",
    "fees": "Private",
    "phone": "(916) 782-2300",
    "email": "amys@sparetimesportsclubs.com",
    "photo_url": "https://cdn.filestackcontent.com/L7xkBzTxTaOLLLbT3BNA",
    "has_restrooms": true,
    "has_water": true,
    "nets_provided": true,
    "skill_levels": "advanced,intermediate",
    "court_type": "dedicated"
  },
  {
    "county_slug": "placer",
    "state": "CA",
    "verified": false,
    "name": "Johnson Ranch Sports Club -South",
    "description": "Come play pickleball at Johnson Ranch Sports Club -South in Roseville, CA! There are 24 outdoor concrete courts. These are dedicated courts with permanent lines and nets. The courts are private. Players have access to food, locker rooms, restrooms, water, lights, trainers or lessons, and wheelchair accessibility. You can reserve the courts.",
    "address": "2600 Eureka Road",
    "city": "Roseville",
    "latitude": 38.735554,
    "longitude": -121.229481,
    "indoor": false,
    "lighted": true,
    "num_courts": 24,
    "surface_type": "Concrete",
    "fees": "Private — $20 guest fee",
    "phone": "+19167822600",
    "photo_url": "https://cdn.filestackcontent.com/IqqwQ4LXQsCm1QOK5SOj",
    "has_restrooms": true,
    "has_water": true,
    "wheelchair_accessible": true,
    "nets_provided": true,
    "skill_levels": "advanced,beginner,intermediate",
    "court_type": "dedicated"
  },
  {
    "county_slug": "placer",
    "state": "CA",
    "verified": false,
    "name": "Johnson-springfield Park",
    "description": "Come play pickleball at Johnson-springfield Park in Rocklin, CA! There are 3 outdoor hard courts. The lines are overlaid on a tennis court, so the net is a little taller than a normal pickleball net. Amenities include restrooms, water, and lights. The courts are free.",
    "address": "5480 5th St",
    "city": "Rocklin",
    "zip_code": "95677",
    "latitude": 38.788804,
    "longitude": -121.245354,
    "indoor": false,
    "lighted": true,
    "num_courts": 3,
    "surface_type": "Hard",
    "fees": "Free",
    "phone": "9166255200",
    "website": "http://www.rocklin.ca.us/depts/parksnrec/parks/johnson_springview_park.asp",
    "photo_url": "https://cdn.filestackcontent.com/Z2dorw8xQxCQBINgpzz5",
    "has_restrooms": true,
    "has_water": true,
    "skill_levels": "beginner",
    "court_type": "dedicated",
    "has_parking": true
  },
  {
    "county_slug": "placer",
    "state": "CA",
    "verified": false,
    "name": "Kilner Park",
    "description": "4 courts are dedicated, 4 courts temporary.  Open play Monday, Wednesday and Friday.  Bring chair",
    "address": "410 Ward Ave",
    "city": "Tahoe City",
    "zip_code": "96145",
    "latitude": 39.134535,
    "longitude": -120.158135,
    "indoor": false,
    "num_courts": 8,
    "surface_type": "Asphalt",
    "open_play_schedule": "Outdoor courts usually close when snow arrives (usually in November) - Usually opens when snow melts (around May)",
    "fees": "Free",
    "phone": "7753500224",
    "website": "https://www.tcpud.org/parks-facilities/facilities-parks-and-rentals/parks/kilner-park",
    "email": "rideoutpb@yahoo.com",
    "photo_url": "https://cdn.filestackcontent.com/1Lw8q8wsTkSl92T0iD5a",
    "has_restrooms": true,
    "has_water": true,
    "nets_provided": true,
    "skill_levels": "advanced,intermediate",
    "court_type": "dedicated"
  },
  {
    "county_slug": "placer",
    "state": "CA",
    "verified": false,
    "name": "Lake of the Pines",
    "description": "Lake of the Pines is a place to play pickleball in Auburn, CA. There are 4 outdoor courts. The lines are permanent, but you'll need to bring your own net. The courts are private.",
    "address": "11665 Lake Shr N",
    "city": "Auburn",
    "zip_code": "95602",
    "latitude": 39.042829,
    "longitude": -121.060991,
    "indoor": false,
    "num_courts": 4,
    "fees": "Private",
    "phone": "5302681141",
    "website": "https://www.lop.org/",
    "photo_url": "https://cdn.filestackcontent.com/3uKmMlUfQSCLaJsDk6bO",
    "nets_provided": false,
    "skill_levels": "intermediate",
    "court_type": "dedicated",
    "hours": "Monday – Friday 9:00 a.m. – 12:00 p.m. 1:00 p.m. – 5:00 p.m. Copyright © Lake of the Pines. All rights reserved. Powered by Northstar Technologies Member Login"
  },
  {
    "county_slug": "placer",
    "state": "CA",
    "verified": false,
    "name": "Life Time - Roseville",
    "description": "Come play pickleball at Life Time - Roseville in Roseville, CA! There are 14 outdoor hard courts. These are dedicated courts with permanent lines and nets. Amenities include lights, restrooms, trainers or lessons, food, locker rooms, wheelchair accessibility, water, and a pro shop or equipment store. The courts can be reserved. A membership is required to play.",
    "address": "1435 East Roseville Parkway",
    "city": "Roseville",
    "latitude": 38.76136,
    "longitude": -121.24503,
    "indoor": false,
    "lighted": true,
    "num_courts": 14,
    "surface_type": "Hard",
    "fees": "Members only",
    "phone": "+19164722030",
    "website": "https://www.lifetime.life/",
    "photo_url": "https://cdn.filestackcontent.com/5lfwiNZUQL2phOv7wZDp",
    "has_restrooms": true,
    "has_water": true,
    "has_pro_shop": true,
    "wheelchair_accessible": true,
    "nets_provided": true,
    "skill_levels": "beginner,intermediate",
    "court_type": "dedicated"
  },
  {
    "county_slug": "placer",
    "state": "CA",
    "verified": false,
    "name": "McBean Park",
    "description": "McBean Park is one of the most popular places to play pickleball in Lincoln, CA. There are 6 outdoor courts. These are dedicated courts with permanent lines and nets. The courts are free. The courts can be reserved.",
    "address": "65 McBean Park Dr",
    "city": "Lincoln",
    "zip_code": "95648",
    "latitude": 38.890879,
    "longitude": -121.284988,
    "indoor": false,
    "num_courts": 6,
    "fees": "Free",
    "phone": "7072468564",
    "website": "https://www.lincolnca.gov/en/index.aspx",
    "photo_url": "https://cdn.filestackcontent.com/vksiGJjWRgWtgA0d30Ba",
    "nets_provided": true,
    "skill_levels": "beginner,intermediate",
    "court_type": "dedicated"
  },
  {
    "county_slug": "placer",
    "state": "CA",
    "verified": false,
    "name": "Meadow Vista Courts",
    "description": "Come play pickleball at Meadow Vista Courts in Meadow Vista, CA! There are 4 outdoor hard courts. These are dedicated courts with permanent lines and nets. Players have access to restrooms, wheelchair accessibility, and trainers or lessons. The courts are free.",
    "address": "1101 Meadow Vista Rd",
    "city": "Meadow Vista",
    "zip_code": "95722",
    "latitude": 38.994421,
    "longitude": -121.027005,
    "indoor": false,
    "num_courts": 4,
    "surface_type": "Hard",
    "fees": "Free",
    "phone": "5308858461",
    "website": "http://www.auburnrec.com/",
    "photo_url": "https://cdn.filestackcontent.com/gPqdIL0eSpG1SiFTQ1ea",
    "has_restrooms": true,
    "wheelchair_accessible": true,
    "nets_provided": true,
    "skill_levels": "advanced,beginner",
    "court_type": "dedicated"
  },
  {
    "county_slug": "placer",
    "state": "CA",
    "verified": false,
    "name": "North Tahoe Regional Park",
    "description": "North Tahoe Regional Park is one of the most popular places to play pickleball in Tahoe Vista, CA. There are 6 outdoor asphalt courts. These are dedicated courts with permanent lines and nets. A one-time fee is required to play. The courts cannot be reserved. Amenities include restrooms.",
    "address": "6600 Donner Rd",
    "city": "Tahoe Vista",
    "zip_code": "96148",
    "latitude": 39.250013,
    "longitude": -120.05274,
    "indoor": false,
    "num_courts": 6,
    "surface_type": "Asphalt",
    "fees": "Fee required — $5 to park a car, court use is free",
    "website": "http://www.parks.ca.gov/",
    "photo_url": "https://cdn.filestackcontent.com/868fQIfQMm3KfqSWtqwQ",
    "has_restrooms": true,
    "nets_provided": true,
    "skill_levels": "advanced,intermediate",
    "court_type": "dedicated"
  },
  {
    "county_slug": "placer",
    "state": "CA",
    "verified": false,
    "name": "Pauline & Richard Roccucci Park",
    "description": "Pauline & Richard Roccucci Park is one of the most popular places to play pickleball in Roseville, CA. There are 2 outdoor asphalt courts. These are dedicated courts with permanent lines and nets. The facility includes amenities like water. The courts are free.",
    "address": "2110 Symphony Ave",
    "city": "Roseville",
    "zip_code": "95747",
    "latitude": 38.777959,
    "longitude": -121.389553,
    "indoor": false,
    "num_courts": 2,
    "surface_type": "Asphalt",
    "fees": "Free",
    "photo_url": "https://cdn.filestackcontent.com/HXtzE3KQJyMFt4ZjAaAg",
    "has_water": true,
    "nets_provided": true,
    "skill_levels": "intermediate",
    "court_type": "dedicated"
  },
  {
    "county_slug": "placer",
    "state": "CA",
    "verified": false,
    "name": "Pickleball Kingdom Rocklin",
    "description": "COMING SOON!",
    "address": "Rocklin",
    "city": "Rocklin",
    "latitude": 38.790734,
    "longitude": -121.235783,
    "indoor": false,
    "open_play_schedule": "COMING SOON!",
    "website": "https://pickleballkingdom.com/rocklin-ca/",
    "photo_url": "https://cdn.filestackcontent.com/K7VgHh3SHaF0OJb7NEMw",
    "skill_levels": "intermediate"
  },
  {
    "county_slug": "placer",
    "state": "CA",
    "verified": false,
    "name": "Pickleball Kingdom Roseville",
    "description": "COMING SOON!",
    "address": "Roseville",
    "city": "Roseville",
    "latitude": 38.748261,
    "longitude": -121.283219,
    "indoor": false,
    "open_play_schedule": "COMING SOON!",
    "website": "https://pickleballkingdom.com/roseville-ca/",
    "photo_url": "https://cdn.filestackcontent.com/6rOdkUfdQcSQ9mZ8ZS0z",
    "skill_levels": "beginner,intermediate",
    "has_pro_shop": true,
    "has_ball_machine": true
  },
  {
    "county_slug": "placer",
    "state": "CA",
    "verified": false,
    "name": "Pine Hills Adventist Academy",
    "description": "Pine Hills Adventist Academy is one of the most popular places to play pickleball in Auburn, CA. There are 4 outdoor concrete courts. The lines are permanent, but you'll need to bring your own net. The courts are private.",
    "address": "13500 Richards Ln",
    "city": "Auburn",
    "zip_code": "95603",
    "latitude": 38.941973,
    "longitude": -121.063555,
    "indoor": false,
    "num_courts": 4,
    "surface_type": "Concrete",
    "fees": "Private",
    "phone": "5308308156",
    "website": "http://www.phaaonline.com/",
    "photo_url": "https://cdn.filestackcontent.com/23OCZfNOR5qnxxpjfPqJ",
    "nets_provided": false,
    "court_type": "dedicated"
  },
  {
    "county_slug": "placer",
    "state": "CA",
    "verified": false,
    "name": "School Park Preserve",
    "description": "Come play pickleball at School Park Preserve in Auburn, CA! There are 3 outdoor concrete and hard courts. These are dedicated courts with permanent lines and nets. The courts are free. Players have access to wheelchair accessibility and lights.",
    "address": "60-68 College Way",
    "city": "Auburn",
    "latitude": 38.896463,
    "longitude": -121.074999,
    "indoor": false,
    "lighted": true,
    "num_courts": 3,
    "surface_type": "Concrete, Hard",
    "fees": "Free",
    "photo_url": "https://cdn.filestackcontent.com/KdHgAAMgRRmPwWs1KpHm",
    "wheelchair_accessible": true,
    "nets_provided": true,
    "skill_levels": "beginner,intermediate",
    "court_type": "dedicated"
  },
  {
    "county_slug": "placer",
    "state": "CA",
    "verified": false,
    "name": "Springfield At Whitney Oaks",
    "description": "Come play pickleball at Springfield At Whitney Oaks in Rocklin, CA! There are 6 outdoor courts. The lines are permanent, and portable nets are available. The courts are private. Players have access to lights.",
    "address": "2801 Springfield Dr",
    "city": "Rocklin",
    "zip_code": "95765",
    "latitude": 38.817154,
    "longitude": -121.24088,
    "indoor": false,
    "lighted": true,
    "num_courts": 6,
    "fees": "Private",
    "phone": "9166304330",
    "website": "https://www.springfieldhoa.com/home/",
    "photo_url": "https://cdn.filestackcontent.com/1sXpRogTFSTEAceLlCNw",
    "nets_provided": true,
    "skill_levels": "beginner",
    "court_type": "dedicated"
  },
  {
    "county_slug": "placer",
    "state": "CA",
    "verified": false,
    "name": "Squaw Valley Community Pickleball Courts",
    "description": "Come play pickleball at Squaw Valley Community Pickleball Courts in Rampart, CA! There are 3 outdoor hard courts. These are dedicated courts with permanent lines and nets. The courts are free. Players have access to restrooms.",
    "address": "101 Olympic Vly Rd",
    "city": "Rampart",
    "latitude": 39.204103,
    "longitude": -120.203705,
    "indoor": false,
    "num_courts": 3,
    "surface_type": "Hard",
    "fees": "Free",
    "phone": "5303205367",
    "has_restrooms": true,
    "nets_provided": true,
    "skill_levels": "beginner,intermediate",
    "court_type": "dedicated"
  },
  {
    "county_slug": "placer",
    "state": "CA",
    "verified": false,
    "name": "Sun City Lincoln Hills H.O.A.",
    "description": "Sun City Lincoln Hills H.O.A. is a place to play pickleball in Lincoln, CA. There are 13 outdoor hard courts. These are dedicated courts with permanent lines and nets. Amenities include lights, restrooms, and water. The courts are private. You can reserve the courts.",
    "address": "1050 Del Webb Blvd",
    "city": "Lincoln",
    "latitude": 38.870215,
    "longitude": -121.283364,
    "indoor": false,
    "lighted": true,
    "num_courts": 13,
    "surface_type": "Hard",
    "fees": "Private — For residents only",
    "phone": "9166254000",
    "website": "https://lhpbclub.com/",
    "photo_url": "https://cdn.filestackcontent.com/0q6ZcIeSTEWLLd498eMH",
    "has_restrooms": true,
    "has_water": true,
    "nets_provided": true,
    "skill_levels": "advanced,beginner,intermediate",
    "court_type": "dedicated"
  },
  {
    "county_slug": "placer",
    "state": "CA",
    "verified": false,
    "name": "Sun City Roseville",
    "description": "Sun City Roseville is a place to play pickleball in Roseville, CA. There are 4 outdoor hard courts. These are dedicated courts with permanent lines and nets. Players have access to restrooms, water, and lights. The courts are private.",
    "address": "7050 Del Webb Blvd",
    "city": "Roseville",
    "zip_code": "95747",
    "latitude": 38.777405,
    "longitude": -121.347614,
    "indoor": false,
    "lighted": true,
    "num_courts": 4,
    "surface_type": "Hard",
    "fees": "Private",
    "phone": "9167743850",
    "website": "http://www.suncityroseville.org/",
    "photo_url": "https://cdn.filestackcontent.com/ZvSCGVEQwOpJfGJtlB3y",
    "has_restrooms": true,
    "has_water": true,
    "nets_provided": true,
    "skill_levels": "intermediate",
    "court_type": "dedicated"
  },
  {
    "county_slug": "placer",
    "state": "CA",
    "verified": false,
    "name": "Twin Oaks Park",
    "description": "Twin Oaks Park is a place to play pickleball in Rocklin, CA. There are 3 outdoor hard courts. The lines are overlaid on a tennis court, so the net is a little taller than a normal pickleball net. The courts are free.",
    "address": "2820 Theona Way",
    "city": "Rocklin",
    "latitude": 38.812226,
    "longitude": -121.259208,
    "indoor": false,
    "num_courts": 3,
    "surface_type": "Hard",
    "fees": "Free",
    "phone": "+19166255000",
    "website": "https://www.rocklin.ca.us/location/twin-oaks-park",
    "photo_url": "https://cdn.filestackcontent.com/xLpBIL1RuOwSCHrboKXn",
    "skill_levels": "beginner",
    "court_type": "dedicated",
    "has_parking": true,
    "has_restrooms": true
  },
  {
    "county_slug": "placer",
    "state": "CA",
    "verified": false,
    "name": "VillaSport Athletic Club and Spa",
    "description": "Come play pickleball at VillaSport Athletic Club and Spa in Roseville, CA! There are 4 indoor courts. The lines are permanent, but you'll need to bring your own net. Players have access to restrooms and lights. A one-time fee is required to play.",
    "address": "291 Conference Center Dr",
    "city": "Roseville",
    "zip_code": "95678",
    "latitude": 38.778552,
    "longitude": -121.27237,
    "indoor": true,
    "lighted": true,
    "num_courts": 4,
    "fees": "Fee required",
    "phone": "9168317070",
    "website": "https://www.villasport.com/roseville",
    "photo_url": "https://cdn.filestackcontent.com/xYpws5gqQTWlDyUEHpF0",
    "has_restrooms": true,
    "nets_provided": false,
    "skill_levels": "beginner",
    "court_type": "dedicated"
  },
  {
    "county_slug": "placer",
    "state": "CA",
    "verified": false,
    "name": "Woodbridge Park",
    "description": "Woodbridge Park is a place to play pickleball in Roseville, CA. There are 2 outdoor courts. The lines are overlaid on a tennis court, so the net is a little taller than a normal pickleball net. Players have access to restrooms, water, and lights. The courts are free.",
    "address": "415 Sierra Blvd",
    "city": "Roseville",
    "zip_code": "95678",
    "latitude": 38.75773,
    "longitude": -121.28052,
    "indoor": false,
    "lighted": true,
    "num_courts": 2,
    "fees": "Free",
    "phone": "9167727529",
    "website": "http://www.roseville.ca.us/",
    "photo_url": "https://cdn.filestackcontent.com/R3wqVyLKT5WCFL9N2GWv",
    "has_restrooms": true,
    "has_water": true,
    "skill_levels": "beginner",
    "court_type": "dedicated",
    "has_parking": true
  }
]