[
  {
    "county_slug": "riverside",
    "state": "CA",
    "verified": false,
    "name": "Albert A Chatigny Community Center",
    "description": "Albert A Chatigny Community Center is a place to play pickleball in United States, California. There are 5 hard courts. 1 is outdoors and 4 are indoors. These are dedicated courts with permanent lines and nets. The facility includes amenities like restrooms. The courts are free.",
    "address": "Oak Valley Pkwy",
    "city": "United States",
    "zip_code": "92223",
    "latitude": 33.947188,
    "longitude": -116.965351,
    "indoor": false,
    "num_courts": 5,
    "surface_type": "Hard",
    "fees": "Free",
    "phone": "+19517698524",
    "website": "http://beaumontca.gov/",
    "photo_url": "https://cdn.filestackcontent.com/L8cqfHouSdu3Wm9uBNbY",
    "has_restrooms": true,
    "nets_provided": true,
    "skill_levels": "beginner,intermediate",
    "court_type": "dedicated"
  },
  {
    "county_slug": "riverside",
    "state": "CA",
    "verified": false,
    "name": "Aldergate Dog Park",
    "description": "Aldergate Dog Park is a place to play pickleball in Menifee, CA. There are 2 outdoor concrete and hard courts. These are dedicated courts with permanent lines and nets. The courts are free. Players have access to restrooms and water.",
    "address": "28680 Aldergate Dr",
    "city": "Menifee",
    "latitude": 33.698481,
    "longitude": -117.156496,
    "indoor": false,
    "num_courts": 2,
    "surface_type": "Concrete, Hard",
    "open_play_schedule": "There is a lock on the gate and a number to Valley Wide that isn't always manned. Players have reported trouble getting a hold of anyone to unlock the courts.",
    "fees": "Free",
    "phone": "7149281748",
    "website": "https://www.gorecreation.org/aldergate-park",
    "photo_url": "https://cdn.filestackcontent.com/PiERHUg3TcWEqPeTNnSe",
    "has_restrooms": true,
    "has_water": true,
    "nets_provided": true,
    "skill_levels": "beginner,intermediate",
    "court_type": "dedicated"
  },
  {
    "county_slug": "riverside",
    "state": "CA",
    "verified": false,
    "name": "Alderwood Park",
    "description": "Come play pickleball at Alderwood Park in Murrieta, CA! There are 2 outdoor concrete courts. These are dedicated courts with permanent lines and nets. Amenities include restrooms and water. The courts are free. Reservations are available.",
    "address": "28796 Baxter Rd",
    "city": "Murrieta",
    "zip_code": "92563",
    "latitude": 33.612033,
    "longitude": -117.159324,
    "indoor": false,
    "num_courts": 2,
    "surface_type": "Concrete",
    "fees": "Free",
    "phone": "9514001402",
    "photo_url": "https://cdn.filestackcontent.com/YkDNBr9QRXyqk182i4la",
    "has_restrooms": true,
    "has_water": true,
    "nets_provided": true,
    "skill_levels": "intermediate",
    "court_type": "dedicated"
  },
  {
    "county_slug": "riverside",
    "state": "CA",
    "verified": false,
    "name": "Altis by Tri Pointe Homes",
    "description": "Altis by Tri Pointe Homes is a place to play pickleball in Beaumont, CA. There are 5 outdoor hard courts. These are dedicated courts with permanent lines and nets. The courts are private. Players have access to restrooms and water.",
    "address": "1545 Skystone Way",
    "city": "Beaumont",
    "zip_code": "92223",
    "latitude": 33.950429,
    "longitude": -116.951358,
    "indoor": false,
    "num_courts": 5,
    "surface_type": "Hard",
    "fees": "Private",
    "phone": "9513244658",
    "website": "https://www.tripointehomes.com/ca/riverside-county/altis/",
    "photo_url": "https://cdn.filestackcontent.com/uXJ4nnR6SIuud0cKLTl6",
    "has_restrooms": true,
    "has_water": true,
    "nets_provided": true,
    "skill_levels": "beginner,intermediate",
    "court_type": "dedicated",
    "hours": "Sunday 10AM - 5PM"
  },
  {
    "county_slug": "riverside",
    "state": "CA",
    "verified": false,
    "name": "Anderson Senior Center",
    "description": "Senior program",
    "address": "828 S Mesa St",
    "city": "United States",
    "latitude": 33.736317,
    "longitude": -118.285459,
    "indoor": false,
    "lighted": true,
    "num_courts": 2,
    "surface_type": "Wood, Asphalt",
    "open_play_schedule": "Call the park for class information \n(310) 548-7596",
    "fees": "Fee required — Annual $10 fee to become a member of the center. \nClasses are $10 for 12 classes",
    "phone": "(310) 548-7596",
    "website": "https://www.laparks.org/scc/anderson-memorial",
    "photo_url": "https://cdn.filestackcontent.com/VE6cmgolSre9MymjNrrS",
    "has_restrooms": true,
    "has_water": true,
    "wheelchair_accessible": true,
    "nets_provided": true,
    "skill_levels": "beginner,intermediate",
    "court_type": "shared"
  },
  {
    "county_slug": "riverside",
    "state": "CA",
    "verified": false,
    "name": "Ann & Steven Hinchliffe San Pedro & Peninsula YMCA",
    "description": "3 indoor courts shared with basketball \n1 outdoor court",
    "address": "301 S Bandini St",
    "city": "United States",
    "latitude": 33.741141,
    "longitude": -118.299739,
    "indoor": false,
    "num_courts": 4,
    "surface_type": "Wood, Asphalt",
    "open_play_schedule": "Open 6 days a week",
    "fees": "Members only — You must be a member of the YMCA. Courts are free",
    "phone": "3108324211",
    "website": "https://www.ymcala.org/locations/ann-steve-hinchliffe-san-pedro-peninsula-ymca",
    "photo_url": "https://cdn.filestackcontent.com/0JFd8KlQTCkVVmH9uQpF",
    "has_restrooms": true,
    "has_water": true,
    "wheelchair_accessible": true,
    "nets_provided": true,
    "skill_levels": "beginner,intermediate",
    "court_type": "dedicated"
  },
  {
    "county_slug": "riverside",
    "state": "CA",
    "verified": false,
    "name": "Arlington Park",
    "description": "Come play pickleball at Arlington Park in Riverside, CA! There are 9 outdoor courts. These are dedicated courts with permanent lines and nets. The courts are free. The facility includes amenities like restrooms and lights.",
    "address": "3860 Van Buren Blvd",
    "city": "Riverside",
    "zip_code": "92503",
    "latitude": 33.921347,
    "longitude": -117.447669,
    "indoor": false,
    "lighted": true,
    "num_courts": 9,
    "fees": "Free",
    "phone": "9519770505",
    "website": "https://www.bryoticworlds.com/post/arlington-park-riverside",
    "email": "Jake.bmamba@gmail.com",
    "photo_url": "https://cdn.filestackcontent.com/dXfyN8RRe2vTHqtvEevV",
    "has_restrooms": true,
    "nets_provided": true,
    "skill_levels": "beginner",
    "court_type": "dedicated"
  },
  {
    "county_slug": "riverside",
    "state": "CA",
    "verified": false,
    "name": "Arlington Pickleball Complex",
    "description": "Arlington Pickleball Complex is a place to play pickleball in Riverside, CA. There are 9 outdoor concrete courts. These are dedicated courts with permanent lines and nets. Amenities include restrooms and lights. The courts are free.",
    "address": "3860 Van Buren Boulevard",
    "city": "Riverside",
    "latitude": 33.921079,
    "longitude": -117.44855,
    "indoor": false,
    "lighted": true,
    "num_courts": 9,
    "surface_type": "Concrete",
    "fees": "Free",
    "phone": "+19518262000",
    "photo_url": "https://cdn.filestackcontent.com/ort9hqZkSJywJmPy8Oj2",
    "has_restrooms": true,
    "nets_provided": true,
    "skill_levels": "beginner,intermediate",
    "court_type": "dedicated"
  },
  {
    "county_slug": "riverside",
    "state": "CA",
    "verified": false,
    "name": "Banning Community Center",
    "description": "Banning Community Center is a place to play pickleball in Banning, CA. There are 3 indoor concrete courts. The lines are permanent, but you'll need to bring your own net. Players have access to restrooms and water. The courts are free.",
    "address": "789 N San Gorgonio Ave",
    "city": "Banning",
    "zip_code": "92220",
    "latitude": 33.932499,
    "longitude": -116.876888,
    "indoor": true,
    "num_courts": 3,
    "surface_type": "Concrete",
    "fees": "Free",
    "phone": "9519223242",
    "website": "http://www.ci.banning.ca.us/55/Community-Services",
    "photo_url": "https://cdn.filestackcontent.com/XQm1EAs1SayeaCRBm8e5",
    "has_restrooms": true,
    "has_water": true,
    "nets_provided": false,
    "skill_levels": "advanced,intermediate",
    "court_type": "dedicated"
  },
  {
    "county_slug": "riverside",
    "state": "CA",
    "verified": false,
    "name": "Bell Mountain Middle School",
    "description": "Come play pickleball at Bell Mountain Middle School in Menifee, CA! There are 2 indoor courts. The lines are permanent, but you'll need to bring your own net. The courts are private.",
    "address": "28525 La Piedra Rd",
    "city": "Menifee",
    "zip_code": "92584",
    "latitude": 33.676108,
    "longitude": -117.162933,
    "indoor": true,
    "num_courts": 2,
    "fees": "Private",
    "website": "http://www.menifeeusd.org/bmms/Schools",
    "photo_url": "https://cdn.filestackcontent.com/SjgsSPHnS4OaG2l8v11g",
    "nets_provided": false,
    "court_type": "dedicated"
  },
  {
    "county_slug": "riverside",
    "state": "CA",
    "verified": false,
    "name": "BIGHORN Golf Club",
    "description": "BIGHORN Golf Club is a place to play pickleball in Palm Desert, CA. There are 4 outdoor hard courts. These are dedicated courts with permanent lines and nets. A membership is required to play. Players have access to lights, a pro shop or equipment store, trainers or lessons, water, restrooms, locker rooms, and food.",
    "address": "255 Palowet Dr",
    "city": "Palm Desert",
    "latitude": 33.678342,
    "longitude": -116.408632,
    "indoor": false,
    "lighted": true,
    "num_courts": 4,
    "surface_type": "Hard",
    "fees": "Members only",
    "phone": "(760) 341-4653",
    "website": "http://bighorngolf.com/",
    "photo_url": "https://cdn.filestackcontent.com/48NVmTdtSp2ME9APZylN",
    "has_restrooms": true,
    "has_water": true,
    "has_pro_shop": true,
    "nets_provided": true,
    "skill_levels": "beginner,intermediate",
    "court_type": "dedicated",
    "hours": "Daily 9 am – 5 pm Tel: (760) 773-5300 Fax: (760) 779-1983 BIGHORN Clubhouse 255 Palowet Drive Palm Desert, CA 92260 Press Room Amenity Report Card Privacy Policy Contact Us Careers"
  },
  {
    "county_slug": "riverside",
    "state": "CA",
    "verified": false,
    "name": "Border Park",
    "description": "Border Park is one of the most popular places to play pickleball in Corona, CA. There are 10 outdoor hard courts. These are dedicated courts with permanent lines and nets. The courts are free. The facility includes amenities like restrooms.",
    "address": "2400 Border Ave",
    "city": "Corona",
    "zip_code": "92882",
    "latitude": 33.857908,
    "longitude": -117.604998,
    "indoor": false,
    "num_courts": 10,
    "surface_type": "Hard",
    "fees": "Free",
    "phone": "+19517362241",
    "website": "http://www.coronadwp.com/parkmaint/parks/border.html",
    "photo_url": "https://cdn.filestackcontent.com/RsIdq4TpQJx1nqWUxKtg",
    "has_restrooms": true,
    "nets_provided": true,
    "skill_levels": "beginner,intermediate",
    "court_type": "dedicated"
  },
  {
    "county_slug": "riverside",
    "state": "CA",
    "verified": false,
    "name": "Bryant Park",
    "description": "Bryant Park is one of the most popular places to play pickleball in Riverside, CA. There are 4 outdoor hard courts. The lines are permanent, and portable nets are available. Amenities include restrooms. The courts are free.",
    "address": "7950 Philbin Ave",
    "city": "Riverside",
    "latitude": 33.938479,
    "longitude": -117.459745,
    "indoor": false,
    "num_courts": 4,
    "surface_type": "Hard",
    "fees": "Free",
    "phone": "(951) 351-6135",
    "website": "https://www.riversideca.gov/park_rec/facilities-parks/indoor-facilities/community-centers",
    "email": "arlanzacc@riversideca.gov",
    "photo_url": "https://cdn.filestackcontent.com/AjN3AdbEQ4W24O9M3r5q",
    "has_restrooms": true,
    "nets_provided": true,
    "skill_levels": "beginner,intermediate",
    "court_type": "dedicated",
    "hours": "9am - 5pm"
  },
  {
    "county_slug": "riverside",
    "state": "CA",
    "verified": false,
    "name": "B Street Station Park",
    "description": "Fun folks here. Great play. Courts are a little tight together. No lights.",
    "address": "41755 Juniper St",
    "city": "Murrieta",
    "latitude": 33.556299,
    "longitude": -117.21178,
    "indoor": false,
    "num_courts": 2,
    "surface_type": "Concrete",
    "open_play_schedule": "Open play all day. \nCourt 1 can be reversed, so ask the players.",
    "fees": "Free",
    "phone": "+19513047275",
    "website": "https://www.murrietaca.gov/",
    "nets_provided": true,
    "skill_levels": "intermediate",
    "court_type": "dedicated"
  },
  {
    "county_slug": "riverside",
    "state": "CA",
    "verified": false,
    "name": "California Military Institute High School",
    "description": "Come play pickleball at California Military Institute High School in Perris, CA! There are 4 indoor asphalt courts. The lines are permanent, but you'll need to bring your own net. The courts are private. Amenities include lights.",
    "address": "755 N A St",
    "city": "Perris",
    "zip_code": "92570",
    "latitude": 33.791953,
    "longitude": -117.233898,
    "indoor": true,
    "lighted": true,
    "num_courts": 4,
    "surface_type": "Asphalt",
    "fees": "Private",
    "phone": "(951) 443-2731",
    "website": "http://www.cmicharter.org/",
    "photo_url": "https://cdn.filestackcontent.com/F2L0L3M6Rfeje6us4H0q",
    "nets_provided": false,
    "court_type": "dedicated"
  },
  {
    "county_slug": "riverside",
    "state": "CA",
    "verified": false,
    "name": "Canyon Lake Eastport Park",
    "description": "Come play pickleball at Canyon Lake Eastport Park in Canyon Lake, CA! There are 6 outdoor hard courts. These are dedicated courts with permanent lines and nets. A membership is required to play. Players have access to restrooms.",
    "address": "24331 Canyon Lake Dr N",
    "city": "Canyon Lake",
    "zip_code": "92587",
    "latitude": 33.68124,
    "longitude": -117.236613,
    "indoor": false,
    "num_courts": 6,
    "surface_type": "Hard",
    "fees": "Members only",
    "phone": "9512444850",
    "website": "https://www.canyonlakepoa.com/pickleball",
    "photo_url": "https://cdn.filestackcontent.com/VBEjONCgTFK4RDDTYQ9A",
    "has_restrooms": true,
    "nets_provided": true,
    "skill_levels": "advanced,beginner,intermediate",
    "court_type": "dedicated",
    "has_parking": true
  },
  {
    "county_slug": "riverside",
    "state": "CA",
    "verified": false,
    "name": "Canyon Lake Tennis Center",
    "description": "Come play pickleball at Canyon Lake Tennis Center in Canyon Lake, CA! There are 6 outdoor hard courts. These are dedicated courts with permanent lines and nets. The facility includes amenities like restrooms, water, and lights. The courts are private.",
    "address": "22210 Canyon Club Dr",
    "city": "Canyon Lake",
    "zip_code": "92587",
    "latitude": 33.684585,
    "longitude": -117.268497,
    "indoor": false,
    "lighted": true,
    "num_courts": 6,
    "surface_type": "Hard",
    "fees": "Private",
    "phone": "9512447911",
    "website": "https://playtennisnearme.com/canyon-lake-tennis-club/",
    "photo_url": "https://cdn.filestackcontent.com/W39Jk2uTnahey2AceKzx",
    "has_restrooms": true,
    "has_water": true,
    "nets_provided": true,
    "court_type": "dedicated"
  },
  {
    "county_slug": "riverside",
    "state": "CA",
    "verified": false,
    "name": "Catalina Spa & RV Resort",
    "description": "Catalina Spa & RV Resort is a place to play pickleball in Desert Hot Springs, CA. There are 6 outdoor hard courts. These are dedicated courts with permanent lines and nets. The courts are private.",
    "address": "Corkill Rd 9224195618",
    "city": "Desert Hot Springs",
    "zip_code": "92241",
    "latitude": 33.919334,
    "longitude": -116.44046,
    "indoor": false,
    "num_courts": 6,
    "surface_type": "Hard",
    "fees": "Private",
    "phone": "7603294431",
    "website": "https://www.catalinasparvresort.com/",
    "photo_url": "https://cdn.filestackcontent.com/ZpZZuZu2RISUBizbBhTZ",
    "nets_provided": true,
    "court_type": "dedicated"
  },
  {
    "county_slug": "riverside",
    "state": "CA",
    "verified": false,
    "name": "Chaparral High School",
    "description": "Chaparral High School is a place to play pickleball in Temecula, CA. There are 8 outdoor hard courts. You’ll have to create your own lines and bring your own net. The courts are private.",
    "address": "27215 Nicolas Rd",
    "city": "Temecula",
    "zip_code": "92591",
    "latitude": 33.537153,
    "longitude": -117.147912,
    "indoor": false,
    "num_courts": 8,
    "surface_type": "Hard",
    "fees": "Private",
    "phone": "9512659731",
    "website": "http://chs.tvusd.k12.ca.us/",
    "photo_url": "https://cdn.filestackcontent.com/fiDvRPHnQoSQQ44w2PjT",
    "nets_provided": false,
    "court_type": "shared"
  },
  {
    "county_slug": "riverside",
    "state": "CA",
    "verified": false,
    "name": "Circle City Center",
    "description": "Circle City Center is one of the most popular places to play pickleball in Corona, CA. There are 3 indoor hard courts. Tape lines have been laid, and portable nets are available. Amenities include restrooms, water, lights, wheelchair accessibility, and adaptive programming. A one-time fee is required to play. You can reserve the courts.",
    "address": "365 North Main Street",
    "city": "Corona",
    "latitude": 33.884507,
    "longitude": -117.564539,
    "indoor": true,
    "lighted": true,
    "num_courts": 3,
    "surface_type": "Hard",
    "fees": "Fee required — $3/person each day. Must check in and register at the Front Desk",
    "phone": "+19517362241",
    "website": "https://WWW.CORONACA.GOV/REGISTRATION",
    "email": "Recsvcs@coronaca.gov",
    "photo_url": "https://cdn.filestackcontent.com/HX0Yq3OCQvW5BDqGuaDm",
    "has_restrooms": true,
    "has_water": true,
    "wheelchair_accessible": true,
    "nets_provided": true,
    "skill_levels": "beginner,intermediate",
    "court_type": "shared",
    "hours": "Thursday 7 AM - 6 PM"
  },
  {
    "county_slug": "riverside",
    "state": "CA",
    "verified": false,
    "name": "City of Palm Desert Cahuilla Hills Park",
    "description": "City of Palm Desert Cahuilla Hills Park is a place to play pickleball in Palm Desert, CA. There are 2 outdoor hard courts. The lines are overlaid on a tennis court, so the net is a little taller than a normal pickleball net. The courts are free. The facility includes amenities like restrooms, water, and lights.",
    "address": "45825 Edgehill Dr",
    "city": "Palm Desert",
    "latitude": 33.713955,
    "longitude": -116.400438,
    "indoor": false,
    "lighted": true,
    "num_courts": 2,
    "surface_type": "Hard",
    "fees": "Free",
    "phone": "(760) 776-6481",
    "website": "https://www.cityofpalmdesert.org/departments/parks-recreation",
    "photo_url": "https://cdn.filestackcontent.com/qIlzZJzdSJOTkhhI01qu",
    "has_restrooms": true,
    "has_water": true,
    "skill_levels": "beginner,intermediate",
    "court_type": "dedicated"
  },
  {
    "county_slug": "riverside",
    "state": "CA",
    "verified": false,
    "name": "City of Palm Desert Freedom Park",
    "description": "Reopened 12/4/2023 with fresh resurfacing.",
    "address": "77400 Country Club Dr",
    "city": "Palm Desert",
    "zip_code": "92211",
    "latitude": 33.758425,
    "longitude": -116.315781,
    "indoor": false,
    "lighted": true,
    "num_courts": 8,
    "surface_type": "Asphalt",
    "fees": "Free",
    "phone": "(760) 776-6481",
    "website": "https://www.cityofpalmdesert.org/departments/parks-recreation",
    "photo_url": "https://cdn.filestackcontent.com/dvI8hzQTkS6iwNfn8mTB",
    "has_restrooms": true,
    "has_water": true,
    "nets_provided": true,
    "skill_levels": "advanced,intermediate",
    "court_type": "dedicated"
  },
  {
    "county_slug": "riverside",
    "state": "CA",
    "verified": false,
    "name": "Connestoga park",
    "description": "Connestoga park is one of the most popular places to play pickleball in Winchester, CA. There are 2 outdoor concrete courts. These are dedicated courts with permanent lines and nets. The courts are free. Amenities include restrooms and water.",
    "address": "Rice Rd",
    "city": "Winchester",
    "zip_code": "92596",
    "latitude": 33.709007,
    "longitude": -117.093732,
    "indoor": false,
    "num_courts": 2,
    "surface_type": "Concrete",
    "fees": "Free",
    "phone": "7149056403",
    "website": "https://www.gorecreation.org/conestoga-park-29d5c75",
    "photo_url": "https://cdn.filestackcontent.com/zSlw3s3zREOgdWhoPqeS",
    "has_restrooms": true,
    "has_water": true,
    "nets_provided": true,
    "skill_levels": "beginner,intermediate",
    "court_type": "dedicated"
  },
  {
    "county_slug": "riverside",
    "state": "CA",
    "verified": false,
    "name": "Creekside Park",
    "description": "Come play pickleball at Creekside Park in Lake Elsinore, CA! There are 4 outdoor concrete courts. These are dedicated courts with permanent lines and nets. The courts are free. Amenities include restrooms, water, and lights.",
    "address": "Baywood Street",
    "city": "Lake Elsinore",
    "latitude": 33.661423,
    "longitude": -117.257346,
    "indoor": false,
    "lighted": true,
    "num_courts": 4,
    "surface_type": "Concrete",
    "fees": "Free",
    "photo_url": "https://cdn.filestackcontent.com/D8k9iRXuvNCBsvh0blQc",
    "has_restrooms": true,
    "has_water": true,
    "nets_provided": true,
    "skill_levels": "advanced,beginner,intermediate",
    "court_type": "dedicated"
  },
  {
    "county_slug": "riverside",
    "state": "CA",
    "verified": false,
    "name": "Creekside Park, Calimesa",
    "description": "Come play pickleball at Creekside Park, Calimesa in Calimesa, CA! There are 2 outdoor concrete courts. The lines are permanent, but you'll need to bring your own net. The facility includes amenities like water. The courts are free.",
    "address": "950 7th Pl",
    "city": "Calimesa",
    "latitude": 34.001562,
    "longitude": -117.066632,
    "indoor": false,
    "num_courts": 2,
    "surface_type": "Concrete",
    "open_play_schedule": "The courts are open from Dawn until Dusk",
    "fees": "Free",
    "photo_url": "https://cdn.filestackcontent.com/uoenglSNOmLJndYrwEeQ",
    "has_water": true,
    "nets_provided": false,
    "skill_levels": "beginner,intermediate",
    "court_type": "dedicated"
  },
  {
    "county_slug": "riverside",
    "state": "CA",
    "verified": false,
    "name": "CV for Pickleheads",
    "description": "Come play pickleball at CV for Pickleheads in United States, California! There are 2 outdoor hard courts. These are dedicated courts with permanent lines and nets. The courts are private.",
    "address": "Santa Teresa Blvd",
    "city": "United States",
    "latitude": 37.234194,
    "longitude": -121.789279,
    "indoor": false,
    "num_courts": 2,
    "surface_type": "Hard",
    "fees": "Private",
    "phone": "+14087187643",
    "email": "kabert@garlic.com",
    "photo_url": "https://cdn.filestackcontent.com/BNYiENIQWZtdwlgWsAUQ",
    "nets_provided": true,
    "court_type": "dedicated"
  },
  {
    "county_slug": "riverside",
    "state": "CA",
    "verified": false,
    "name": "Deep Canyon Tennis Club",
    "description": "Deep Canyon Tennis Club is a place to play pickleball in Palm Desert, CA. There are 6 outdoor hard courts. These are dedicated courts with permanent lines and nets. The facility includes amenities like restrooms and water. A membership is required to play.",
    "address": "73120 Frank Feltrop Drive",
    "city": "Palm Desert",
    "latitude": 33.705622,
    "longitude": -116.389869,
    "indoor": false,
    "num_courts": 6,
    "surface_type": "Hard",
    "fees": "Members only",
    "phone": "(760) 568-6822",
    "website": "http://www.deepcanyontennisclub.org/",
    "photo_url": "https://cdn.filestackcontent.com/WT7BI2YAQyK4TOfMGNbH",
    "has_restrooms": true,
    "has_water": true,
    "nets_provided": true,
    "skill_levels": "intermediate",
    "court_type": "dedicated"
  },
  {
    "county_slug": "riverside",
    "state": "CA",
    "verified": false,
    "name": "Del Webb at Rancho Mirage",
    "description": "These are private PB courts available only to the DelWebb Rancho Mirage Residents and their guests.",
    "address": "120 Claret",
    "city": "Rancho Mirage",
    "zip_code": "92270",
    "latitude": 33.806121,
    "longitude": -116.417553,
    "indoor": false,
    "lighted": true,
    "num_courts": 8,
    "surface_type": "Hard",
    "fees": "Members only",
    "phone": "(760) 537-1953",
    "photo_url": "https://cdn.filestackcontent.com/dtl7PpbQYeaAJFudRTA6",
    "has_water": true,
    "nets_provided": true,
    "skill_levels": "advanced,intermediate",
    "court_type": "dedicated"
  },
  {
    "county_slug": "riverside",
    "state": "CA",
    "verified": false,
    "name": "Desert Aire Rv Resort",
    "description": "Desert Aire Rv Resort is one of the most popular places to play pickleball in Indio, CA. There are 3 outdoor hard courts. The lines are permanent, and portable nets are available. The facility includes amenities like restrooms. The courts are private. The courts cannot be reserved.",
    "address": "81620 Ave 49",
    "city": "Indio",
    "zip_code": "92201",
    "latitude": 33.69335,
    "longitude": -116.242266,
    "indoor": false,
    "num_courts": 3,
    "surface_type": "Hard",
    "fees": "Private",
    "phone": "7607755858",
    "website": "http://desertaireresort.com/",
    "photo_url": "https://cdn.filestackcontent.com/TIVA9eOuQeyHDDcSLaQy",
    "has_restrooms": true,
    "nets_provided": true,
    "skill_levels": "intermediate",
    "court_type": "dedicated"
  },
  {
    "county_slug": "riverside",
    "state": "CA",
    "verified": false,
    "name": "Desert Falls Country Club",
    "description": "Desert Falls Country Club is one of the most popular places to play pickleball in Palm Desert, CA. There are 8 outdoor hard courts. These are dedicated courts with permanent lines and nets. A membership is required to play. Players have access to restrooms, water, and lights.",
    "address": "1111 Desert Falls Pkwy",
    "city": "Palm Desert",
    "zip_code": "92211",
    "latitude": 33.761455,
    "longitude": -116.350032,
    "indoor": false,
    "lighted": true,
    "num_courts": 8,
    "surface_type": "Hard",
    "fees": "Members only",
    "phone": "7603404653",
    "website": "http://www.desertfallscountryclub.com/",
    "email": "Atennisnut44@gmail.com",
    "photo_url": "https://cdn.filestackcontent.com/nyH0QTXsRwqyNJkS7s2t",
    "has_restrooms": true,
    "has_water": true,
    "nets_provided": true,
    "skill_levels": "beginner,intermediate",
    "court_type": "dedicated"
  },
  {
    "county_slug": "riverside",
    "state": "CA",
    "verified": false,
    "name": "Desert Highland Unity Center",
    "description": "Desert Highland Unity Center is one of the most popular places to play pickleball in Palm Springs, CA. There are 2 indoor hard courts. The lines are permanent, but you'll need to bring your own net. A one-time fee is required to play. Players have access to restrooms, water, and lights.",
    "address": "480 W Tramview Rd",
    "city": "Palm Springs",
    "zip_code": "92262",
    "latitude": 33.866906,
    "longitude": -116.552669,
    "indoor": true,
    "lighted": true,
    "num_courts": 2,
    "surface_type": "Hard",
    "open_play_schedule": "Monday - Friday  9 a.m. - 1 p.m.",
    "fees": "Fee required — $5 Resident/ Non-Resident $95",
    "phone": "7603238271",
    "website": "https://www.palmspringsca.gov/government/departments/parks-recreation/james-o-jessie-desert-highland-unity-center",
    "photo_url": "https://cdn.filestackcontent.com/47QpTENiSr2zkv7MPDWd",
    "has_restrooms": true,
    "has_water": true,
    "nets_provided": false,
    "skill_levels": "beginner,intermediate",
    "court_type": "dedicated"
  },
  {
    "county_slug": "riverside",
    "state": "CA",
    "verified": false,
    "name": "Desert Pools Rv Resort",
    "description": "Desert Pools Rv Resort is one of the most popular places to play pickleball in Desert Hot Springs, CA. There are 2 outdoor hard courts. These are dedicated courts with permanent lines and nets. The facility includes amenities like restrooms. The courts are private.",
    "address": "70405 Dillon Rd",
    "city": "Desert Hot Springs",
    "zip_code": "92241",
    "latitude": 33.924565,
    "longitude": -116.433468,
    "indoor": false,
    "num_courts": 2,
    "surface_type": "Hard",
    "fees": "Private",
    "phone": "3109684120",
    "website": "https://koa.com/campgrounds/palm-springs/",
    "photo_url": "https://cdn.filestackcontent.com/JphJSdHwRBuOU3egV8qM",
    "has_restrooms": true,
    "nets_provided": true,
    "court_type": "dedicated"
  },
  {
    "county_slug": "riverside",
    "state": "CA",
    "verified": false,
    "name": "Desert Princess Country Club",
    "description": "Desert Princess Country Club is one of the most popular places to play pickleball in Cathedral City, CA. There are 10 outdoor hard courts. These are dedicated courts with permanent lines and nets. Players have access to restrooms. A one-time fee is required to play.",
    "address": "28555 Landau Blvd",
    "city": "Cathedral City",
    "zip_code": "92234",
    "latitude": 33.841953,
    "longitude": -116.474294,
    "indoor": false,
    "num_courts": 10,
    "surface_type": "Hard",
    "fees": "Fee required — Private Pickleball Lessons $50/hr,  Pickleball Clinics $15/hr",
    "phone": "7603272053",
    "website": "http://www.desertprincesscc.com/",
    "photo_url": "https://cdn.filestackcontent.com/2GDWNASLR8u0WZR63btY",
    "has_restrooms": true,
    "nets_provided": true,
    "skill_levels": "beginner,intermediate",
    "court_type": "dedicated"
  },
  {
    "county_slug": "riverside",
    "state": "CA",
    "verified": false,
    "name": "Diamond Valley Lake Community Park",
    "description": "Come play pickleball at Diamond Valley Lake Community Park in Menifee, CA! There are 4 outdoor hard courts. These are dedicated courts with permanent lines and nets. The courts are free. You can’t reserve the courts.",
    "address": "1801 Angler Ave",
    "city": "Menifee",
    "latitude": 33.70637,
    "longitude": -116.98415,
    "indoor": false,
    "num_courts": 4,
    "surface_type": "Hard",
    "fees": "Free",
    "phone": "9517669058",
    "website": "http://www.rivercrestapts.com/",
    "photo_url": "https://cdn.filestackcontent.com/6McmS5iUQ5makSOcJpRC",
    "nets_provided": true,
    "skill_levels": "beginner,intermediate",
    "court_type": "dedicated"
  },
  {
    "county_slug": "riverside",
    "state": "CA",
    "verified": false,
    "name": "Eagle Glen Pickleball Club",
    "description": "Come play pickleball at Eagle Glen Pickleball Club in Corona, CA! There are 17 outdoor hard courts. These are dedicated courts with permanent lines and nets. The courts can be reserved. Amenities include lights, a pro shop or equipment store, food, restrooms, water, youth programming, wheelchair accessibility, and trainers or lessons.",
    "address": "1800 Eagle Glen Pkwy STE: PICKLE",
    "city": "Corona",
    "latitude": 33.806505,
    "longitude": -117.534619,
    "indoor": false,
    "lighted": true,
    "num_courts": 17,
    "surface_type": "Hard",
    "phone": "+19518775420",
    "website": "https://eagleglengc.com/pickleball-corona-ca/",
    "email": "egopperator@gmail.com",
    "photo_url": "https://cdn.filestackcontent.com/XGTOS0SQClI4NdlaMTGA",
    "has_restrooms": true,
    "has_water": true,
    "has_pro_shop": true,
    "wheelchair_accessible": true,
    "nets_provided": true,
    "court_type": "dedicated"
  },
  {
    "county_slug": "riverside",
    "state": "CA",
    "verified": false,
    "name": "Eastvale Community Center",
    "description": "Eastvale Community Center is a place to play pickleball in Eastvale, CA. There are 3 indoor wood courts. The lines are permanent, and portable nets are available. A membership is required to play. The facility includes amenities like lights, restrooms, and water.",
    "address": "13820 Schleisman Rd",
    "city": "Eastvale",
    "zip_code": "92880",
    "latitude": 33.959934,
    "longitude": -117.583869,
    "indoor": true,
    "lighted": true,
    "num_courts": 3,
    "surface_type": "Wood",
    "open_play_schedule": "Pickleball is part of the open gym rotation. The current open gym schedule can be found here: https://www.jcsd.us/parksandrecreation/parksfacilities/opengymnasium/",
    "fees": "Members only — $10 annual fee for Eastvale residents. $35 annual fee for non-Eastvale residents.",
    "phone": "(951) 727-3524",
    "website": "https://www.jcsd.us/services/parks-and-recreation/parks-and-recreation-facilities/facility-reservations",
    "photo_url": "https://cdn.filestackcontent.com/NnDNHry5RxKDfWW3nr3O",
    "has_restrooms": true,
    "has_water": true,
    "nets_provided": true,
    "skill_levels": "intermediate",
    "court_type": "dedicated"
  },
  {
    "county_slug": "riverside",
    "state": "CA",
    "verified": false,
    "name": "Emerald Desert Rv Park",
    "description": "Come play pickleball at Emerald Desert Rv Park in Palm Desert, CA! There are 8 outdoor hard courts. These are dedicated courts with permanent lines and nets. Players have access to restrooms, lights, trainers or lessons, and water. The courts are private.",
    "address": "76000 Frank Sinatra Drive",
    "city": "Palm Desert",
    "latitude": 33.77384,
    "longitude": -116.339357,
    "indoor": false,
    "lighted": true,
    "num_courts": 8,
    "surface_type": "Hard",
    "fees": "Private",
    "phone": "+17604065240",
    "website": "http://www.emeralddesert.com/",
    "email": "godwin.mena@sunlandrvresorts.com",
    "photo_url": "https://cdn.filestackcontent.com/qVbW7A08T56pKSHBRgiI",
    "has_restrooms": true,
    "has_water": true,
    "nets_provided": true,
    "skill_levels": "intermediate",
    "court_type": "dedicated"
  },
  {
    "county_slug": "riverside",
    "state": "CA",
    "verified": false,
    "name": "Four Seasons At Beaumont",
    "description": "Four Seasons At Beaumont is one of the most popular places to play pickleball in Beaumont, CA. There are 8 outdoor concrete courts. These are dedicated courts with permanent lines and nets. Amenities include lights. A membership is required to play.",
    "address": "1518 4 Seasons Cir",
    "city": "Beaumont",
    "zip_code": "92223",
    "latitude": 33.915801,
    "longitude": -116.954043,
    "indoor": false,
    "lighted": true,
    "num_courts": 8,
    "surface_type": "Concrete",
    "fees": "Members only",
    "phone": "9518452906",
    "website": "https://www.fourseasonsbeaumont.org/default.php",
    "photo_url": "https://cdn.filestackcontent.com/I09b7KmqShq8GRr71KLh",
    "nets_provided": true,
    "skill_levels": "advanced,beginner,intermediate",
    "court_type": "dedicated"
  },
  {
    "county_slug": "riverside",
    "state": "CA",
    "verified": false,
    "name": "Fritz Burns Park",
    "description": "Come play pickleball at Fritz Burns Park in La Quinta, CA! There are 16 outdoor concrete courts. These are dedicated courts with permanent lines and nets. The courts are free. Amenities include restrooms, water, and lights.",
    "address": "78100 Francis Hack Ln",
    "city": "La Quinta",
    "latitude": 33.671033,
    "longitude": -116.30218,
    "indoor": false,
    "lighted": true,
    "num_courts": 16,
    "surface_type": "Concrete",
    "fees": "Free",
    "phone": "8587753666",
    "website": "http://playinlaquinta.com/",
    "photo_url": "https://cdn.filestackcontent.com/KrFb5NaYTGiGgY2qOspQ",
    "has_restrooms": true,
    "has_water": true,
    "nets_provided": true,
    "skill_levels": "advanced,beginner,intermediate",
    "court_type": "dedicated"
  },
  {
    "county_slug": "riverside",
    "state": "CA",
    "verified": false,
    "name": "Fruitvale Elementary",
    "description": "Fruitvale Elementary is a place to play pickleball in Hemet, CA. There are 2 indoor asphalt courts. The lines are permanent, but you'll need to bring your own net. The courts are private.",
    "address": "2800 Fruitvale Ave",
    "city": "Hemet",
    "zip_code": "92545",
    "latitude": 33.762056,
    "longitude": -117.000865,
    "indoor": true,
    "num_courts": 2,
    "surface_type": "Asphalt",
    "fees": "Private",
    "phone": "9517651680",
    "website": "https://fruitvale.hemetusd.org/",
    "photo_url": "https://cdn.filestackcontent.com/OaFqxD29TfOdWidFGsXq",
    "nets_provided": false,
    "court_type": "dedicated"
  },
  {
    "county_slug": "riverside",
    "state": "CA",
    "verified": false,
    "name": "Geneve-on-the-Lake Park",
    "description": "Come play pickleball at Geneve-on-the-Lake Park in Temescal Valley, CA! There are 2 outdoor hard courts. The lines are overlaid on a tennis court, so the net is a little taller than a normal pickleball net. You can’t reserve the courts. The courts are free.",
    "address": "5536 Lake Rd",
    "city": "Temescal Valley",
    "latitude": 41.859849,
    "longitude": -117.473999,
    "indoor": false,
    "num_courts": 2,
    "surface_type": "Hard",
    "fees": "Free",
    "phone": "216-409-2882",
    "website": "https://www.visitgenevaonthelake.com/",
    "photo_url": "https://cdn.filestackcontent.com/WhLSJqLdQ3CbPAuAJunJ",
    "court_type": "dedicated"
  },
  {
    "county_slug": "riverside",
    "state": "CA",
    "verified": false,
    "name": "George S Patton Park",
    "description": "George S Patton Park is a place to play pickleball in Indio, CA. There are 4 outdoor concrete courts. These are dedicated courts with permanent lines and nets. The courts are free. The facility includes amenities like lights.",
    "address": "83700 Avenue 43",
    "city": "Indio",
    "latitude": 33.737414,
    "longitude": -116.204355,
    "indoor": false,
    "lighted": true,
    "num_courts": 4,
    "surface_type": "Concrete",
    "fees": "Free",
    "phone": "+17603914000",
    "website": "https://www.indio.org/",
    "photo_url": "https://cdn.filestackcontent.com/M8aF3zTWRPKh7ljigolS",
    "nets_provided": true,
    "skill_levels": "advanced,intermediate",
    "court_type": "dedicated"
  },
  {
    "county_slug": "riverside",
    "state": "CA",
    "verified": false,
    "name": "Gibbel Park",
    "description": "Right next to skate park. No shade, no seating.",
    "address": "2350 West Latham Avenue",
    "city": "Hemet",
    "latitude": 33.749447,
    "longitude": -116.999068,
    "indoor": false,
    "lighted": true,
    "num_courts": 4,
    "surface_type": "Hard, Concrete",
    "fees": "Free",
    "website": "https://www.facebook.com/groups/1155985262226655/?ref=share",
    "photo_url": "https://cdn.filestackcontent.com/TKKNBLZATymBagGBZqY2",
    "nets_provided": true,
    "skill_levels": "beginner,intermediate",
    "court_type": "dedicated"
  },
  {
    "county_slug": "riverside",
    "state": "CA",
    "verified": false,
    "name": "Glen Eden Sun Club",
    "description": "Come play pickleball at Glen Eden Sun Club in Corona, CA! There are 3 outdoor hard courts. These are dedicated courts with permanent lines and nets. A membership is required to play. Amenities include restrooms, water, and lights.",
    "address": "25999 Glen Eden Rd",
    "city": "Corona",
    "zip_code": "92883",
    "latitude": 33.738597,
    "longitude": -117.448446,
    "indoor": false,
    "lighted": true,
    "num_courts": 3,
    "surface_type": "Hard",
    "fees": "Members only",
    "phone": "9512774650",
    "website": "http://www.gleneden.com/",
    "photo_url": "https://cdn.filestackcontent.com/mIFUmnTITDW9MfnbSVAE",
    "has_restrooms": true,
    "has_water": true,
    "nets_provided": true,
    "skill_levels": "advanced,beginner,intermediate",
    "court_type": "dedicated",
    "hours": "9 AM- 2 PM"
  },
  {
    "county_slug": "riverside",
    "state": "CA",
    "verified": false,
    "name": "Golden Village Palms Rv Resort",
    "description": "Golden Village Palms Rv Resort is a place to play pickleball in Hemet, CA. There are 10 outdoor courts. These are dedicated courts with permanent lines and nets. The courts are private.",
    "address": "3600 W Florida Ave",
    "city": "Hemet",
    "zip_code": "92545",
    "latitude": 33.750272,
    "longitude": -117.011647,
    "indoor": false,
    "num_courts": 10,
    "fees": "Private — $10 “parking” fee",
    "phone": "9519254123",
    "website": "https://www.goldenvillagepalms.com/?utm_source=google%20my%20business&utm_medium=listing&utm_campaign=visit%20website",
    "photo_url": "https://cdn.filestackcontent.com/msTXNBkTnuj6KC2sGQKK",
    "nets_provided": true,
    "skill_levels": "intermediate",
    "court_type": "dedicated"
  },
  {
    "county_slug": "riverside",
    "state": "CA",
    "verified": false,
    "name": "Heritage Lakes Sport Park",
    "description": "Heritage Lakes Sport Park is a place to play pickleball in Menifee, CA. There are 2 outdoor concrete courts. These are dedicated courts with permanent lines and nets. Players have access to restrooms, wheelchair accessibility, and lights. The courts are free.",
    "address": "29201 Heritage Lake Dr",
    "city": "Menifee",
    "zip_code": "92585",
    "latitude": 33.724227,
    "longitude": -117.144373,
    "indoor": false,
    "lighted": true,
    "num_courts": 2,
    "surface_type": "Concrete",
    "fees": "Free",
    "phone": "9516754244",
    "website": "https://www.gorecreation.org/heritage-lake-sports-park",
    "email": "jbars2136@gmail.com",
    "photo_url": "https://cdn.filestackcontent.com/S5Q1N4wCQ2MO3h9fXbVA",
    "has_restrooms": true,
    "wheelchair_accessible": true,
    "nets_provided": true,
    "skill_levels": "beginner,intermediate",
    "court_type": "dedicated"
  },
  {
    "county_slug": "riverside",
    "state": "CA",
    "verified": false,
    "name": "Husted Park",
    "description": "Husted Park is one of the most popular places to play pickleball in Corona, CA. There are 2 outdoor concrete courts. These are dedicated courts with permanent lines and nets. Players have access to lights and restrooms. The courts are free.",
    "address": "1200 S Merrill St",
    "city": "Corona",
    "latitude": 33.870154,
    "longitude": -117.572548,
    "indoor": false,
    "lighted": true,
    "num_courts": 2,
    "surface_type": "Concrete",
    "fees": "Free",
    "phone": "+19517362241",
    "website": "https://www.coronaca.gov/Home/Components/FacilityDirectory/FacilityDirectory/97/580",
    "photo_url": "https://cdn.filestackcontent.com/TFeXbFhxSQCykF1Qlg14",
    "has_restrooms": true,
    "nets_provided": true,
    "skill_levels": "beginner,intermediate",
    "court_type": "dedicated",
    "hours": "Thursday 7 AM - 6 PM"
  },
  {
    "county_slug": "riverside",
    "state": "CA",
    "verified": false,
    "name": "Hyatt Regency Indian Wells",
    "description": "Hyatt Regency Indian Wells is one of the most popular places to play pickleball in Indian Wells, CA. There are 4 outdoor hard courts. The lines are permanent, but you'll need to bring your own net. The courts can be reserved. Players have access to lights and restrooms. A one-time fee is required to play.",
    "address": "44600 Indian Wells Lane",
    "city": "Indian Wells",
    "latitude": 33.722973,
    "longitude": -116.331401,
    "indoor": false,
    "lighted": true,
    "num_courts": 4,
    "surface_type": "Hard",
    "fees": "Fee required",
    "phone": "(760) 776-1234",
    "website": "https://www.hyatt.com/en-US/hotel/california/hyatt-regency-indian-wells-resort-and-spa/",
    "photo_url": "https://cdn.filestackcontent.com/dJcvrpFdTKOFYcfF7IUk",
    "has_restrooms": true,
    "nets_provided": false,
    "skill_levels": "advanced,intermediate",
    "court_type": "dedicated"
  },
  {
    "county_slug": "riverside",
    "state": "CA",
    "verified": false,
    "name": "Idyllwild Pickle Ball",
    "description": "Come play pickleball at Idyllwild Pickle Ball in Idyllwild-Pine Cove, CA! There are 2 outdoor hard courts. These are dedicated courts with permanent lines and nets. The courts are free.",
    "address": "26375 California 243",
    "city": "Idyllwild-Pine Cove",
    "latitude": 33.740772,
    "longitude": -116.720914,
    "indoor": false,
    "num_courts": 2,
    "surface_type": "Hard",
    "fees": "Free",
    "photo_url": "https://cdn.filestackcontent.com/PDPYEgvjSke1kxVXPrzl",
    "nets_provided": true,
    "skill_levels": "beginner,intermediate",
    "court_type": "dedicated"
  },
  {
    "county_slug": "riverside",
    "state": "CA",
    "verified": false,
    "name": "iPickle Riverside",
    "description": "iPickle Riverside is a place to play pickleball in Riverside, CA. There are 4 outdoor concrete courts. These are dedicated courts with permanent lines and nets. You can reserve the courts. Players have access to food, restrooms, water, lights, a pro shop or equipment store, and trainers or lessons. A one-time fee is required to play.",
    "address": "5051 Chicago Ave",
    "city": "Riverside",
    "latitude": 33.958117,
    "longitude": -117.34943,
    "indoor": false,
    "lighted": true,
    "num_courts": 4,
    "surface_type": "Concrete",
    "fees": "Fee required — Memberships available for $60 per individual and $80 per family",
    "phone": "+19516830667",
    "website": "https://ipickle.com",
    "email": "riverside@ipickle.com",
    "photo_url": "https://cdn.filestackcontent.com/4cV0cTb0R3u9F03uKAaa",
    "has_restrooms": true,
    "has_water": true,
    "has_pro_shop": true,
    "nets_provided": true,
    "skill_levels": "beginner,intermediate",
    "court_type": "dedicated"
  },
  {
    "county_slug": "riverside",
    "state": "CA",
    "verified": false,
    "name": "Ironwood Country Club",
    "description": "Prettiest courts in the entire Coachella Valley.",
    "address": "Irontree Dr",
    "city": "Palm Desert",
    "zip_code": "92260",
    "latitude": 33.692294,
    "longitude": -116.381299,
    "indoor": false,
    "lighted": true,
    "num_courts": 10,
    "surface_type": "Hard",
    "fees": "Members only",
    "phone": "(760) 766-1000",
    "website": "http://www.ironwoodcountryclub.com/",
    "email": "info@icc.club",
    "photo_url": "https://cdn.filestackcontent.com/b6vDvJo3RmGG9nz1LSk6",
    "has_restrooms": true,
    "has_water": true,
    "has_pro_shop": true,
    "nets_provided": true,
    "skill_levels": "advanced,intermediate",
    "court_type": "dedicated"
  },
  {
    "county_slug": "riverside",
    "state": "CA",
    "verified": false,
    "name": "JHPA Shibuya-ku",
    "description": "JHPA Shibuya-ku is a place to play pickleball in Temescal Valley, CA. There are 2 indoor wood courts. The lines are permanent, and portable nets are available. The courts are private. Players have access to restrooms.",
    "address": "3 chome 14-13 Higashi",
    "city": "Temescal Valley",
    "latitude": 34.6772,
    "longitude": -76.96181,
    "indoor": true,
    "num_courts": 2,
    "surface_type": "Wood",
    "fees": "Private",
    "has_restrooms": true,
    "nets_provided": true,
    "skill_levels": "beginner",
    "court_type": "dedicated"
  },
  {
    "county_slug": "riverside",
    "state": "CA",
    "verified": false,
    "name": "Jim Venable Exchange Club Park",
    "description": "Come play pickleball at Jim Venable Exchange Club Park in United States, California! There are 4 outdoor concrete courts. These are dedicated courts with permanent lines and nets. Amenities include restrooms, water, wheelchair accessibility, and lights. The courts are free.",
    "address": "E Mayberry Ave",
    "city": "United States",
    "zip_code": "92544",
    "latitude": 33.740603,
    "longitude": -116.893098,
    "indoor": false,
    "lighted": true,
    "num_courts": 4,
    "surface_type": "Concrete",
    "fees": "Free",
    "phone": "7149056403",
    "website": "https://www.gorecreation.org/",
    "photo_url": "https://cdn.filestackcontent.com/m9RxgqG8Sz2k3Msmec0L",
    "has_restrooms": true,
    "has_water": true,
    "wheelchair_accessible": true,
    "nets_provided": true,
    "skill_levels": "beginner,intermediate",
    "court_type": "dedicated"
  },
  {
    "county_slug": "riverside",
    "state": "CA",
    "verified": false,
    "name": "JW Marriott Desert Springs Resort & Spa",
    "description": "JW Marriott Desert Springs Resort & Spa is one of the most popular places to play pickleball in Palm Desert, CA. There are 8 outdoor acrylic, hard, and concrete courts. These are dedicated courts with permanent lines and nets. The courts can be reserved. A one-time fee is required to play. Players have access to restrooms, food, water, wheelchair accessibility, lights, locker rooms, a pro shop or equipment store, and trainers or lessons.",
    "address": "74855 Country Club Drive",
    "city": "Palm Desert",
    "latitude": 33.757605,
    "longitude": -116.37708,
    "indoor": false,
    "lighted": true,
    "num_courts": 8,
    "surface_type": "Acrylic, Hard, Concrete",
    "fees": "Fee required — Court time is $25 per hour.  Clinics are $40 per person, and private lessons are $100 per person.",
    "phone": "+17603411893",
    "website": "https://www.marriott.com/hotels/travel/ctdca-jw-marriott-desert-springs-resort-and-spa/?scid=bb1a189a-fec3-4d19-a255-54ba596febe2&y_source=1_MjkyMTM0MC03MTUtbG9jYXRpb24ud2Vic2l0ZQ%3D%3D",
    "photo_url": "https://cdn.filestackcontent.com/9WOGupcpQSWPnfC2FWUM",
    "has_restrooms": true,
    "has_water": true,
    "has_pro_shop": true,
    "wheelchair_accessible": true,
    "nets_provided": true,
    "skill_levels": "intermediate",
    "court_type": "dedicated"
  },
  {
    "county_slug": "riverside",
    "state": "CA",
    "verified": false,
    "name": "Kimpton Rowan Palm Springs Hotel",
    "description": "This unique outdoor venue boasts six expansive pickleball courts (over 11,000 square feet) and an unforgettable atmosphere adjacent to our downtown hotel. \nRowan Courts Hours: Daily, 7:00AM – Sunset. Playing Equipment Provided (Paddles and Balls) for Hotel Guests. No Cover Required for Hotel Guests. Local Players $10 per person for 2 hours. Organize Matches & Join Waitlist on Court Reserve App Upon Arrival. All Players Must Sign Waiver.",
    "address": "100 West Tahquitz Canyon Way",
    "city": "Palm Springs",
    "latitude": 33.823656,
    "longitude": -116.547716,
    "indoor": false,
    "num_courts": 6,
    "surface_type": "Hard",
    "fees": "Fee required — $10 per reservation",
    "phone": "+17609045015",
    "website": "https://www.rowanpalmsprings.com/?cm_mmc=WEB-_-KI-_-AMER-_-EN-_-EV-_-Google%20Business%20Profile-_-DD-_-rowan",
    "email": "info@rowanpalmsprings.com",
    "photo_url": "https://cdn.filestackcontent.com/i9TVBYvYSkWmNYa7p7Bv",
    "has_restrooms": true,
    "nets_provided": true,
    "skill_levels": "advanced,intermediate",
    "court_type": "dedicated"
  },
  {
    "county_slug": "riverside",
    "state": "CA",
    "verified": false,
    "name": "Laguna de la Paz",
    "description": "Laguna de la Paz is a place to play pickleball in La Quinta, CA. There are 4 outdoor hard courts. These are dedicated courts with permanent lines and nets. The courts are private. The courts cannot be reserved. The facility includes amenities like lights, restrooms, and water.",
    "address": "48229 Vista De Nopal",
    "city": "La Quinta",
    "latitude": 33.696757,
    "longitude": -116.299025,
    "indoor": false,
    "lighted": true,
    "num_courts": 4,
    "surface_type": "Hard",
    "fees": "Private",
    "phone": "+17605648864",
    "website": "https://ldlp-laquinta.com/",
    "photo_url": "https://cdn.filestackcontent.com/xTAd7qT4QM2qOZjFKigV",
    "has_restrooms": true,
    "has_water": true,
    "nets_provided": true,
    "skill_levels": "beginner",
    "court_type": "dedicated"
  },
  {
    "county_slug": "riverside",
    "state": "CA",
    "verified": false,
    "name": "Lakeland Community Center",
    "description": "Open sun up to dusk",
    "address": "16275 Grand Ave",
    "city": "Lake Elsinore",
    "zip_code": "92530",
    "latitude": 33.650913,
    "longitude": -117.366542,
    "indoor": false,
    "lighted": true,
    "num_courts": 4,
    "surface_type": "Concrete",
    "fees": "Free",
    "phone": "9512454499",
    "website": "http://villageongrand.com/",
    "photo_url": "https://cdn.filestackcontent.com/qI20JhtRZqb09j5W9j4w",
    "nets_provided": true,
    "skill_levels": "advanced,beginner,intermediate",
    "court_type": "dedicated"
  },
  {
    "county_slug": "riverside",
    "state": "CA",
    "verified": false,
    "name": "La Ladera Park in Menifee Ca.",
    "description": "La Ladera Park in Menifee Ca. is a place to play pickleball in Menifee, CA. There are 4 outdoor concrete courts. These are dedicated courts with permanent lines and nets. Amenities include restrooms and water. The courts are free.",
    "address": "29629 La Ladera Rd",
    "city": "Menifee",
    "latitude": 33.687238,
    "longitude": -117.223283,
    "indoor": false,
    "num_courts": 4,
    "surface_type": "Concrete",
    "fees": "Free",
    "phone": "9513579961",
    "website": "http://www.cityofmenifee.us/index.aspx?NID=134",
    "photo_url": "https://cdn.filestackcontent.com/AnNvOwaSvCwyAsd6NKcD",
    "has_restrooms": true,
    "has_water": true,
    "nets_provided": true,
    "skill_levels": "advanced,intermediate",
    "court_type": "dedicated",
    "hours": "Monday - Friday 8:00 a.m. - 5:00 p.m. Home Site Map Contact Us Accessibility Copyright Notices Privacy Policy /QuickLinks.aspx Government Websites by CivicPlus® Loading Loading Do Not Show Again Close Arrow Left Arrow Right [] Slideshow Left Arrow Slideshow Right Arrow"
  },
  {
    "county_slug": "riverside",
    "state": "CA",
    "verified": false,
    "name": "Lang Park",
    "description": "California town now requiring quiet paddles at public pickleball courts\nApr 10 2025\nPickleball players who play at Lang Park in Laguna Beach, California, will be required to use \"quiet\" paddles going forward after the city council there passed a law that fines people for using the louder traditional paddles.\n\nThe Police Department’s Park Rangers will enforce the new law, city officials said.\n\nThe city council took action after several years of complaints from residents of a nearby senior community, according to The Orange County Register.\n\nIn 2023, the city installed sound barriers around the courts, which were tennis courts originally and were converted to pickleball as the sport gained popularity. That apparently didn't solve the problem, as complaints continued, resulting in the city also limiting hours at the park -- no play is allowed on Mondays or in the afternoon on Tuesdays and Thursdays.",
    "address": "Pacific Coast Hwy",
    "city": "United States",
    "zip_code": "92651",
    "latitude": 33.51397,
    "longitude": -117.75536,
    "indoor": false,
    "num_courts": 3,
    "surface_type": "Asphalt",
    "open_play_schedule": "WE'RE GIVING AWAY 15 NEW ADIDAS PADDLES THIS WEEK! ENTER HERE! → California town now requiring quiet paddles at public pickleball courts  Alex Lantz Director of Content Last Edited  Apr 10 2025  Pickleball players who play at Lang Park in Laguna Beach, California, will be required to use \"quiet\" paddles going forward after the city council there passed a law that fines people for using the louder traditional paddles.  The Police Department’s Park Rangers will enforce the new law, city officials said.  The city council took action after ed popularity. That apparently didn't solve the problem, as complaints continued, resulting in the city also limiting hours at the No play is allowed on Mondays or in the afternoon on Tuesdays and Thursdays.",
    "fees": "Free",
    "phone": "+19494973311",
    "website": "https://www.lagunabeachcity.net/Home/Components/FacilityDirectory/FacilityDirectory/19/837",
    "photo_url": "https://cdn.filestackcontent.com/fJdhkseGSgqNTNtWznZT",
    "has_restrooms": true,
    "has_water": true,
    "nets_provided": true,
    "skill_levels": "advanced,beginner",
    "court_type": "dedicated"
  },
  {
    "county_slug": "riverside",
    "state": "CA",
    "verified": false,
    "name": "La Quinta Resort & Club",
    "description": "La Quinta Resort & Club is a place to play pickleball in La Quinta, CA. There are 8 outdoor concrete courts. These are dedicated courts with permanent lines and nets. The courts can be reserved. Amenities include restrooms, water, and lights. A one-time fee is required to play.",
    "address": "49/499 Eisenhower Drive",
    "city": "La Quinta",
    "latitude": 33.687863,
    "longitude": -116.308205,
    "indoor": false,
    "lighted": true,
    "num_courts": 8,
    "surface_type": "Concrete",
    "fees": "Fee required — $30 per court per hour (paddles and balls not included).",
    "phone": "7605644111",
    "website": "https://www.laquintaresort.com/",
    "email": "information@laquintaresort.com",
    "photo_url": "https://cdn.filestackcontent.com/q1n5eliTgieFFeY2VEg8",
    "has_restrooms": true,
    "has_water": true,
    "nets_provided": true,
    "skill_levels": "advanced,intermediate",
    "court_type": "dedicated"
  },
  {
    "county_slug": "riverside",
    "state": "CA",
    "verified": false,
    "name": "La Quinta Resort & Club, Curio Collection by Hilton",
    "description": "La Quinta Resort & Club, Curio Collection by Hilton is one of the most popular places to play pickleball in La Quinta, CA. There are 8 outdoor asphalt courts. These are dedicated courts with permanent lines and nets. A one-time fee is required to play. Amenities include lights.",
    "address": "49-499 Eisenhower Dr",
    "city": "La Quinta",
    "latitude": 33.687863,
    "longitude": -116.308205,
    "indoor": false,
    "lighted": true,
    "num_courts": 8,
    "surface_type": "Asphalt",
    "fees": "Fee required",
    "phone": "(760) 564-4111",
    "website": "https://www.laquintaresort.com/?utm_source=google&utm_medium=organic&utm_campaign=GMB-AMER-QQ-PSPLQQQ",
    "email": "information@laquintaresort.com",
    "photo_url": "https://cdn.filestackcontent.com/DGZuVK9RWi9f7IERPMzF",
    "nets_provided": true,
    "skill_levels": "advanced,intermediate",
    "court_type": "dedicated"
  },
  {
    "county_slug": "riverside",
    "state": "CA",
    "verified": false,
    "name": "Margarita Community Park",
    "description": "Margarita Community Park is one of the most popular places to play pickleball in Temecula, CA. There are 8 outdoor concrete courts. These are dedicated courts with permanent lines and nets. The facility includes amenities like restrooms, water, and lights. The courts are free. Reservations are not available.",
    "address": "29119 Margarita Rd",
    "city": "Temecula",
    "zip_code": "92591",
    "latitude": 33.509823,
    "longitude": -117.14527,
    "indoor": false,
    "lighted": true,
    "num_courts": 8,
    "surface_type": "Concrete",
    "fees": "Free",
    "phone": "9516779622",
    "website": "https://temeculaca.gov/Facilities/Facility/Details/Margarita-Community-Park-14",
    "photo_url": "https://cdn.filestackcontent.com/EkUkkBp9TxWvTP3AlcTY",
    "has_restrooms": true,
    "has_water": true,
    "nets_provided": true,
    "skill_levels": "intermediate",
    "court_type": "dedicated",
    "hours": "8 am to 5 pm",
    "wheelchair_accessible": true
  },
  {
    "county_slug": "riverside",
    "state": "CA",
    "verified": false,
    "name": "Marion V. Ashley Community Recreation Center",
    "description": "Come play pickleball at Marion V. Ashley Community Recreation Center in Homeland, CA! There are 2 indoor wood courts. The lines are permanent, but you'll need to bring your own net. The courts are free.",
    "address": "25626 Briggs Rd",
    "city": "Homeland",
    "zip_code": "92548",
    "latitude": 33.748085,
    "longitude": -117.135434,
    "indoor": true,
    "num_courts": 2,
    "surface_type": "Wood",
    "fees": "Free",
    "phone": "95129282700",
    "website": "https://www.gorecreation.org/marion-v-ashley-community-center-and-park",
    "photo_url": "https://cdn.filestackcontent.com/qCATVooxRueok3VlZ9qt",
    "nets_provided": false,
    "skill_levels": "beginner,intermediate",
    "court_type": "dedicated",
    "has_restrooms": true
  },
  {
    "county_slug": "riverside",
    "state": "CA",
    "verified": false,
    "name": "Miles Park",
    "description": "Car Park and entry is off Deglee Noor Street",
    "address": "82420 Miles Ave",
    "city": "Indio",
    "latitude": 33.721452,
    "longitude": -116.226609,
    "indoor": false,
    "lighted": true,
    "num_courts": 8,
    "surface_type": "Hard",
    "fees": "Free",
    "phone": "+17603914175",
    "photo_url": "https://cdn.filestackcontent.com/AtatMo5FTRuOuS6oD95L",
    "nets_provided": true,
    "skill_levels": "beginner,intermediate",
    "court_type": "dedicated"
  },
  {
    "county_slug": "riverside",
    "state": "CA",
    "verified": false,
    "name": "Mission Hills Country Club",
    "description": "Mission Hills Country Club is one of the most popular places to play pickleball in Rancho Mirage, CA. There are 20 outdoor hard courts. These are dedicated courts with permanent lines and nets. A membership is required to play. Players have access to food, restrooms, trainers or lessons, and lights.",
    "address": "21 Racquet Club Dr",
    "city": "Rancho Mirage",
    "zip_code": "92270",
    "latitude": 33.798282,
    "longitude": -116.426973,
    "indoor": false,
    "lighted": true,
    "num_courts": 20,
    "surface_type": "Hard",
    "fees": "Members only",
    "phone": "7603249400",
    "website": "https://www.invitedclubs.com/clubs/mission-hills-country-club",
    "photo_url": "https://cdn.filestackcontent.com/3XXU2SJPSg69hxfv0nIG",
    "has_restrooms": true,
    "nets_provided": true,
    "skill_levels": "intermediate",
    "court_type": "dedicated"
  },
  {
    "county_slug": "riverside",
    "state": "CA",
    "verified": false,
    "name": "Mission Lakes Country Club",
    "description": "Come play pickleball at Mission Lakes Country Club in Desert Hot Springs, CA! There are 2 outdoor hard courts. The lines are overlaid on a tennis court, so the net is a little taller than a normal pickleball net. The facility includes amenities like restrooms, water, and lights. A membership is required to play.",
    "address": "8484 Clubhouse Blvd",
    "city": "Desert Hot Springs",
    "zip_code": "92240",
    "latitude": 33.986308,
    "longitude": -116.535661,
    "indoor": false,
    "lighted": true,
    "num_courts": 2,
    "surface_type": "Hard",
    "fees": "Members only",
    "phone": "7603296481",
    "website": "http://www.missionlakescountryclub.com/",
    "photo_url": "https://cdn.filestackcontent.com/Y1eZu1BUSNuNs1RClfNF",
    "has_restrooms": true,
    "has_water": true,
    "skill_levels": "intermediate",
    "court_type": "dedicated"
  },
  {
    "county_slug": "riverside",
    "state": "CA",
    "verified": false,
    "name": "Monterey Country Club",
    "description": "Monterey Country Club is one of the most popular places to play pickleball in Palm Desert, CA. There are 24 outdoor concrete courts. These are dedicated courts with permanent lines and nets. The facility includes amenities like lights, restrooms, and trainers or lessons. A membership is required to play.",
    "address": "41500 Monterey Ave",
    "city": "Palm Desert",
    "latitude": 33.747947,
    "longitude": -116.386402,
    "indoor": false,
    "lighted": true,
    "num_courts": 24,
    "surface_type": "Concrete",
    "fees": "Members only",
    "phone": "+17605689311",
    "website": "https://montereycc.com/private-club-racquets",
    "photo_url": "https://cdn.filestackcontent.com/zfWvhCs1RlqNfUlqkS3R",
    "has_restrooms": true,
    "nets_provided": true,
    "skill_levels": "advanced,beginner,intermediate",
    "court_type": "dedicated"
  },
  {
    "county_slug": "riverside",
    "state": "CA",
    "verified": false,
    "name": "Mountain Springs Estates",
    "description": "Mountain Springs Estates is one of the most popular places to play pickleball in Banning, CA. There are 4 outdoor hard courts. These are dedicated courts with permanent lines and nets. Reservations are not available. The courts are private.",
    "address": "3800 W. Wilson Street",
    "city": "Banning",
    "latitude": 33.932258,
    "longitude": -116.919062,
    "indoor": false,
    "num_courts": 4,
    "surface_type": "Hard",
    "fees": "Private",
    "phone": "+18778299609",
    "website": "https://www.westwindenterprises.com/",
    "photo_url": "https://cdn.filestackcontent.com/e4Z552x9QOGd9KmxNRyX",
    "nets_provided": true,
    "skill_levels": "beginner",
    "court_type": "dedicated"
  },
  {
    "county_slug": "riverside",
    "state": "CA",
    "verified": false,
    "name": "Mountain View Park",
    "description": "Mountain View Park is one of the most popular places to play pickleball in Eastvale, CA. There are 8 outdoor acrylic courts. These are dedicated courts with permanent lines and nets. Amenities include lights, restrooms, water, and wheelchair accessibility. The courts can be reserved. The courts are free.",
    "address": "14444 Selby Ave",
    "city": "Eastvale",
    "latitude": 33.950423,
    "longitude": -117.599291,
    "indoor": false,
    "lighted": true,
    "num_courts": 8,
    "surface_type": "Acrylic",
    "open_play_schedule": "04/05/2026",
    "fees": "Free",
    "phone": "+16262155273",
    "email": "lingyun05@gmail.com",
    "photo_url": "https://cdn.filestackcontent.com/13SAEwXqSbWxL3pb72sO",
    "has_restrooms": true,
    "has_water": true,
    "wheelchair_accessible": true,
    "nets_provided": true,
    "skill_levels": "intermediate",
    "court_type": "dedicated"
  },
  {
    "county_slug": "riverside",
    "state": "CA",
    "verified": false,
    "name": "Myra Lynn Park",
    "description": "Come play pickleball at Myra Lynn Park in Riverside, CA! There are 4 outdoor hard and concrete courts. These are dedicated courts with permanent lines and nets. You can’t reserve the courts. The courts are free. Amenities include restrooms and water.",
    "address": "4540 Meredith St",
    "city": "Riverside",
    "latitude": 33.921375,
    "longitude": -117.474175,
    "indoor": false,
    "num_courts": 4,
    "surface_type": "Hard, Concrete",
    "fees": "Free",
    "photo_url": "https://cdn.filestackcontent.com/aY0mO44Qb6NtQf2HYPuE",
    "has_restrooms": true,
    "has_water": true,
    "nets_provided": true,
    "skill_levels": "beginner,intermediate",
    "court_type": "dedicated"
  },
  {
    "county_slug": "riverside",
    "state": "CA",
    "verified": false,
    "name": "Oasis Community H.O.A.",
    "description": "Oasis Community H.O.A. is one of the most popular places to play pickleball in Menifee, CA. There are 4 outdoor hard courts. These are dedicated courts with permanent lines and nets. The facility includes amenities like restrooms, water, and lights. The courts are private.",
    "address": "29100 Midway Summit Rd",
    "city": "Menifee",
    "zip_code": "92584",
    "latitude": 33.697408,
    "longitude": -117.162362,
    "indoor": false,
    "lighted": true,
    "num_courts": 4,
    "surface_type": "Hard",
    "fees": "Private",
    "phone": "9513017466",
    "website": "http://www.oasiscommunityhoa.com/",
    "photo_url": "https://cdn.filestackcontent.com/jdBMFmr4QayrYVZT9Mjx",
    "has_restrooms": true,
    "has_water": true,
    "nets_provided": true,
    "skill_levels": "beginner,intermediate",
    "court_type": "dedicated"
  },
  {
    "county_slug": "riverside",
    "state": "CA",
    "verified": false,
    "name": "Oasis Training Facility",
    "description": "Oasis Training Facility is an upscale private gym with two indoor pickleball courts. Our courts are available with memberships or for hourly court rentals. We have an Erne training machine for those who prefer to train solo. In addition to the courts, we have the best on-site personal trainers, massage therapist, infrared saunas, and everything else to get you healthy and fit. At Oasis, we strive to deliver the highest quality experience. Contact us to see how we are different from the rest.",
    "address": "25763 Jefferson Avenue",
    "city": "Murrieta",
    "latitude": 33.541171,
    "longitude": -117.189977,
    "indoor": true,
    "lighted": true,
    "num_courts": 2,
    "surface_type": "Concrete",
    "fees": "Members only",
    "phone": "+19512009783",
    "website": "https://oasisfacilitytraining.com/",
    "email": "oasistrainingfacility@gmail.com",
    "photo_url": "https://cdn.filestackcontent.com/8UO94hTkRyxQbUxdNBZQ",
    "has_restrooms": true,
    "wheelchair_accessible": true,
    "nets_provided": true,
    "skill_levels": "advanced,beginner,intermediate",
    "court_type": "dedicated"
  },
  {
    "county_slug": "riverside",
    "state": "CA",
    "verified": false,
    "name": "Outdoor Resort Indio",
    "description": "Pickleball is complimentary for all guests staying at Outdoor Resort Indio, a luxury motorcoach resort in the Coachella Valley",
    "address": "80394 Ave 48",
    "city": "Indio",
    "zip_code": "92201",
    "latitude": 33.700709,
    "longitude": -116.261919,
    "indoor": false,
    "lighted": true,
    "num_courts": 6,
    "surface_type": "Hard",
    "fees": "Private — Pickleball Included With Resort Stays",
    "phone": "+17607757255",
    "website": "http://www.orindio.com/",
    "photo_url": "https://cdn.filestackcontent.com/ZEDTpqrcRQiLG8rV7Y7S",
    "has_restrooms": true,
    "has_water": true,
    "nets_provided": true,
    "skill_levels": "advanced,beginner",
    "court_type": "dedicated"
  },
  {
    "county_slug": "riverside",
    "state": "CA",
    "verified": false,
    "name": "Pala Community Park",
    "description": "Come play pickleball at Pala Community Park in Temecula, CA! There are 4 outdoor hard courts. The lines are permanent, but you'll need to bring your own net. The courts are free. Players have access to restrooms, water, and lights.",
    "address": "44900 Temecula Ln",
    "city": "Temecula",
    "zip_code": "92592",
    "latitude": 33.47163,
    "longitude": -117.117645,
    "indoor": false,
    "lighted": true,
    "num_courts": 4,
    "surface_type": "Hard",
    "fees": "Free",
    "photo_url": "https://cdn.filestackcontent.com/iglwFKKATT2Rf40uZx0z",
    "has_restrooms": true,
    "has_water": true,
    "nets_provided": false,
    "skill_levels": "beginner,intermediate",
    "court_type": "dedicated"
  },
  {
    "county_slug": "riverside",
    "state": "CA",
    "verified": false,
    "name": "Palm Desert Resort Country Club Pickleball Complex",
    "description": "Come play pickleball at Palm Desert Resort Country Club Pickleball Complex in Palm Desert, CA! There are 24 outdoor concrete courts. These are dedicated courts with permanent lines and nets. A membership is required to play. The facility includes amenities like food, restrooms, water, wheelchair accessibility, lights, and trainers or lessons. You can reserve the courts.",
    "address": "77333 Country Club Dr",
    "city": "Palm Desert",
    "zip_code": "92211",
    "latitude": 33.750759,
    "longitude": -116.317576,
    "indoor": false,
    "lighted": true,
    "num_courts": 24,
    "surface_type": "Concrete",
    "fees": "Members only",
    "phone": "7602189221",
    "website": "https://www.theresorter.com/?utm_source=google&utm_medium=organic&utm_campaign=gmb",
    "email": "TennisInAPickle@gmail.com",
    "photo_url": "https://cdn.filestackcontent.com/99zaKcYZQYWRDTsPIdfh",
    "has_restrooms": true,
    "has_water": true,
    "wheelchair_accessible": true,
    "nets_provided": true,
    "skill_levels": "advanced,intermediate",
    "court_type": "dedicated"
  },
  {
    "county_slug": "riverside",
    "state": "CA",
    "verified": false,
    "name": "Palm Valley Country Club",
    "description": "Come play pickleball at Palm Valley Country Club in Palm Desert, CA! There are 12 outdoor concrete courts. These are dedicated courts with permanent lines and nets. A membership is required to play. The facility includes amenities like trainers or lessons, restrooms, lights, and a pro shop or equipment store.",
    "address": "39205 Palm Valley Dr",
    "city": "Palm Desert",
    "latitude": 33.764495,
    "longitude": -116.332039,
    "indoor": false,
    "lighted": true,
    "num_courts": 12,
    "surface_type": "Concrete",
    "fees": "Members only",
    "phone": "+17603452737",
    "website": "https://palmvalley-cc.com/racquet-sports",
    "photo_url": "https://cdn.filestackcontent.com/HrpLvE66SGBtJmWueUxL",
    "has_restrooms": true,
    "has_pro_shop": true,
    "nets_provided": true,
    "skill_levels": "intermediate",
    "court_type": "dedicated"
  },
  {
    "county_slug": "riverside",
    "state": "CA",
    "verified": false,
    "name": "Paradise Pickleball",
    "description": "Paradise Pickleball is a place to play pickleball in Palm Desert, CA. There are 21 outdoor hard and concrete courts. These are dedicated courts with permanent lines and nets. You can reserve the courts. The facility includes amenities like restrooms, water, lights, a pro shop or equipment store, trainers or lessons, wheelchair accessibility, and youth programming. The courts are free.",
    "address": "74-700 Ca Hwy 111 Palm Desert",
    "city": "Palm Desert",
    "latitude": 33.722579,
    "longitude": -116.362071,
    "indoor": false,
    "lighted": true,
    "num_courts": 21,
    "surface_type": "Hard, Concrete",
    "fees": "Free",
    "phone": "6195724651",
    "website": "https://www.paradisepickleball.com/",
    "email": "play@paradisepickleball.com",
    "photo_url": "https://cdn.filestackcontent.com/m5ytc4RtGDfs11fJbxgV",
    "has_restrooms": true,
    "has_water": true,
    "has_pro_shop": true,
    "wheelchair_accessible": true,
    "nets_provided": true,
    "skill_levels": "intermediate",
    "court_type": "dedicated",
    "has_parking": true,
    "has_ball_machine": true
  },
  {
    "county_slug": "riverside",
    "state": "CA",
    "verified": false,
    "name": "Pauba Ridge Park",
    "description": "Come play pickleball at Pauba Ridge Park in Temecula, CA! There are 2 outdoor hard courts. Tape lines have been laid, but you'll need to bring your own net. The courts are free.",
    "address": "33407 Pauba Rd",
    "city": "Temecula",
    "latitude": 33.511622,
    "longitude": -117.081224,
    "indoor": false,
    "num_courts": 2,
    "surface_type": "Hard",
    "fees": "Free",
    "phone": "+18888363285",
    "website": "https://temeculaca.gov/Facilities/Facility/Details/Pauba-Ridge-Park-74",
    "photo_url": "https://cdn.filestackcontent.com/35S5A1PeRuaOZYm0H0x0",
    "nets_provided": false,
    "skill_levels": "beginner,intermediate",
    "court_type": "shared",
    "hours": "8 am to 5 pm",
    "has_parking": true,
    "has_restrooms": true
  },
  {
    "county_slug": "riverside",
    "state": "CA",
    "verified": false,
    "name": "PDCC at Civic Center Park",
    "description": "3 indoor (non-dedicated) courts in the gymnasium.",
    "address": "43900 San Pablo Ave",
    "city": "Palm Desert",
    "latitude": 33.732416,
    "longitude": -116.381382,
    "indoor": false,
    "num_courts": 15,
    "surface_type": "Hard, Wood, Concrete",
    "fees": "Free",
    "phone": "(760) 568-9697",
    "website": "http://www.cityofpalmdesert.org/Home/Components/FacilityDirectory/FacilityDirectory/2/940",
    "photo_url": "https://cdn.filestackcontent.com/GLTBH90XQyaTLW6dhUaZ",
    "has_restrooms": true,
    "has_water": true,
    "nets_provided": true,
    "skill_levels": "advanced,intermediate",
    "court_type": "dedicated"
  },
  {
    "county_slug": "riverside",
    "state": "CA",
    "verified": false,
    "name": "Peck Park",
    "description": "Peck Park is one of the most popular places to play pickleball in United States, California. There are 8 outdoor concrete courts. These are dedicated courts with permanent lines and nets. The courts are free. Reservations are available. Players have access to lights, restrooms, water, wheelchair accessibility, and youth programming.",
    "address": "560 N Western Ave",
    "city": "United States",
    "latitude": 33.751712,
    "longitude": -118.306138,
    "indoor": false,
    "lighted": true,
    "num_courts": 8,
    "surface_type": "Concrete",
    "fees": "Free",
    "phone": "1 (310) 548-7580",
    "website": "https://www.laparks.org/reccenter/peck-community",
    "email": "michael.signorelli@lacity.org",
    "photo_url": "https://cdn.filestackcontent.com/suIFiCRSXu7uFs0nZph6",
    "has_restrooms": true,
    "has_water": true,
    "wheelchair_accessible": true,
    "nets_provided": true,
    "skill_levels": "intermediate",
    "court_type": "dedicated",
    "hours": "Friday 10:00am-6:00pm Get Directions Sports and Fitness Programs Tennis, Baseball, Basketball, Flag Football, Softball, Volleyball, Pickleball, Cheer Cultural Programs Afterschool, Camps, Clubs, Science and Nature, Special Events, Hobbies and Games, Membership Facility Features Auditorium"
  },
  {
    "county_slug": "riverside",
    "state": "CA",
    "verified": false,
    "name": "PGA West Private Golf Course",
    "description": "PGA West Private Golf Course is one of the most popular places to play pickleball in La Quinta, CA. There are 16 outdoor acrylic courts. These are dedicated courts with permanent lines and nets. Players have access to restrooms, water, and trainers or lessons. The courts are private.",
    "address": "55955 Pga Blvd",
    "city": "La Quinta",
    "zip_code": "92253",
    "latitude": 33.646284,
    "longitude": -116.244574,
    "indoor": false,
    "num_courts": 16,
    "surface_type": "Acrylic",
    "fees": "Private",
    "phone": "7605643914",
    "website": "http://www.pgawest.com/",
    "email": "pgawest@pgawest.com",
    "photo_url": "https://cdn.filestackcontent.com/DwAOOgzYTJ6pZ6ame9G4",
    "has_restrooms": true,
    "has_water": true,
    "nets_provided": true,
    "skill_levels": "intermediate",
    "court_type": "dedicated"
  },
  {
    "county_slug": "riverside",
    "state": "CA",
    "verified": false,
    "name": "Pharos Athletic Club",
    "description": "Pharos Athletic Club is a place to play pickleball in Palm Springs, CA. There are 2 indoor concrete courts. These are dedicated courts with permanent lines and nets. A one-time fee is required to play. Reservations are available. Players have access to lights, food, locker rooms, restrooms, and water.",
    "address": "3455 North Indian Canyon Drive",
    "city": "Palm Springs",
    "latitude": 33.860614,
    "longitude": -116.546918,
    "indoor": true,
    "lighted": true,
    "num_courts": 2,
    "surface_type": "Concrete",
    "fees": "Fee required — Drop in’s welcome for a fee",
    "phone": "(442) 268-5573",
    "website": "https://www.pharospalmsprings.com",
    "email": "Palmsprings@pharosathleticclub.com",
    "photo_url": "https://cdn.filestackcontent.com/eWQALFVYS9qPIkfoG6S4",
    "has_restrooms": true,
    "has_water": true,
    "nets_provided": true,
    "skill_levels": "advanced,intermediate",
    "court_type": "dedicated"
  },
  {
    "county_slug": "riverside",
    "state": "CA",
    "verified": false,
    "name": "Pickleball Lakeside Courts",
    "description": "Pickleball Lakeside Courts is a place to play pickleball in United States, California. There are 2 outdoor concrete courts. These are dedicated courts with permanent lines and nets. A one-time fee is required to play. Players have access to restrooms and trainers or lessons. The courts can be reserved.",
    "address": "Grand Ave",
    "city": "United States",
    "latitude": 33.665149,
    "longitude": -117.384024,
    "indoor": false,
    "num_courts": 2,
    "surface_type": "Concrete",
    "fees": "Fee required",
    "phone": "+16194557895",
    "website": "https://pickleballake.com/",
    "email": "info@pickleballake.com",
    "photo_url": "https://cdn.filestackcontent.com/iPdoWYe8QeahQon8vt5o",
    "has_restrooms": true,
    "nets_provided": true,
    "skill_levels": "advanced,beginner,intermediate",
    "court_type": "dedicated"
  },
  {
    "county_slug": "riverside",
    "state": "CA",
    "verified": false,
    "name": "Pickleball Paradise",
    "description": "Play is by court reservations only at $35 per hour.\n\n2 Membership passes are available. The Pickle Pass at $99 per month includes: 5-1-hour court reservations for you and a guest, use of indoor clubhouse, Gatorade and snacks.\n\nThe Paradise Pass - $148 per month includes: 2/2hr court reservations and 2/1 hour court reservations plus use of the entire facility up to 2 hours for up to 3 guests, to include:  12 seat swim spa/Jacuzzi, private cabanas, frisbee golf, corn hole, putting green and volleyball.\n\nBoth memberships include 20% off of private event rentals, $5 off Round Robin admissions and an invitation for 2 to our annual 4th of July customer appreciation gala that features a live band, cocktails, dinner buffet and a raffle to win a variety of different prizes.  Not to mention the city of Lake Elsinore's amazing fireworks display from the lake!",
    "address": "Grand Avenue",
    "city": "United States",
    "latitude": 33.64458,
    "longitude": -117.352959,
    "indoor": false,
    "num_courts": 2,
    "surface_type": "Concrete",
    "open_play_schedule": "8:00 - 7:00",
    "fees": "Private — $35 per court per hour.",
    "phone": "+16194557895",
    "website": "https://www.pickleballake.com",
    "email": "17242pb@gmail.com",
    "photo_url": "https://cdn.filestackcontent.com/ZBgYKIcLTWuw4yGFKkot",
    "has_restrooms": true,
    "has_water": true,
    "wheelchair_accessible": true,
    "nets_provided": true,
    "skill_levels": "intermediate",
    "court_type": "dedicated"
  },
  {
    "county_slug": "riverside",
    "state": "CA",
    "verified": false,
    "name": "Pioneer Park",
    "description": "Pioneer Park is a place to play pickleball in Somerset, CA. There are 2 outdoor courts. The lines are permanent, but you'll need to bring your own net. The courts are free.",
    "address": "6740 Fairplay Rd",
    "city": "Somerset",
    "zip_code": "95684",
    "latitude": 38.608025,
    "longitude": -120.702945,
    "indoor": false,
    "num_courts": 2,
    "fees": "Free",
    "website": "https://www.edcgov.us/Government/Parks/pages/pioneer_park.aspx",
    "photo_url": "https://cdn.filestackcontent.com/9NxWoX76QVKoFlpVcDMb",
    "nets_provided": false,
    "skill_levels": "beginner",
    "court_type": "dedicated"
  },
  {
    "county_slug": "riverside",
    "state": "CA",
    "verified": false,
    "name": "Portola Country Club",
    "description": "Portola Country Club is a place to play pickleball in Palm Desert, CA. There are 4 outdoor hard courts. These are dedicated courts with permanent lines and nets. Amenities include restrooms and water. The courts are private.",
    "address": "42500 Portola Ave",
    "city": "Palm Desert",
    "zip_code": "92260",
    "latitude": 33.739161,
    "longitude": -116.373421,
    "indoor": false,
    "num_courts": 4,
    "surface_type": "Hard",
    "fees": "Private",
    "phone": "7603465481",
    "website": "http://www.portolacc.com/",
    "photo_url": "https://cdn.filestackcontent.com/IVQd8v1KSHCtxDEnJmRe",
    "has_restrooms": true,
    "has_water": true,
    "nets_provided": true,
    "skill_levels": "intermediate",
    "court_type": "dedicated"
  },
  {
    "county_slug": "riverside",
    "state": "CA",
    "verified": false,
    "name": "Public - Demuth Park",
    "description": "Come play pickleball at Public - Demuth Park in Palm Springs, CA! There are 12 outdoor concrete courts. These are dedicated courts with permanent lines and nets. Players have access to lights, restrooms, wheelchair accessibility, and water. The courts are free.",
    "address": "4200 E Mesquite Ave",
    "city": "Palm Springs",
    "zip_code": "92264",
    "latitude": 33.808793,
    "longitude": -116.500724,
    "indoor": false,
    "lighted": true,
    "num_courts": 12,
    "surface_type": "Concrete",
    "fees": "Free",
    "website": "http://www.visitpalmsprings.com/",
    "photo_url": "https://cdn.filestackcontent.com/dCvKk0EwRVy3OaE2vIWg",
    "has_restrooms": true,
    "has_water": true,
    "wheelchair_accessible": true,
    "nets_provided": true,
    "skill_levels": "intermediate",
    "court_type": "dedicated"
  },
  {
    "county_slug": "riverside",
    "state": "CA",
    "verified": false,
    "name": "Quartz Ranch Park",
    "description": "Come play pickleball at Quartz Ranch Park in Menifee, CA! There are 4 outdoor concrete courts. These are dedicated courts with permanent lines and nets. The courts are free. Players have access to lights and restrooms. The courts cannot be reserved.",
    "address": "30601 Evans Rd",
    "city": "Menifee",
    "latitude": 33.676311,
    "longitude": -117.198027,
    "indoor": false,
    "lighted": true,
    "num_courts": 4,
    "surface_type": "Concrete",
    "fees": "Free",
    "photo_url": "https://cdn.filestackcontent.com/f6xIS5NS2epyZK9uCcwX",
    "has_restrooms": true,
    "nets_provided": true,
    "skill_levels": "advanced,beginner,intermediate",
    "court_type": "dedicated"
  },
  {
    "county_slug": "riverside",
    "state": "CA",
    "verified": false,
    "name": "Rancho California RV Resort Picklers",
    "description": "Come play pickleball at Rancho California RV Resort Picklers in Aguanga, CA! There are 12 outdoor asphalt courts. These are dedicated courts with permanent lines and nets. The courts cannot be reserved. Players have access to restrooms, water, lights, trainers or lessons, and food.",
    "address": "45525 California 79",
    "city": "Aguanga",
    "latitude": 33.437984,
    "longitude": -116.869787,
    "indoor": false,
    "lighted": true,
    "num_courts": 12,
    "surface_type": "Asphalt",
    "phone": "2084121219",
    "website": "https://www.facebook.com/groups/311323033361294",
    "email": "Jerrikesler50@gmail.com",
    "photo_url": "https://cdn.filestackcontent.com/W2tV6pUbSFqbopE5xyjL",
    "has_restrooms": true,
    "has_water": true,
    "nets_provided": true,
    "skill_levels": "beginner,intermediate",
    "court_type": "dedicated"
  },
  {
    "county_slug": "riverside",
    "state": "CA",
    "verified": false,
    "name": "Rancho Mirage Community Park / Whitewater Courts",
    "description": "Rancho Mirage Community Park / Whitewater Courts is one of the most popular places to play pickleball in Rancho Mirage, CA. There are 10 outdoor courts. These are dedicated courts with permanent lines and nets. The courts are free. The facility includes amenities like lights, restrooms, and water.",
    "address": "71560 San Jacinto Dr",
    "city": "Rancho Mirage",
    "zip_code": "92270",
    "latitude": 33.746355,
    "longitude": -116.415637,
    "indoor": false,
    "lighted": true,
    "num_courts": 10,
    "fees": "Free",
    "phone": "9194269464",
    "website": "https://www.ranchomirageca.gov/residents/parks-trails/",
    "photo_url": "https://cdn.filestackcontent.com/b1mNVTiKQVmsfngFCJJo",
    "has_restrooms": true,
    "has_water": true,
    "nets_provided": true,
    "skill_levels": "intermediate",
    "court_type": "dedicated",
    "has_parking": true
  },
  {
    "county_slug": "riverside",
    "state": "CA",
    "verified": false,
    "name": "Rancho Ramona Park",
    "description": "Rancho Ramona Park is one of the most popular places to play pickleball in Menifee, CA. There is 1 outdoor court. This is a dedicated court with a permanent net and lines. Players have access to restrooms.",
    "address": "28050 Encanto Dr",
    "city": "Menifee",
    "latitude": 33.713449,
    "longitude": -117.185621,
    "indoor": false,
    "num_courts": 1,
    "photo_url": "https://cdn.filestackcontent.com/ocPcMJULQW5Uxe60DlOQ",
    "has_restrooms": true,
    "nets_provided": true,
    "skill_levels": "intermediate",
    "court_type": "dedicated"
  },
  {
    "county_slug": "riverside",
    "state": "CA",
    "verified": false,
    "name": "Reid Park-Ruth H Lewis Center",
    "description": "Reid Park-Ruth H Lewis Center is a place to play pickleball in Riverside, CA. There are 4 outdoor hard courts. You’ll have to create your own lines and bring your own net. Reservations are not available. The courts are free. Amenities include restrooms, water, and lights.",
    "address": "701 Orange St",
    "city": "Riverside",
    "zip_code": "92501",
    "latitude": 34.011915,
    "longitude": -117.35266,
    "indoor": false,
    "lighted": true,
    "num_courts": 4,
    "surface_type": "Hard",
    "fees": "Free",
    "phone": "(951) 826-5654",
    "website": "https://www.riversideca.gov/park_rec/facilities-parks/indoor-facilities/community-centers",
    "email": "parks@riversideca.gov",
    "photo_url": "https://cdn.filestackcontent.com/PYoID2nuT4eyTz5In5lQ",
    "has_restrooms": true,
    "has_water": true,
    "nets_provided": false,
    "skill_levels": "beginner,intermediate",
    "court_type": "shared",
    "hours": "9am - 5pm"
  },
  {
    "county_slug": "riverside",
    "state": "CA",
    "verified": false,
    "name": "Riley Gymnasium",
    "description": "Come play pickleball at Riley Gymnasium in Norco, CA! There are 4 indoor wood courts. The lines are permanent, and portable nets are available. You can’t reserve the courts. Players have access to restrooms, water, lights, and wheelchair accessibility. A one-time fee is required to play.",
    "address": "3950 Acacia Avenue",
    "city": "Norco",
    "latitude": 33.938881,
    "longitude": -117.559063,
    "indoor": true,
    "lighted": true,
    "num_courts": 4,
    "surface_type": "Wood",
    "fees": "Fee required — Adults only. 50+ play free; 18-49 pay $6 per day. Registration is required.",
    "phone": "+19512705628",
    "website": "https://www.norco.ca.us/",
    "email": "norcopickleball@gmail.com",
    "photo_url": "https://cdn.filestackcontent.com/06tA3hESwOlrMNcve9PA",
    "has_restrooms": true,
    "has_water": true,
    "wheelchair_accessible": true,
    "nets_provided": true,
    "skill_levels": "advanced,intermediate",
    "court_type": "dedicated"
  },
  {
    "county_slug": "riverside",
    "state": "CA",
    "verified": false,
    "name": "Rotary Park",
    "description": "Come play pickleball at the first pickleball court in the City of Perris located in Rotary Park! There is 1 outdoor dedicated court with permanent lines and nets. The courts are free for everyone on a first come first serve basis. The facility includes amenities like shaded picnic shelters, an inclusive playground, and restrooms with water fountains. The court was installed in July 2023 with premium quality surfacing and net system. \n\nRotary Park is a beautiful park with many trees and space to play. The park is open daily from 6 am to 10 pm.",
    "address": "1491 S A St",
    "city": "Perris",
    "latitude": 33.772288,
    "longitude": -117.233784,
    "indoor": false,
    "num_courts": 1,
    "surface_type": "Concrete",
    "fees": "Free",
    "phone": "+19514357220",
    "website": "https://www.cityofperris.org/departments/community-services/parks",
    "email": "JEstrada@cityofperris.org",
    "photo_url": "https://cdn.filestackcontent.com/FLQKj3YzTn2qIZlGiXdK",
    "has_restrooms": true,
    "has_water": true,
    "wheelchair_accessible": true,
    "nets_provided": true,
    "skill_levels": "advanced,beginner",
    "court_type": "dedicated"
  },
  {
    "county_slug": "riverside",
    "state": "CA",
    "verified": false,
    "name": "Sallee Park",
    "description": "Sallee Park is one of the most popular places to play pickleball in San Jacinto, CA. There are 2 outdoor concrete courts. These are dedicated courts with permanent lines and nets. The courts are free.",
    "address": "180 Idyllwild Dr",
    "city": "San Jacinto",
    "latitude": 33.790311,
    "longitude": -116.961417,
    "indoor": false,
    "num_courts": 2,
    "surface_type": "Concrete",
    "fees": "Free",
    "photo_url": "https://cdn.filestackcontent.com/1EkMj4JpThokfNvjYd8S",
    "nets_provided": true,
    "skill_levels": "beginner,intermediate",
    "court_type": "dedicated"
  },
  {
    "county_slug": "riverside",
    "state": "CA",
    "verified": false,
    "name": "San Carlos Pickleball Association",
    "description": "Come play pickleball at San Carlos Pickleball Association in Nuevo, CA! There are 14 outdoor asphalt courts. These are dedicated courts with permanent lines and nets. A membership is required to play. The facility includes amenities like trainers or lessons.",
    "address": "XX8C+G3 San Carlos Nuevo Guaymas",
    "city": "Nuevo",
    "latitude": 27.966313,
    "longitude": -111.029813,
    "indoor": false,
    "num_courts": 14,
    "surface_type": "Asphalt",
    "fees": "Members only",
    "phone": "+16221651762",
    "website": "http://sancarlospickleball.com/",
    "photo_url": "https://cdn.filestackcontent.com/frFevFMT6mlABzTinbRg",
    "nets_provided": true,
    "skill_levels": "advanced,intermediate",
    "court_type": "dedicated"
  },
  {
    "county_slug": "riverside",
    "state": "CA",
    "verified": false,
    "name": "Sands Rv & Golf Resort",
    "description": "Sands Rv & Golf Resort is a place to play pickleball in Desert Hot Springs, CA. There are 8 outdoor hard courts. These are dedicated courts with permanent lines and nets. The courts are private. Amenities include restrooms and water.",
    "address": "16400 Bubbling Wells Rd",
    "city": "Desert Hot Springs",
    "zip_code": "92240",
    "latitude": 33.926835,
    "longitude": -116.482203,
    "indoor": false,
    "num_courts": 8,
    "surface_type": "Hard",
    "fees": "Private",
    "phone": "7602510611",
    "website": "http://www.sandsrvresort.com/",
    "photo_url": "https://cdn.filestackcontent.com/ExpfxJNTT3O2Im0fmmI7",
    "has_restrooms": true,
    "has_water": true,
    "nets_provided": true,
    "court_type": "dedicated"
  },
  {
    "county_slug": "riverside",
    "state": "CA",
    "verified": false,
    "name": "Shamel Park",
    "description": "Shamel Park is a place to play pickleball in Riverside, CA. There are 8 outdoor concrete courts. The lines are permanent, but you'll need to bring your own net. The courts are free.",
    "address": "3650 Arlington Ave",
    "city": "Riverside",
    "latitude": 33.94496,
    "longitude": -117.394295,
    "indoor": false,
    "num_courts": 8,
    "surface_type": "Concrete",
    "fees": "Free",
    "phone": "(951) 826-2000",
    "website": "http://www.riversideca.gov/park_rec/",
    "photo_url": "https://cdn.filestackcontent.com/HBIaELivQTuROz6MoKi4",
    "nets_provided": false,
    "skill_levels": "beginner,intermediate",
    "court_type": "dedicated",
    "hours": "9am - 5pm"
  },
  {
    "county_slug": "riverside",
    "state": "CA",
    "verified": false,
    "name": "Shenandoah Springs",
    "description": "Come play pickleball at Shenandoah Springs in Thousand Palms, CA! There are 8 outdoor concrete courts. The lines are permanent, but you'll need to bring your own net. The facility includes amenities like restrooms and lights. A membership is required to play.",
    "address": "32700 Desert Moon Dr",
    "city": "Thousand Palms",
    "zip_code": "92276",
    "latitude": 33.810112,
    "longitude": -116.379197,
    "indoor": false,
    "lighted": true,
    "num_courts": 8,
    "surface_type": "Concrete",
    "fees": "Members only",
    "phone": "7603433497",
    "website": "http://shenandoahspringsclub.com/",
    "photo_url": "https://cdn.filestackcontent.com/Abf6qje2Tgud3vBFD7pS",
    "has_restrooms": true,
    "nets_provided": false,
    "skill_levels": "intermediate",
    "court_type": "dedicated"
  },
  {
    "county_slug": "riverside",
    "state": "CA",
    "verified": false,
    "name": "Silent Valley Club",
    "description": "Silent Valley Club is one of the most popular places to play pickleball in Banning, CA. There are 5 outdoor hard courts. These are dedicated courts with permanent lines and nets. A membership is required to play. Amenities include restrooms and lights.",
    "address": "46305 Poppet Flats Rd",
    "city": "Banning",
    "zip_code": "92220",
    "latitude": 33.850102,
    "longitude": -116.852075,
    "indoor": false,
    "lighted": true,
    "num_courts": 5,
    "surface_type": "Hard",
    "fees": "Members only",
    "phone": "3109684120",
    "website": "http://www.silentvalleyclub.com/",
    "photo_url": "https://cdn.filestackcontent.com/iCbsxw0FQTmHMu1D1orn",
    "has_restrooms": true,
    "nets_provided": true,
    "skill_levels": "beginner,intermediate",
    "court_type": "dedicated"
  },
  {
    "county_slug": "riverside",
    "state": "CA",
    "verified": false,
    "name": "Silver Sands Racquet Club",
    "description": "Private club. No public access.",
    "address": "74155 Country Club Dr",
    "city": "Palm Desert",
    "zip_code": "92260",
    "latitude": 33.757768,
    "longitude": -116.387519,
    "indoor": false,
    "num_courts": 3,
    "surface_type": "Hard",
    "fees": "Private",
    "phone": "(760) 346-1161",
    "website": "http://ssrchoa.com/",
    "email": "lindamiller250@gmail.com",
    "photo_url": "https://cdn.filestackcontent.com/rP4GFQzOR4aWfcTKj1Gw",
    "nets_provided": true,
    "skill_levels": "advanced,intermediate",
    "court_type": "dedicated"
  },
  {
    "county_slug": "riverside",
    "state": "CA",
    "verified": false,
    "name": "Sky Valley RV Resort",
    "description": "Come play pickleball at Sky Valley RV Resort in Desert Hot Springs, CA! There are 8 outdoor concrete courts. These are dedicated courts with permanent lines and nets. A one-time fee is required to play. The courts can be reserved. Players have access to lights, trainers or lessons, and restrooms.",
    "address": "74711 Dillon Road",
    "city": "Desert Hot Springs",
    "latitude": 33.89834,
    "longitude": -116.361537,
    "indoor": false,
    "lighted": true,
    "num_courts": 8,
    "surface_type": "Concrete",
    "open_play_schedule": "Open play beginning at 8 AM. Free skills clinic every weekend in the winter.",
    "fees": "Fee required",
    "phone": "+17605484114",
    "website": "https://www.skyvalleyresort.com/",
    "photo_url": "https://cdn.filestackcontent.com/ZW2ofkZRSEWgdWfhlDVS",
    "has_restrooms": true,
    "nets_provided": true,
    "skill_levels": "intermediate",
    "court_type": "dedicated"
  },
  {
    "county_slug": "riverside",
    "state": "CA",
    "verified": false,
    "name": "Soboba Pickleball Club",
    "description": "Soboba Pickleball Club is one of the most popular places to play pickleball in San Jacinto, CA. There are 21 outdoor concrete courts. These are dedicated courts with permanent lines and nets. A one-time fee is required to play. Reservations are available. Amenities include food, locker rooms, restrooms, water, lights, a pro shop or equipment store, and wheelchair accessibility.",
    "address": "1020 Soboba Rd",
    "city": "San Jacinto",
    "latitude": 33.799354,
    "longitude": -116.932945,
    "indoor": false,
    "lighted": true,
    "num_courts": 21,
    "surface_type": "Concrete",
    "fees": "Fee required — Membership $200/ year\n$5 drop in (includes pool, locker room use)\n$15 two hour court rental\n\nNon Member\n$10 drop in (includes pool, locker room use)\n$25 one hour court rental \n\nGo to Co",
    "phone": "9516544300",
    "website": "https://app.courtreserve.com/",
    "email": "Pickleball@soboba.com",
    "photo_url": "https://cdn.filestackcontent.com/dTvduPjXSvyNoS3FOkGh",
    "has_restrooms": true,
    "has_water": true,
    "has_pro_shop": true,
    "wheelchair_accessible": true,
    "nets_provided": true,
    "skill_levels": "advanced,beginner,intermediate",
    "court_type": "dedicated"
  },
  {
    "county_slug": "riverside",
    "state": "CA",
    "verified": false,
    "name": "SoCal Pickleball Club",
    "description": "SoCal Pickleball Club is a place to play pickleball in Temecula, CA. There are 4 indoor hard and concrete courts. These are dedicated courts with permanent lines and nets. A one-time fee is required to play. The facility includes amenities like restrooms, water, lights, a pro shop or equipment store, trainers or lessons, wheelchair accessibility, and food. Reservations are available.",
    "address": "41735 Winchester Rd",
    "city": "Temecula",
    "latitude": 33.518167,
    "longitude": -117.169094,
    "indoor": true,
    "lighted": true,
    "num_courts": 4,
    "surface_type": "Hard, Concrete",
    "open_play_schedule": "Skill Based Open Play, Events, Tournaments, & Private Court Reservations",
    "fees": "Fee required — Membership is not required, you can pay as you go",
    "phone": "+19513831235",
    "website": "https://socalpickleballclub.com",
    "email": "team@socalpickleballclub.com",
    "photo_url": "https://cdn.filestackcontent.com/o8UxfUKQaiKWsRVBouMQ",
    "has_restrooms": true,
    "has_water": true,
    "has_pro_shop": true,
    "wheelchair_accessible": true,
    "nets_provided": true,
    "skill_levels": "advanced,beginner,intermediate",
    "court_type": "dedicated"
  },
  {
    "county_slug": "riverside",
    "state": "CA",
    "verified": false,
    "name": "Solera Diamond Valley Comm Association",
    "description": "The courts are private and you must be a resident of SDV or an invited guest to play.",
    "address": "5307 Paseo Famosa",
    "city": "Hemet",
    "latitude": 33.720577,
    "longitude": -117.027552,
    "indoor": false,
    "num_courts": 2,
    "surface_type": "Hard",
    "fees": "Private",
    "phone": "+16198075646",
    "website": "http://www.soleradiamondvalley.com/",
    "email": "janetlynne57@gmail.com",
    "photo_url": "https://cdn.filestackcontent.com/UhkyYGcqRF2WS5r040XM",
    "nets_provided": true,
    "court_type": "dedicated"
  },
  {
    "county_slug": "riverside",
    "state": "CA",
    "verified": false,
    "name": "Southshore Elementary School",
    "description": "Southshore Elementary School is a place to play pickleball in Menifee, CA. There is 1 outdoor asphalt court. The lines are permanent, but you'll need to bring your own net. The court is private.",
    "address": "30975 Southshore Dr",
    "city": "Menifee",
    "zip_code": "92584",
    "latitude": 33.67167,
    "longitude": -117.146042,
    "indoor": false,
    "num_courts": 1,
    "surface_type": "Asphalt",
    "fees": "Private",
    "phone": "9517753330",
    "website": "http://www.menifeeusd.org/sse",
    "photo_url": "https://cdn.filestackcontent.com/z90pU0FkQQiJpHOJyAZh",
    "nets_provided": false,
    "court_type": "dedicated"
  },
  {
    "county_slug": "riverside",
    "state": "CA",
    "verified": false,
    "name": "Spirit Park Website",
    "description": "Come play pickleball at Spirit Park Website in Menifee, CA! There are 8 outdoor concrete courts. The lines are permanent, but you'll need to bring your own net. The courts are free. The facility includes amenities like restrooms and water.",
    "address": "25507 Normandy Rd",
    "city": "Menifee",
    "zip_code": "92584",
    "latitude": 33.684417,
    "longitude": -117.213237,
    "indoor": false,
    "num_courts": 8,
    "surface_type": "Concrete",
    "fees": "Free",
    "phone": "8058152339",
    "website": "http://cityofmenifee.us/285/Parks",
    "photo_url": "https://cdn.filestackcontent.com/8tfFs0XNQ8eXAvVBmhp3",
    "has_restrooms": true,
    "has_water": true,
    "nets_provided": false,
    "skill_levels": "advanced,beginner,intermediate",
    "court_type": "dedicated",
    "hours": "Monday - Friday 8:00 a.m. - 5:00 p.m. Home Site Map Contact Us Accessibility Copyright Notices Privacy Policy /QuickLinks.aspx Government Websites by CivicPlus® Loading Loading Do Not Show Again Close Arrow Left Arrow Right [] Slideshow Left Arrow Slideshow Right Arrow"
  },
  {
    "county_slug": "riverside",
    "state": "CA",
    "verified": false,
    "name": "Suncrest Country Club",
    "description": "Come play pickleball at Suncrest Country Club in Palm Desert, CA! There are 8 outdoor hard courts. These are dedicated courts with permanent lines and nets. The courts are private. Amenities include restrooms, water, and lights.",
    "address": "73450 Country Club Dr",
    "city": "Palm Desert",
    "zip_code": "92260",
    "latitude": 33.758289,
    "longitude": -116.382607,
    "indoor": false,
    "lighted": true,
    "num_courts": 8,
    "surface_type": "Hard",
    "fees": "Private",
    "phone": "7603465866",
    "website": "https://suncrestcountryclub.com/",
    "photo_url": "https://cdn.filestackcontent.com/no7opNdCRyKs8aVcFRhy",
    "has_restrooms": true,
    "has_water": true,
    "nets_provided": true,
    "court_type": "dedicated"
  },
  {
    "county_slug": "riverside",
    "state": "CA",
    "verified": false,
    "name": "Sundial Condominiums",
    "description": "Two private asphalt courts with permanent lines and nets located within Sundial Condominiums. Play is limited to residents and their invited guests.",
    "address": "555 E Calle Begonia",
    "city": "Palm Springs",
    "latitude": 33.821343,
    "longitude": -116.514964,
    "indoor": false,
    "num_courts": 2,
    "surface_type": "Asphalt",
    "fees": "Private",
    "photo_url": "https://cdn.filestackcontent.com/HMzsi2TfQG6p7syqzpaX",
    "nets_provided": true,
    "skill_levels": "beginner,intermediate",
    "court_type": "dedicated"
  },
  {
    "county_slug": "riverside",
    "state": "CA",
    "verified": false,
    "name": "Sun Lakes Country Club",
    "description": "Gated senior community",
    "address": "850 Country Club Dr",
    "city": "Banning",
    "zip_code": "92220",
    "latitude": 33.919331,
    "longitude": -116.94121,
    "indoor": false,
    "lighted": true,
    "num_courts": 8,
    "surface_type": "Hard",
    "fees": "Private",
    "phone": "9517691103",
    "website": "http://www.sunlakescc.com/",
    "photo_url": "https://cdn.filestackcontent.com/IulUj8ctQD6B7YUgMv2L",
    "has_restrooms": true,
    "has_water": true,
    "nets_provided": true,
    "skill_levels": "beginner,intermediate",
    "court_type": "dedicated"
  },
  {
    "county_slug": "riverside",
    "state": "CA",
    "verified": false,
    "name": "Taft Park",
    "description": "Come play pickleball at Taft Park in Riverside, CA! There are 4 outdoor hard courts. The lines are permanent, and portable nets are available. The courts are free.",
    "address": "Riverside",
    "city": "Riverside",
    "latitude": 33.941565,
    "longitude": -117.373399,
    "indoor": false,
    "num_courts": 4,
    "surface_type": "Hard",
    "fees": "Free",
    "photo_url": "https://cdn.filestackcontent.com/ZOXCSDaVR7ChOxOZvey3",
    "nets_provided": true,
    "skill_levels": "advanced,beginner,intermediate",
    "court_type": "dedicated"
  },
  {
    "county_slug": "riverside",
    "state": "CA",
    "verified": false,
    "name": "Temecula Community Recreation Center",
    "description": "Temecula Community Recreation Center is one of the most popular places to play pickleball in Temecula, CA. There are 3 indoor courts. The lines are permanent, but you'll need to bring your own net. A membership is required to play.",
    "address": "30875 Rancho Vista Rd",
    "city": "Temecula",
    "zip_code": "92592",
    "latitude": 33.498941,
    "longitude": -117.123063,
    "indoor": true,
    "num_courts": 3,
    "fees": "Members only",
    "website": "https://temeculaca.gov/780/Community-Recreation-Center-CRC",
    "photo_url": "https://cdn.filestackcontent.com/LJrtJvKbRnyKtJUy62Gg",
    "nets_provided": false,
    "skill_levels": "beginner,intermediate",
    "court_type": "dedicated",
    "hours": "8 am to 5 pm"
  },
  {
    "county_slug": "riverside",
    "state": "CA",
    "verified": false,
    "name": "Temecula Pickleball Complex - Ronald Reagan Sports Park",
    "description": "Temecula Pickleball Complex - Ronald Reagan Sports Park is one of the most popular places to play pickleball in Temecula, CA. There are 17 outdoor concrete courts. These are dedicated courts with permanent lines and nets. Players have access to lights. The courts are free.",
    "address": "42569 Margarita Rd",
    "city": "Temecula",
    "latitude": 33.499473,
    "longitude": -117.120501,
    "indoor": false,
    "lighted": true,
    "num_courts": 17,
    "surface_type": "Concrete",
    "fees": "Free",
    "phone": "+19516946444",
    "website": "https://temeculaca.gov/facilities/facility/details/ronald-reagan-sports-park-18",
    "photo_url": "https://cdn.filestackcontent.com/g8h6ToS5QNeWUabuL4a9",
    "nets_provided": true,
    "skill_levels": "advanced,intermediate",
    "court_type": "dedicated",
    "hours": "8 am to 5 pm",
    "has_restrooms": true
  },
  {
    "county_slug": "riverside",
    "state": "CA",
    "verified": false,
    "name": "Tennis in a Pickle",
    "description": "Tennis in a Pickle is a place to play pickleball in Palm Desert, CA. There are 28 outdoor hard courts. These are dedicated courts with permanent lines and nets. The facility includes amenities like a pro shop or equipment store, restrooms, water, and lights. A membership is required to play. Reservations are available.",
    "address": "41430 Inverness Way",
    "city": "Palm Desert",
    "latitude": 33.748891,
    "longitude": -116.318648,
    "indoor": false,
    "lighted": true,
    "num_courts": 28,
    "surface_type": "Hard",
    "fees": "Members only",
    "phone": "+17602187461",
    "website": "https://www.tennisinapickle.com/pickleball.html",
    "photo_url": "https://cdn.filestackcontent.com/YxjhaYPQsyFrzrZJjKGm",
    "has_restrooms": true,
    "has_water": true,
    "has_pro_shop": true,
    "nets_provided": true,
    "skill_levels": "advanced,intermediate",
    "court_type": "dedicated"
  },
  {
    "county_slug": "riverside",
    "state": "CA",
    "verified": false,
    "name": "The Grove Community Church",
    "description": "The Grove Community Church is a place to play pickleball in Riverside, CA. There are 4 outdoor hard courts. These are dedicated courts with permanent lines and nets. The courts are free. You can reserve the courts. The facility includes amenities like lights, restrooms, water, and wheelchair accessibility.",
    "address": "19900 Grove Community Dr",
    "city": "Riverside",
    "latitude": 33.900125,
    "longitude": -117.315938,
    "indoor": false,
    "lighted": true,
    "num_courts": 4,
    "surface_type": "Hard",
    "fees": "Free",
    "phone": "+19515719090",
    "website": "https://www.thegrove.cc/",
    "photo_url": "https://cdn.filestackcontent.com/4GliV8SUKvHvS91y4ZCQ",
    "has_restrooms": true,
    "has_water": true,
    "wheelchair_accessible": true,
    "nets_provided": true,
    "skill_levels": "advanced,beginner,intermediate",
    "court_type": "dedicated"
  },
  {
    "county_slug": "riverside",
    "state": "CA",
    "verified": false,
    "name": "The Lakes Country Club",
    "description": "The Lakes Country Club is one of the most popular places to play pickleball in Palm Desert, CA. There are 9 outdoor clay and hard courts. These are dedicated courts with permanent lines and nets. The courts can be reserved. A membership is required to play. Players have access to restrooms, water, and lights.",
    "address": "161 Old Ranch Rd",
    "city": "Palm Desert",
    "zip_code": "92211",
    "latitude": 33.75473,
    "longitude": -116.351659,
    "indoor": false,
    "lighted": true,
    "num_courts": 9,
    "surface_type": "Clay, Hard",
    "open_play_schedule": "DAILY 7:00 a.m. - 10:00 p.m.",
    "fees": "Members only",
    "phone": "(760) 568-4321",
    "website": "http://www.thelakescc.com/",
    "email": "administration@TheLakesCC.com",
    "photo_url": "https://cdn.filestackcontent.com/OcFIKEQPTyi04S1ll7Sw",
    "has_restrooms": true,
    "has_water": true,
    "nets_provided": true,
    "skill_levels": "advanced,beginner",
    "court_type": "dedicated",
    "has_pro_shop": true
  },
  {
    "county_slug": "riverside",
    "state": "CA",
    "verified": false,
    "name": "Theodore Roosvelt Elementary School",
    "description": "These courts are for students only.",
    "address": "83200 Dr Carreon Blvd",
    "city": "Indio",
    "zip_code": "92201",
    "latitude": 33.708486,
    "longitude": -116.21313,
    "indoor": false,
    "lighted": true,
    "num_courts": 6,
    "surface_type": "Asphalt",
    "fees": "Private",
    "phone": "+17607753860",
    "website": "https://sites.google.com/desertsands.us/roosevelt-elementary/",
    "photo_url": "https://cdn.filestackcontent.com/q3RzCG7WQZiKBo1CZ6UE",
    "has_restrooms": true,
    "nets_provided": true,
    "court_type": "dedicated"
  },
  {
    "county_slug": "riverside",
    "state": "CA",
    "verified": false,
    "name": "The Pickleball Ranch",
    "description": "Come play pickleball at The Pickleball Ranch in Cherry Valley, CA! There are 4 outdoor concrete courts. These are dedicated courts with permanent lines and nets. The courts are private. Amenities include restrooms, water, and lights.",
    "address": "10486 Winesap Ave",
    "city": "Cherry Valley",
    "zip_code": "92223",
    "latitude": 33.968931,
    "longitude": -116.955016,
    "indoor": false,
    "lighted": true,
    "num_courts": 4,
    "surface_type": "Concrete",
    "fees": "Private",
    "phone": "+19097237236",
    "photo_url": "https://cdn.filestackcontent.com/gP8yCf1tSoi8kEVVFSyb",
    "has_restrooms": true,
    "has_water": true,
    "nets_provided": true,
    "skill_levels": "advanced,beginner",
    "court_type": "dedicated"
  },
  {
    "county_slug": "riverside",
    "state": "CA",
    "verified": false,
    "name": "The Salvation Army Davis Center",
    "description": "Come play pickleball at The Salvation Army Davis Center in Cathedral City, CA! There are 3 indoor wood courts. The lines are permanent, and portable nets are available. Players have access to restrooms. A one-time fee is required to play.",
    "address": "30400 Landau Blvd",
    "city": "Cathedral City",
    "latitude": 33.827765,
    "longitude": -116.475125,
    "indoor": true,
    "num_courts": 3,
    "surface_type": "Wood",
    "fees": "Fee required",
    "phone": "760-424-5820",
    "website": "https://coachellavalley.salvationarmy.org/cathedral_city_corps/",
    "photo_url": "https://cdn.filestackcontent.com/g5ixPY6TCWh4L4L75nwY",
    "has_restrooms": true,
    "nets_provided": true,
    "skill_levels": "intermediate",
    "court_type": "dedicated",
    "hours": "10 am - 2 pm"
  },
  {
    "county_slug": "riverside",
    "state": "CA",
    "verified": false,
    "name": "The Springs Country Club",
    "description": "The Springs Country Club is a place to play pickleball in Rancho Mirage, CA. There are 12 outdoor hard courts. These are dedicated courts with permanent lines and nets. Amenities include restrooms, water, lights, and a pro shop or equipment store. A membership is required to play.",
    "address": "75 Columbia Dr",
    "city": "Rancho Mirage",
    "zip_code": "92270",
    "latitude": 33.762585,
    "longitude": -116.417651,
    "indoor": false,
    "lighted": true,
    "num_courts": 12,
    "surface_type": "Hard",
    "fees": "Members only",
    "phone": "7602382723",
    "website": "http://www.springsclub.com/",
    "photo_url": "https://cdn.filestackcontent.com/GxgJDpfSleU9Qe4vTYmg",
    "has_restrooms": true,
    "has_water": true,
    "has_pro_shop": true,
    "nets_provided": true,
    "skill_levels": "beginner,intermediate",
    "court_type": "dedicated"
  },
  {
    "county_slug": "riverside",
    "state": "CA",
    "verified": false,
    "name": "Thousand Trails Palm Desert",
    "description": "Thousand Trails Palm Desert is a place to play pickleball in Palm Desert, CA. There are 8 outdoor hard courts. These are dedicated courts with permanent lines and nets. A membership is required to play. The facility includes amenities like restrooms.",
    "address": "77500 Varner Rd",
    "city": "Palm Desert",
    "zip_code": "92211",
    "latitude": 33.764488,
    "longitude": -116.309064,
    "indoor": false,
    "num_courts": 8,
    "surface_type": "Hard",
    "fees": "Members only",
    "phone": "7603451682",
    "website": "https://thousandtrails.com/california/palm-springs-rv-resort/?utm_source=yext&utm_medium=directory&utm_campaign=Yext%20Directory%20Listing",
    "photo_url": "https://cdn.filestackcontent.com/f2EukLbnT4STG39SdiAU",
    "has_restrooms": true,
    "nets_provided": true,
    "skill_levels": "beginner,intermediate",
    "court_type": "dedicated",
    "has_parking": true
  },
  {
    "county_slug": "riverside",
    "state": "CA",
    "verified": false,
    "name": "Thousand Trails RV Resort",
    "description": "Thousand Trails RV Resort is one of the most popular places to play pickleball in Menifee, CA. There are 4 outdoor concrete courts. The lines are permanent, and portable nets are available. A membership is required to play.",
    "address": "30605 Briggs Rd",
    "city": "Menifee",
    "latitude": 33.674959,
    "longitude": -117.137698,
    "indoor": false,
    "num_courts": 4,
    "surface_type": "Concrete",
    "fees": "Members only",
    "phone": "+19516794750",
    "website": "https://thousandtrails.com/california/wilderness-lakes-rv-resort/?utm_source=yext&utm_medium=directory&utm_campaign=Yext%20Directory%20Listing",
    "photo_url": "https://cdn.filestackcontent.com/Q7Qn96t4ScGGqyBndqEs",
    "nets_provided": true,
    "skill_levels": "beginner,intermediate",
    "court_type": "dedicated",
    "has_restrooms": true
  },
  {
    "county_slug": "riverside",
    "state": "CA",
    "verified": false,
    "name": "Thunderbird Country Club",
    "description": "Thunderbird Country Club is one of the most popular places to play pickleball in Coachella, CA. There are 4 outdoor courts. These are dedicated courts with permanent lines and nets. A membership is required to play.",
    "address": "71-430 hwy 111",
    "city": "Coachella",
    "latitude": 33.685077,
    "longitude": -116.178488,
    "indoor": false,
    "num_courts": 4,
    "fees": "Members only",
    "nets_provided": true,
    "skill_levels": "beginner",
    "court_type": "dedicated"
  },
  {
    "county_slug": "riverside",
    "state": "CA",
    "verified": false,
    "name": "Thunderbird Country Club",
    "description": "Come play pickleball at Thunderbird Country Club in Rancho Mirage, CA! There are 4 outdoor hard courts. These are dedicated courts with permanent lines and nets. A membership is required to play. Players have access to restrooms and water. You can’t reserve the courts.",
    "address": "70430 California Highway 111",
    "city": "Rancho Mirage",
    "latitude": 33.75844,
    "longitude": -116.435153,
    "indoor": false,
    "num_courts": 4,
    "surface_type": "Hard",
    "fees": "Members only — $80/hr. $45/half $30/p group",
    "phone": "+14422829388",
    "email": "brianjacobs77@yahoo.com",
    "photo_url": "https://cdn.filestackcontent.com/IxeH7rQ3apFwN5wTnXew",
    "has_restrooms": true,
    "has_water": true,
    "nets_provided": true,
    "skill_levels": "intermediate",
    "court_type": "dedicated"
  },
  {
    "county_slug": "riverside",
    "state": "CA",
    "verified": false,
    "name": "Trilogy at the Polo Club",
    "description": "Trilogy at the Polo Club is one of the most popular places to play pickleball in Indio, CA. There are 8 outdoor hard courts. These are dedicated courts with permanent lines and nets. You can’t reserve the courts. The facility includes amenities like restrooms, water, and lights. The courts are private.",
    "address": "51750 Polo Club Dr",
    "city": "Indio",
    "zip_code": "92201",
    "latitude": 33.672671,
    "longitude": -116.223797,
    "indoor": false,
    "lighted": true,
    "num_courts": 8,
    "surface_type": "Hard",
    "fees": "Private",
    "phone": "7143364432",
    "website": "https://www.mytrilogylife.com/polo/",
    "photo_url": "https://cdn.filestackcontent.com/C6BSztb5R3Kca3VJ7MVZ",
    "has_restrooms": true,
    "has_water": true,
    "nets_provided": true,
    "skill_levels": "advanced",
    "court_type": "dedicated"
  },
  {
    "county_slug": "riverside",
    "state": "CA",
    "verified": false,
    "name": "Trilogy La Quinta",
    "description": "Trilogy La Quinta is a place to play pickleball in La Quinta, CA. There are 4 outdoor hard courts. The lines are permanent, but you'll need to bring your own net. Amenities include lights. A one-time fee is required to play. Reservations are available.",
    "address": "60750 Trilogy Pkwy",
    "city": "La Quinta",
    "zip_code": "92253",
    "latitude": 33.606804,
    "longitude": -116.244322,
    "indoor": false,
    "lighted": true,
    "num_courts": 4,
    "surface_type": "Hard",
    "open_play_schedule": "Reservations may be made up to 7 days in advance.",
    "fees": "Fee required",
    "phone": "(760) 777-6052",
    "website": "https://www.mytrilogylaquinta.com/sports-complex/",
    "photo_url": "https://cdn.filestackcontent.com/QA1hnKtkSpGXtDGdnpVk",
    "nets_provided": false,
    "skill_levels": "advanced,intermediate",
    "court_type": "dedicated",
    "hours": "Monday to Friday 8:00 a.m. - 4:00 p.m. (760) 777-6059 FirstService After-Hours Customer Care: (800) 428-5588 60-750 Trilogy Parkway La Quinta, CA 92253 Member Services Desk Hours: Monday through Friday 8:30 a.m. - 5:00 p.m. Saturday and Sunday 9:00 a.m. - 3:00 p.m. (760) 777-4001 (760) 777-6052 © Copyright 2026 Trilogy at La Quinta Maintenance Association | Community Website by HOA Sites | Terms of Use | Admin"
  },
  {
    "county_slug": "riverside",
    "state": "CA",
    "verified": false,
    "name": "Two Springs RV Resort",
    "description": "Two Springs RV Resort is a place to play pickleball in Desert Hot Springs, CA. There are 4 outdoor hard courts. These are dedicated courts with permanent lines and nets. The facility includes amenities like restrooms, water, and lights. The courts are private.",
    "address": "14200 N Indian Canyon Dr",
    "city": "Desert Hot Springs",
    "zip_code": "92240",
    "latitude": 33.945021,
    "longitude": -116.544046,
    "indoor": false,
    "lighted": true,
    "num_courts": 4,
    "surface_type": "Hard",
    "fees": "Private",
    "phone": "7602516162",
    "website": "http://www.twospringsrv.com/",
    "photo_url": "https://cdn.filestackcontent.com/5CPvr33eSDWcsCpBtp2g",
    "has_restrooms": true,
    "has_water": true,
    "nets_provided": true,
    "court_type": "dedicated"
  },
  {
    "county_slug": "riverside",
    "state": "CA",
    "verified": false,
    "name": "Valley Wide Regional Park",
    "description": "Valley Wide Regional Park is a place to play pickleball in San Jacinto, CA. There are 6 outdoor hard courts. The lines are permanent, but you'll need to bring your own net. The courts are free. Amenities include restrooms, water, and lights.",
    "address": "901 W Esplande Ave",
    "city": "San Jacinto",
    "zip_code": "92582",
    "latitude": 33.773935,
    "longitude": -116.975967,
    "indoor": false,
    "lighted": true,
    "num_courts": 6,
    "surface_type": "Hard",
    "fees": "Free",
    "phone": "9516541505",
    "website": "http://www.gorecreation.org/",
    "photo_url": "https://cdn.filestackcontent.com/fTstlyD1SCuso5GvRdqw",
    "has_restrooms": true,
    "has_water": true,
    "nets_provided": false,
    "skill_levels": "beginner,intermediate",
    "court_type": "dedicated"
  },
  {
    "county_slug": "riverside",
    "state": "CA",
    "verified": false,
    "name": "Victoria Club",
    "description": "Come play pickleball at Victoria Club in Riverside, CA! There are 4 outdoor concrete courts. These are dedicated courts with permanent lines and nets. Players have access to restrooms, water, lights, and a pro shop or equipment store. A membership is required to play.",
    "address": "2521 Arroyo Drive",
    "city": "Riverside",
    "latitude": 33.960727,
    "longitude": -117.367064,
    "indoor": false,
    "lighted": true,
    "num_courts": 4,
    "surface_type": "Concrete",
    "fees": "Members only",
    "phone": "+19513137250",
    "website": "https://www.victoriaclub.com/",
    "email": "bob.henry@henry5463.com",
    "photo_url": "https://cdn.filestackcontent.com/SY3fOtQlap9PXjBHkCxg",
    "has_restrooms": true,
    "has_water": true,
    "has_pro_shop": true,
    "nets_provided": true,
    "skill_levels": "beginner,intermediate",
    "court_type": "dedicated"
  },
  {
    "county_slug": "riverside",
    "state": "CA",
    "verified": false,
    "name": "Vim + Vigor Canyon Crest",
    "description": "Vim + Vigor Canyon Crest is one of the most popular places to play pickleball in Riverside, CA. There is 1 outdoor concrete court. This is a dedicated court with a permanent net and lines. A membership is required to play. Reservations are available. Players have access to locker rooms, restrooms, and water.",
    "address": "5225 Canyon Crest Drive",
    "city": "Riverside",
    "latitude": 33.955268,
    "longitude": -117.330268,
    "indoor": false,
    "num_courts": 1,
    "surface_type": "Concrete",
    "open_play_schedule": "Play when the court is reserved, required membership for access.",
    "fees": "Members only",
    "phone": "9516136963",
    "website": "https://vnvfit.com/locations/canyon-crest?utm_campaign=Google%20Business%20Profile&utm_source=ppc&utm_medium=Canyon%20Crest%20-%20SoCi%20GMB",
    "email": "ayadsd12@gmail.com",
    "photo_url": "https://cdn.filestackcontent.com/kHTTTpjTRWZHQJZZ3q0X",
    "has_restrooms": true,
    "has_water": true,
    "nets_provided": true,
    "skill_levels": "beginner,intermediate",
    "court_type": "dedicated",
    "hours": "4am - 11pm"
  },
  {
    "county_slug": "riverside",
    "state": "CA",
    "verified": false,
    "name": "Wardman Park",
    "description": "Come play pickleball at Wardman Park in Desert Hot Springs, CA! There are 4 outdoor hard courts. These are dedicated courts with permanent lines and nets. Amenities include restrooms, water, and lights. The courts are free.",
    "address": "66150 Cactus Dr d",
    "city": "Desert Hot Springs",
    "latitude": 33.969073,
    "longitude": -116.506215,
    "indoor": false,
    "lighted": true,
    "num_courts": 4,
    "surface_type": "Hard",
    "fees": "Free",
    "phone": "7603291312",
    "website": "https://www.cityofdhs.org/park-facilities/",
    "photo_url": "https://cdn.filestackcontent.com/UsMZrGonTniTaXIEetM7",
    "has_restrooms": true,
    "has_water": true,
    "nets_provided": true,
    "skill_levels": "intermediate",
    "court_type": "dedicated",
    "hours": "7 am to 10 pm"
  },
  {
    "county_slug": "riverside",
    "state": "CA",
    "verified": false,
    "name": "Westin Mission Hills Golf Resort & Spa",
    "description": "Come play pickleball at Westin Mission Hills Golf Resort & Spa in Rancho Mirage, CA! There are 12 outdoor concrete courts. These are dedicated courts with permanent lines and nets. A one-time fee is required to play. Amenities include restrooms and a pro shop or equipment store.",
    "address": "71333 Dinah Shore Dr",
    "city": "Rancho Mirage",
    "zip_code": "92270",
    "latitude": 33.800388,
    "longitude": -116.418562,
    "indoor": false,
    "num_courts": 12,
    "surface_type": "Concrete",
    "fees": "Fee required",
    "phone": "7608611232",
    "website": "https://www.marriott.com/hotels/travel/pspwi-the-westin-mission-hills-golf-resort-and-spa/?scid=bb1a189a-fec3-4d19-a255-54ba596febe2&y_source=1_MTUwMjk2OC03MTUtbG9jYXRpb24ud2Vic2l0ZQ%3D%3D",
    "photo_url": "https://cdn.filestackcontent.com/irkSYIxTmWjKDN51VXwg",
    "has_restrooms": true,
    "has_pro_shop": true,
    "nets_provided": true,
    "skill_levels": "beginner,intermediate",
    "court_type": "dedicated"
  },
  {
    "county_slug": "riverside",
    "state": "CA",
    "verified": false,
    "name": "Woodland Park",
    "description": "Come play pickleball at Woodland Park in Moreno Valley, CA! There are 6 outdoor concrete and hard courts. These are dedicated courts with permanent lines and nets. Amenities include lights, restrooms, water, and trainers or lessons. The courts are free.",
    "address": "25705 Cactus Avenue",
    "city": "Moreno Valley",
    "latitude": 33.90892,
    "longitude": -117.21317,
    "indoor": false,
    "lighted": true,
    "num_courts": 6,
    "surface_type": "Concrete, Hard",
    "fees": "Free",
    "website": "https://www.moreno-valley.ca.us/resident_services/park_rec/pdfs/prks_map.pdf",
    "photo_url": "https://cdn.filestackcontent.com/33F6piCPRhKSEIxZr66I",
    "has_restrooms": true,
    "has_water": true,
    "nets_provided": true,
    "skill_levels": "advanced,intermediate",
    "court_type": "dedicated"
  },
  {
    "county_slug": "riverside",
    "state": "CA",
    "verified": false,
    "name": "Woodland Park",
    "description": "Woodland Park is a place to play pickleball in United States, California. There are 6 outdoor hard courts. These are dedicated courts with permanent lines and nets. The courts are free. The facility includes amenities like restrooms, water, and lights.",
    "address": "Cactus Ave",
    "city": "United States",
    "zip_code": "92553",
    "latitude": 33.909895,
    "longitude": -117.234255,
    "indoor": false,
    "lighted": true,
    "num_courts": 6,
    "surface_type": "Hard",
    "fees": "Free",
    "phone": "(951) 413-3000",
    "website": "https://www.bryoticworlds.com/post/everything-about-woodland-park-moreno-valley",
    "photo_url": "https://cdn.filestackcontent.com/oHtTMUeYQ5So5YL3QEA0",
    "has_restrooms": true,
    "has_water": true,
    "nets_provided": true,
    "skill_levels": "advanced,intermediate",
    "court_type": "dedicated"
  },
  {
    "county_slug": "riverside",
    "state": "CA",
    "verified": false,
    "name": "Ysmael Villegas Community Center",
    "description": "Ysmael Villegas Community Center is one of the most popular places to play pickleball in Riverside, CA. There are 2 indoor wood courts. The lines are permanent, and portable nets are available. Players have access to restrooms, wheelchair accessibility, and lights. A one-time fee is required to play.",
    "address": "Villegas Park",
    "city": "Riverside",
    "latitude": 33.934286,
    "longitude": -117.397358,
    "indoor": true,
    "lighted": true,
    "num_courts": 2,
    "surface_type": "Wood",
    "fees": "Fee required",
    "phone": "(951) 351-6142",
    "website": "https://www.riversideca.gov/park_rec/facilities-parks/indoor-facilities/community-centers",
    "email": "villegascc@riversideca.gov",
    "photo_url": "https://cdn.filestackcontent.com/o7N9uiTSHO7FrTQlbVRR",
    "has_restrooms": true,
    "wheelchair_accessible": true,
    "nets_provided": true,
    "skill_levels": "beginner,intermediate",
    "court_type": "dedicated",
    "hours": "9am - 5pm"
  }
]