[
  {
    "county_slug": "sacramento",
    "state": "CA",
    "verified": false,
    "name": "ACC Senior Services",
    "description": "ACC Senior Services is one of the most popular places to play pickleball in Sacramento, CA. There are 4 outdoor acrylic courts. The lines are permanent, but you'll need to bring your own net. The facility includes amenities like food, restrooms, and water. A one-time fee is required to play.",
    "address": "7334 Parkcity Dr",
    "city": "Sacramento",
    "zip_code": "95831",
    "latitude": 38.492663,
    "longitude": -121.518884,
    "indoor": false,
    "num_courts": 4,
    "surface_type": "Acrylic",
    "fees": "Fee required",
    "phone": "(916) 393-9026",
    "website": "http://www.accsv.org/",
    "photo_url": "https://cdn.filestackcontent.com/pgr2eKtBTMuWHHhpbdCh",
    "has_restrooms": true,
    "has_water": true,
    "nets_provided": false,
    "skill_levels": "beginner,intermediate",
    "court_type": "dedicated"
  },
  {
    "county_slug": "sacramento",
    "state": "CA",
    "verified": false,
    "name": "Ace Pickleball Club - Folsom",
    "description": "Ace Pickleball Club - Folsom is a place to play pickleball in Folsom, CA. There are 15 indoor acrylic courts. These are dedicated courts with permanent lines and nets. A membership is required to play. The facility includes amenities like food, lights, a pro shop or equipment store, trainers or lessons, wheelchair accessibility, water, and restrooms. The courts can be reserved.",
    "address": "9522 Greenback Lane",
    "city": "Folsom",
    "latitude": 38.676884,
    "longitude": -121.199337,
    "indoor": true,
    "lighted": true,
    "num_courts": 15,
    "surface_type": "Acrylic",
    "fees": "Members only — 109 per month - see website for full details",
    "phone": "+19164055735",
    "website": "https://www.acepickleballclub.com",
    "email": "folsomca@acepickleballclub.com",
    "photo_url": "https://cdn.filestackcontent.com/tzqhVx8zS9m9yZTYHY29",
    "has_restrooms": true,
    "has_water": true,
    "has_pro_shop": true,
    "wheelchair_accessible": true,
    "nets_provided": true,
    "skill_levels": "advanced,beginner,intermediate",
    "court_type": "dedicated",
    "has_ball_machine": true
  },
  {
    "county_slug": "sacramento",
    "state": "CA",
    "verified": false,
    "name": "Andy Morin Sports Complex",
    "description": "Come play pickleball at Andy Morin Sports Complex in Folsom, CA! There are 7 indoor wood courts. The lines are permanent, and portable nets are available. A one-time fee is required to play. Amenities include food, restrooms, water, lights, wheelchair accessibility, and youth programming.",
    "address": "66 Clarksville Rd",
    "city": "Folsom",
    "zip_code": "95630",
    "latitude": 38.654637,
    "longitude": -121.129639,
    "indoor": true,
    "lighted": true,
    "num_courts": 7,
    "surface_type": "Wood",
    "fees": "Fee required — $5 / participant",
    "phone": "+19164616661",
    "website": "https://www.folsom.ca.us/government/parks-recreation/recreation/programs/adult-programs/sports",
    "email": "amsc@folsom.ca.us",
    "photo_url": "https://cdn.filestackcontent.com/lly6ZWQ2T6OMu1pHKxAf",
    "has_restrooms": true,
    "has_water": true,
    "wheelchair_accessible": true,
    "nets_provided": true,
    "skill_levels": "advanced,beginner,intermediate",
    "court_type": "dedicated"
  },
  {
    "county_slug": "sacramento",
    "state": "CA",
    "verified": false,
    "name": "Ashton Park",
    "description": "Ashton Park is one of the most popular places to play pickleball in Sacramento, CA. There are 3 outdoor hard courts. The lines are overlaid on a tennis court, so the net is a little taller than a normal pickleball net. The courts are free.",
    "address": "4329 Ashton Dr",
    "city": "Sacramento",
    "zip_code": "95864",
    "latitude": 38.576245,
    "longitude": -121.363678,
    "indoor": false,
    "num_courts": 3,
    "surface_type": "Hard",
    "fees": "Free",
    "phone": "+19168085200",
    "website": "https://www.morpd.com/1-ashton-park",
    "photo_url": "https://cdn.filestackcontent.com/O7gOJGlrTDWlwNh2GQUj",
    "skill_levels": "beginner,intermediate",
    "court_type": "dedicated",
    "has_restrooms": true
  },
  {
    "county_slug": "sacramento",
    "state": "CA",
    "verified": false,
    "name": "Batey Park",
    "description": "Come play pickleball at Batey Park in Elk Grove, CA! There are 3 outdoor acrylic courts. The lines are overlaid on a tennis court, so the net is a little taller than a normal pickleball net. The courts are free.",
    "address": "6820 Seasons Dr",
    "city": "Elk Grove",
    "latitude": 38.418863,
    "longitude": -121.423938,
    "indoor": false,
    "num_courts": 3,
    "surface_type": "Acrylic",
    "fees": "Free",
    "phone": "9164055688",
    "website": "https://cosumnescsd.gov/588/Batey-Park",
    "photo_url": "https://cdn.filestackcontent.com/UKdTOPLcRLuRKxmOrdYu",
    "skill_levels": "beginner,intermediate",
    "court_type": "dedicated"
  },
  {
    "county_slug": "sacramento",
    "state": "CA",
    "verified": false,
    "name": "Broadstone Sports Club",
    "description": "Broadstone Sports Club is a place to play pickleball in Folsom, CA. There are 11 asphalt courts. 3 are indoors and 8 are outdoors. These are dedicated courts with permanent lines and nets. A membership is required to play. The courts can be reserved. The facility includes amenities like food, restrooms, water, lights, locker rooms, trainers or lessons, and wheelchair accessibility.",
    "address": "820 Halidon Way",
    "city": "Folsom",
    "zip_code": "95630",
    "latitude": 38.649765,
    "longitude": -121.135957,
    "indoor": false,
    "lighted": true,
    "num_courts": 11,
    "surface_type": "Asphalt",
    "fees": "Members only",
    "phone": "9169839180",
    "website": "https://www.sparetimesportsclubs.com/broadstone",
    "email": "bscpickleball@sparetimesportsclubs.com",
    "photo_url": "https://cdn.filestackcontent.com/8VxuKtEeRTaZVT2KmmsH",
    "has_restrooms": true,
    "has_water": true,
    "wheelchair_accessible": true,
    "nets_provided": true,
    "skill_levels": "beginner,intermediate",
    "court_type": "dedicated"
  },
  {
    "county_slug": "sacramento",
    "state": "CA",
    "verified": false,
    "name": "Cabrillo Park",
    "description": "Cabrillo Park is a place to play pickleball in Sacramento, CA. There are 2 outdoor hard courts. The lines are overlaid on a tennis court, so the net is a little taller than a normal pickleball net. The courts cannot be reserved. The facility includes amenities like lights. The courts are free.",
    "address": "1825 67th Ave",
    "city": "Sacramento",
    "zip_code": "95822",
    "latitude": 38.490485,
    "longitude": -121.494861,
    "indoor": false,
    "lighted": true,
    "num_courts": 2,
    "surface_type": "Hard",
    "fees": "Free",
    "phone": "+19168085011",
    "website": "https://www.cityofsacramento.org/ParksandRec/Parks/Park-Directory/South-Sacramento/Cabrillo-Park",
    "photo_url": "https://cdn.filestackcontent.com/GggnMlUvQg6Y9nMPVmr9",
    "skill_levels": "beginner,intermediate",
    "court_type": "dedicated"
  },
  {
    "county_slug": "sacramento",
    "state": "CA",
    "verified": false,
    "name": "California Middle School",
    "description": "California Middle School is a place to play pickleball in Sacramento, CA. The courts are free.",
    "address": "1600 Vallejo Way",
    "city": "Sacramento",
    "zip_code": "95818",
    "latitude": 38.551562,
    "longitude": -121.497426,
    "indoor": false,
    "fees": "Free",
    "phone": "(916) 395-5302",
    "website": "https://calmiddle.scusd.edu/",
    "email": "sowakathie@gmail.com",
    "photo_url": "https://cdn.filestackcontent.com/eewlPtMnRxCkJlSnmnH6",
    "skill_levels": "beginner,intermediate"
  },
  {
    "county_slug": "sacramento",
    "state": "CA",
    "verified": false,
    "name": "California State University, Sacramento",
    "description": "California State University, Sacramento is a place to play pickleball in Sacramento, CA. There are 8 outdoor hard courts. The lines are permanent, but you'll need to bring your own net. The courts are private. Players have access to restrooms and water.",
    "address": "6000 J St",
    "city": "Sacramento",
    "zip_code": "95819",
    "latitude": 38.559663,
    "longitude": -121.424903,
    "indoor": false,
    "num_courts": 8,
    "surface_type": "Hard",
    "fees": "Private",
    "phone": "9162786011",
    "website": "https://www.csus.edu/",
    "photo_url": "https://cdn.filestackcontent.com/9ygxFmg7Qte9Ww7FR8KS",
    "has_restrooms": true,
    "has_water": true,
    "nets_provided": false,
    "skill_levels": "beginner",
    "court_type": "dedicated",
    "has_parking": true
  },
  {
    "county_slug": "sacramento",
    "state": "CA",
    "verified": false,
    "name": "Campus Commons Nepenthe Clubhouse",
    "description": "Must be a guest of resident.",
    "address": "1131 Commons Dr",
    "city": "Sacramento",
    "zip_code": "95825",
    "latitude": 38.565336,
    "longitude": -121.409423,
    "indoor": false,
    "num_courts": 4,
    "surface_type": "Hard",
    "fees": "Private",
    "phone": "9169298380",
    "photo_url": "https://cdn.filestackcontent.com/cR8JNDZsTay2KA4cYTUA",
    "has_restrooms": true,
    "has_water": true,
    "nets_provided": true,
    "skill_levels": "beginner,intermediate",
    "court_type": "dedicated"
  },
  {
    "county_slug": "sacramento",
    "state": "CA",
    "verified": false,
    "name": "Carmichael Park",
    "description": "Carmichael Park is one of the most popular places to play pickleball in Carmichael, CA. There are 2 outdoor hard courts. The lines are overlaid on a tennis court, so the net is a little taller than a normal pickleball net. Amenities include restrooms, water, and lights. The courts are free.",
    "address": "5750 Grant Ave",
    "city": "Carmichael",
    "zip_code": "95608",
    "latitude": 38.629305,
    "longitude": -121.329295,
    "indoor": false,
    "lighted": true,
    "num_courts": 2,
    "surface_type": "Hard",
    "fees": "Free",
    "phone": "(916) 485-5322",
    "website": "http://carmichaelpark.com/",
    "photo_url": "https://cdn.filestackcontent.com/4CA4SshTfG0GgtJkCfzW",
    "has_restrooms": true,
    "has_water": true,
    "skill_levels": "beginner",
    "court_type": "dedicated"
  },
  {
    "county_slug": "sacramento",
    "state": "CA",
    "verified": false,
    "name": "Cosumnes River College",
    "description": "Charge for Parking when classes are in session. Free parking on the weekends.",
    "address": "8401 Center Pkwy",
    "city": "Sacramento",
    "latitude": 38.454806,
    "longitude": -121.421511,
    "indoor": false,
    "num_courts": 8,
    "surface_type": "Hard",
    "fees": "Free",
    "phone": "+19166917088",
    "website": "https://www.crchawks.com/information/facilities/tennis",
    "photo_url": "https://cdn.filestackcontent.com/lXgNhNYYRu6Dongp3fRj",
    "nets_provided": true,
    "skill_levels": "beginner",
    "court_type": "dedicated",
    "has_parking": true
  },
  {
    "county_slug": "sacramento",
    "state": "CA",
    "verified": false,
    "name": "Cottage Park",
    "description": "Cottage Park is a place to play pickleball in Sacramento, CA. There are 2 outdoor hard courts. The lines are overlaid on a tennis court, so the net is a little taller than a normal pickleball net. Players have access to restrooms. The courts are free. Reservations are not available.",
    "address": "2933 Cottage Way",
    "city": "Sacramento",
    "latitude": 38.603593,
    "longitude": -121.39464,
    "indoor": false,
    "num_courts": 2,
    "surface_type": "Hard",
    "fees": "Free",
    "phone": "+19169273802",
    "website": "https://www.fecrpd.com/cottage-park",
    "photo_url": "https://cdn.filestackcontent.com/5WTAm1A8S8mHZavcnLF2",
    "has_restrooms": true,
    "skill_levels": "beginner,intermediate",
    "court_type": "dedicated",
    "has_parking": true
  },
  {
    "county_slug": "sacramento",
    "state": "CA",
    "verified": false,
    "name": "Cresta Park",
    "description": "Cresta Park is one of the most popular places to play pickleball in Sacramento, CA. There is 1 outdoor hard court. The lines are overlaid on a tennis court, so the net is a little taller than a normal pickleball net. The court is free.",
    "address": "4033 Cresta Way",
    "city": "Sacramento",
    "zip_code": "95864",
    "latitude": 38.592469,
    "longitude": -121.367919,
    "indoor": false,
    "num_courts": 1,
    "surface_type": "Hard",
    "fees": "Free",
    "phone": "+19164836069",
    "website": "https://www.aprpd.org/?page_id=31",
    "photo_url": "https://cdn.filestackcontent.com/UtQsl5GVSGWGXeM1amyZ",
    "skill_levels": "beginner,intermediate",
    "court_type": "dedicated"
  },
  {
    "county_slug": "sacramento",
    "state": "CA",
    "verified": false,
    "name": "Crosswoods Community Park",
    "description": "Crosswoods Community Park is a place to play pickleball in Citrus Heights, CA. There are 2 outdoor hard courts. The lines are overlaid on a tennis court, so the net is a little taller than a normal pickleball net. Players have access to restrooms and water. The courts are free.",
    "address": "6742 Auburn Blvd",
    "city": "Citrus Heights",
    "zip_code": "95621",
    "latitude": 38.687676,
    "longitude": -121.307673,
    "indoor": false,
    "num_courts": 2,
    "surface_type": "Hard",
    "fees": "Free",
    "phone": "(916) 725-1585",
    "website": "http://www.sunriseparks.com/",
    "photo_url": "https://cdn.filestackcontent.com/MgyuHWaFQPOzgH2lA4bG",
    "has_restrooms": true,
    "has_water": true,
    "skill_levels": "beginner",
    "court_type": "dedicated",
    "hours": "8 am to 7 pm"
  },
  {
    "county_slug": "sacramento",
    "state": "CA",
    "verified": false,
    "name": "Curtis Park",
    "description": "Curtis Park is a place to play pickleball in Sacramento, CA. There are 2 outdoor hard courts. The lines are overlaid on a tennis court, so the net is a little taller than a normal pickleball net. The courts are free. The facility includes amenities like lights.",
    "address": "E Curtis Dr",
    "city": "Sacramento",
    "zip_code": "95818",
    "latitude": 38.54363,
    "longitude": -121.479543,
    "indoor": false,
    "lighted": true,
    "num_courts": 2,
    "surface_type": "Hard",
    "fees": "Free",
    "phone": "9169524961",
    "website": "http://www.cityofsacramento.org/",
    "photo_url": "https://cdn.filestackcontent.com/yxOn9HNgRLGhEMFFCKP0",
    "skill_levels": "beginner,intermediate",
    "court_type": "dedicated"
  },
  {
    "county_slug": "sacramento",
    "state": "CA",
    "verified": false,
    "name": "David A. Simpson Park",
    "description": "There can actually be 4 Pickleball courts with 4 portable nets here.",
    "address": "9565 Crisswell Dr",
    "city": "Elk Grove",
    "zip_code": "95624",
    "latitude": 38.41573,
    "longitude": -121.340687,
    "indoor": false,
    "num_courts": 2,
    "surface_type": "Hard",
    "fees": "Free",
    "phone": "(916) 405-5600",
    "website": "https://www.yourcsd.com/632/Simpson-Park",
    "photo_url": "https://cdn.filestackcontent.com/dWfq5NpSRxmcwneSj0SA",
    "nets_provided": false,
    "skill_levels": "beginner,intermediate",
    "court_type": "dedicated"
  },
  {
    "county_slug": "sacramento",
    "state": "CA",
    "verified": false,
    "name": "Del Norte Club",
    "description": "Del Norte Club is a place to play pickleball in Sacramento, CA. There are 6 outdoor asphalt courts. These are dedicated courts with permanent lines and nets. Players have access to restrooms and water. A membership is required to play. The courts can be reserved.",
    "address": "3040 Becerra Way",
    "city": "Sacramento",
    "zip_code": "95821",
    "latitude": 38.619531,
    "longitude": -121.371878,
    "indoor": false,
    "num_courts": 6,
    "surface_type": "Asphalt",
    "fees": "Members only",
    "phone": "(916) 483-5111",
    "website": "https://delnorteclub.com/",
    "email": "clubinfo@delnorteclub.com",
    "photo_url": "https://cdn.filestackcontent.com/f38XFUeR2M87n71WfOUw",
    "has_restrooms": true,
    "has_water": true,
    "nets_provided": true,
    "skill_levels": "advanced,beginner,intermediate",
    "court_type": "dedicated"
  },
  {
    "county_slug": "sacramento",
    "state": "CA",
    "verified": false,
    "name": "Eastern Oak Park",
    "description": "Come play pickleball at Eastern Oak Park in Sacramento, CA! There are 6 outdoor asphalt courts. These are dedicated courts with permanent lines and nets. The courts are free. The facility includes amenities like restrooms and water.",
    "address": "3127 Eastern Ave",
    "city": "Sacramento",
    "zip_code": "95821",
    "latitude": 38.622755,
    "longitude": -121.366163,
    "indoor": false,
    "num_courts": 6,
    "surface_type": "Asphalt",
    "fees": "Free",
    "phone": "+14132102017",
    "website": "http://morpd.com/",
    "email": "kalus22@comcast.net",
    "photo_url": "https://cdn.filestackcontent.com/xxaENWMQkqGIf7jxNACp",
    "has_restrooms": true,
    "has_water": true,
    "nets_provided": true,
    "skill_levels": "intermediate",
    "court_type": "dedicated"
  },
  {
    "county_slug": "sacramento",
    "state": "CA",
    "verified": false,
    "name": "Ed Mitchell Tennis Courts",
    "description": "These are strictly tennis courts and need your own chalk to draw your lines if you want.",
    "address": "219 Briarcliff Drive",
    "city": "Folsom",
    "latitude": 38.676695,
    "longitude": -121.15056,
    "indoor": false,
    "lighted": true,
    "num_courts": 8,
    "surface_type": "Concrete",
    "fees": "Free",
    "photo_url": "https://cdn.filestackcontent.com/SCNAAYzjSdG3tRwzwqof",
    "has_restrooms": true,
    "skill_levels": "advanced,beginner,intermediate",
    "court_type": "shared"
  },
  {
    "county_slug": "sacramento",
    "state": "CA",
    "verified": false,
    "name": "Elks Lodge",
    "description": "Elks Lodge is one of the most popular places to play pickleball in Sacramento, CA. There are 3 indoor hard courts. The lines are permanent, and portable nets are available. A one-time fee is required to play. Amenities include lights.",
    "address": "6446 Riverside Blvd",
    "city": "Sacramento",
    "zip_code": "95831",
    "latitude": 38.510934,
    "longitude": -121.543838,
    "indoor": true,
    "lighted": true,
    "num_courts": 3,
    "surface_type": "Hard",
    "fees": "Fee required",
    "phone": "(916) 422-6666",
    "website": "http://www.elks6.com/",
    "email": "lodge@elks6.com",
    "photo_url": "https://cdn.filestackcontent.com/TSqw9X3Rpqd5MZpvONyl",
    "nets_provided": true,
    "skill_levels": "beginner,intermediate",
    "court_type": "dedicated"
  },
  {
    "county_slug": "sacramento",
    "state": "CA",
    "verified": false,
    "name": "Eugene H. Ahner Park",
    "description": "Eugene H. Ahner Park is a place to play pickleball in Carmichael, CA. There is 1 outdoor hard court. The lines are overlaid on a tennis court, so the net is a little taller than a normal pickleball net. The court is free. Players have access to lights.",
    "address": "5516 Manzanita Ave",
    "city": "Carmichael",
    "zip_code": "95608",
    "latitude": 38.66626,
    "longitude": -121.32688,
    "indoor": false,
    "lighted": true,
    "num_courts": 1,
    "surface_type": "Hard",
    "fees": "Free",
    "phone": "(916) 725-1585",
    "website": "http://www.sunriseparks.com/",
    "photo_url": "https://cdn.filestackcontent.com/oeOzzW04QVOIZLlQPzCg",
    "skill_levels": "beginner",
    "court_type": "dedicated",
    "hours": "8 am to 7 pm"
  },
  {
    "county_slug": "sacramento",
    "state": "CA",
    "verified": false,
    "name": "Exploration Park",
    "description": "Come play pickleball at Exploration Park in Rancho Cordova, CA! There are 2 outdoor concrete courts. These are dedicated courts with permanent lines and nets. The courts are free.",
    "address": "12192 Hetch Hechy Dr",
    "city": "Rancho Cordova",
    "latitude": 38.554909,
    "longitude": -121.219901,
    "indoor": false,
    "num_courts": 2,
    "surface_type": "Concrete",
    "fees": "Free",
    "website": "https://crpd.com/upcoming-parks/exploration-park/",
    "photo_url": "https://cdn.filestackcontent.com/hBaRRWAXQNqkMwmRc3rW",
    "nets_provided": true,
    "skill_levels": "beginner,intermediate",
    "court_type": "dedicated"
  },
  {
    "county_slug": "sacramento",
    "state": "CA",
    "verified": false,
    "name": "Folsom Lake College",
    "description": "Folsom Lake College is one of the most popular places to play pickleball in Folsom, CA. There are 12 outdoor hard courts. The lines are permanent, but you'll need to bring your own net. The courts are free. Players have access to water and lights.",
    "address": "10 College Pkwy",
    "city": "Folsom",
    "latitude": 38.662453,
    "longitude": -121.128189,
    "indoor": false,
    "lighted": true,
    "num_courts": 12,
    "surface_type": "Hard",
    "fees": "Free",
    "website": "https://flcfalcons.com/facilties/Falcons_Tennis_Complex",
    "photo_url": "https://cdn.filestackcontent.com/U6T662ckQGKPTnC7bGv1",
    "has_water": true,
    "nets_provided": false,
    "skill_levels": "beginner",
    "court_type": "dedicated",
    "has_parking": true
  },
  {
    "county_slug": "sacramento",
    "state": "CA",
    "verified": false,
    "name": "Galt Community Park",
    "description": "4 Enclosed Pickle Ball only courts, 3 Tennis/Pickle Ball courts.",
    "address": "1000 Walnut Avenue",
    "city": "Galt",
    "latitude": 38.278724,
    "longitude": -121.290263,
    "indoor": false,
    "num_courts": 7,
    "surface_type": "Concrete",
    "fees": "Free",
    "phone": "+1 (209) 366-7180",
    "website": "https://www.cityofgalt.org/government/parks-recreation/parks/galt-community-park",
    "photo_url": "https://cdn.filestackcontent.com/S7MQbAf5QOC2Iv845pMb",
    "nets_provided": true,
    "skill_levels": "intermediate",
    "court_type": "dedicated"
  },
  {
    "county_slug": "sacramento",
    "state": "CA",
    "verified": false,
    "name": "Garcia Bend Park",
    "description": "Garcia Bend Park is one of the most popular places to play pickleball in Sacramento, CA. There are 4 outdoor concrete courts. These are dedicated courts with permanent lines and nets. Reservations are not available. The facility includes amenities like lights. The courts are free.",
    "address": "7654 Pocket Rd",
    "city": "Sacramento",
    "zip_code": "95831",
    "latitude": 38.480055,
    "longitude": -121.541042,
    "indoor": false,
    "lighted": true,
    "num_courts": 4,
    "surface_type": "Concrete",
    "fees": "Free",
    "phone": "(916) 808-5200",
    "website": "https://www.cityofsacramento.org/ParksandRec/Parks/Park-Directory/Pocket/Garcia-Bend-Park",
    "photo_url": "https://cdn.filestackcontent.com/3A5r2p74SleYxsRvzqAb",
    "nets_provided": true,
    "skill_levels": "advanced,beginner,intermediate",
    "court_type": "dedicated"
  },
  {
    "county_slug": "sacramento",
    "state": "CA",
    "verified": false,
    "name": "Gibbons Community Park",
    "description": "Gibbons Community Park is one of the most popular places to play pickleball in Carmichael, CA. There are 6 outdoor asphalt courts. These are dedicated courts with permanent lines and nets. Players have access to restrooms and water. The courts are free.",
    "address": "4701 Gibbons Dr",
    "city": "Carmichael",
    "zip_code": "95608",
    "latitude": 38.636507,
    "longitude": -121.353511,
    "indoor": false,
    "num_courts": 6,
    "surface_type": "Asphalt",
    "fees": "Free",
    "phone": "(916) 488-2810",
    "website": "http://www.morpd.com/",
    "photo_url": "https://cdn.filestackcontent.com/cXhXDr2uTRSv4PMyp9as",
    "has_restrooms": true,
    "has_water": true,
    "nets_provided": true,
    "skill_levels": "beginner,intermediate",
    "court_type": "dedicated"
  },
  {
    "county_slug": "sacramento",
    "state": "CA",
    "verified": false,
    "name": "Glenbrooke Pickleball Club",
    "description": "Come play pickleball at Glenbrooke Pickleball Club in Elk Grove, CA! There are 4 outdoor hard courts. The lines are permanent, but you'll need to bring your own net. The courts are private.",
    "address": "7700 Del Webb Blvd",
    "city": "Elk Grove",
    "zip_code": "95757",
    "latitude": 38.397429,
    "longitude": -121.413573,
    "indoor": false,
    "num_courts": 4,
    "surface_type": "Hard",
    "fees": "Private",
    "phone": "9167141010",
    "website": "http://www.ourglenbrooke.org/",
    "photo_url": "https://cdn.filestackcontent.com/RKxV7XleReGJaWfcEKFR",
    "nets_provided": false,
    "court_type": "dedicated"
  },
  {
    "county_slug": "sacramento",
    "state": "CA",
    "verified": false,
    "name": "Glenbrook Park",
    "description": "Come play pickleball at Glenbrook Park in Sacramento, CA! There are 2 outdoor hard courts. The lines are overlaid on a tennis court, so the net is a little taller than a normal pickleball net. The courts are free. Amenities include restrooms, water, and lights.",
    "address": "8486 La Riviera Dr",
    "city": "Sacramento",
    "zip_code": "95826",
    "latitude": 38.559892,
    "longitude": -121.391469,
    "indoor": false,
    "lighted": true,
    "num_courts": 2,
    "surface_type": "Hard",
    "fees": "Free",
    "website": "http://www.cityofsacramento.org/",
    "photo_url": "https://cdn.filestackcontent.com/9gbv9QoWQS28IewoQA1C",
    "has_restrooms": true,
    "has_water": true,
    "skill_levels": "beginner,intermediate",
    "court_type": "dedicated"
  },
  {
    "county_slug": "sacramento",
    "state": "CA",
    "verified": false,
    "name": "Gold River Sports Club",
    "description": "Gold River Sports Club is one of the most popular places to play pickleball in Gold River, CA. There are 25 outdoor hard courts. The court lines are permanent. You can reserve the courts. A membership is required to play. The facility includes amenities like restrooms, water, and lights.",
    "address": "2201 Gold Rush Dr",
    "city": "Gold River",
    "zip_code": "95670",
    "latitude": 38.622914,
    "longitude": -121.259638,
    "indoor": false,
    "lighted": true,
    "num_courts": 25,
    "surface_type": "Hard",
    "fees": "Members only",
    "phone": "9166387001",
    "website": "http://www.sparetimeclubs.com/club/scripts/section/section.asp?NS=GR0",
    "photo_url": "https://cdn.filestackcontent.com/awkwnImUTaC1fEKsWqPx",
    "has_restrooms": true,
    "has_water": true,
    "skill_levels": "beginner,intermediate",
    "court_type": "dedicated"
  },
  {
    "county_slug": "sacramento",
    "state": "CA",
    "verified": false,
    "name": "Heritage Park",
    "description": "In a gated neighborhood. Must have code to enter.",
    "address": "2522 Heritage Park Ln",
    "city": "Sacramento",
    "zip_code": "95835",
    "latitude": 38.680933,
    "longitude": -121.51762,
    "indoor": false,
    "lighted": true,
    "num_courts": 3,
    "surface_type": "Hard",
    "fees": "Private",
    "phone": "9165152121",
    "website": "http://www.hpoa.biz/",
    "email": "hpclubhouse@hpoa.biz",
    "photo_url": "https://cdn.filestackcontent.com/Oyn1h6K1SCIzMtc2Rs8M",
    "has_water": true,
    "nets_provided": true,
    "skill_levels": "intermediate",
    "court_type": "dedicated"
  },
  {
    "county_slug": "sacramento",
    "state": "CA",
    "verified": false,
    "name": "Horseshoe Park",
    "description": "There are lines but they are at the ends of the tennis courts and the tennis nets can not be used, bring your own net",
    "address": "9800 Denali Cir",
    "city": "Elk Grove",
    "zip_code": "95757",
    "latitude": 38.40113,
    "longitude": -121.407565,
    "indoor": false,
    "num_courts": 2,
    "surface_type": "Hard",
    "fees": "Free",
    "phone": "9164055300",
    "website": "http://yourcsd.com/714/Horseshoe-Park",
    "photo_url": "https://cdn.filestackcontent.com/jEOGSWn5TK2I9jQPZAfl",
    "nets_provided": false,
    "skill_levels": "beginner,intermediate",
    "court_type": "dedicated",
    "hours": "10 am to 8 pm",
    "has_parking": true,
    "has_restrooms": true
  },
  {
    "county_slug": "sacramento",
    "state": "CA",
    "verified": false,
    "name": "Howe Park",
    "description": "Come play pickleball at Howe Park in Sacramento, CA! There are 4 outdoor concrete courts. The lines are permanent, but you'll need to bring your own net. The courts are free.",
    "address": "2201 Cottage Way",
    "city": "Sacramento",
    "latitude": 38.605968,
    "longitude": -121.413474,
    "indoor": false,
    "num_courts": 4,
    "surface_type": "Concrete",
    "fees": "Free",
    "phone": "+19169273802",
    "website": "https://www.fecrpd.com/howe-park",
    "photo_url": "https://cdn.filestackcontent.com/smdvt1LjTVqZGy0Gxtof",
    "nets_provided": false,
    "skill_levels": "beginner,intermediate",
    "court_type": "dedicated",
    "has_parking": true,
    "has_restrooms": true
  },
  {
    "county_slug": "sacramento",
    "state": "CA",
    "verified": false,
    "name": "Jose P. Rizal Community Center",
    "description": "Jose P. Rizal Community Center is a place to play pickleball in Sacramento, CA. There are 3 indoor wood courts. The lines are permanent, and portable nets are available. A one-time fee is required to play. The facility includes amenities like restrooms, water, lights, and wheelchair accessibility.",
    "address": "7320 Florin Mall Dr",
    "city": "Sacramento",
    "zip_code": "95823",
    "latitude": 38.491454,
    "longitude": -121.434908,
    "indoor": true,
    "lighted": true,
    "num_courts": 3,
    "surface_type": "Wood",
    "fees": "Fee required",
    "phone": "(916) 395-0601",
    "website": "https://www.southgaterecandpark.net/parks-facilities/community-centers/",
    "photo_url": "https://cdn.filestackcontent.com/ltIr3tCWTQaQ4hLtuYEj",
    "has_restrooms": true,
    "has_water": true,
    "wheelchair_accessible": true,
    "nets_provided": true,
    "skill_levels": "beginner,intermediate",
    "court_type": "dedicated"
  },
  {
    "county_slug": "sacramento",
    "state": "CA",
    "verified": false,
    "name": "Laguna Creek Sports Club",
    "description": "Laguna Creek Sports Club is a place to play pickleball in Elk Grove, CA. There are 4 outdoor hard courts. The lines are permanent, but you'll need to bring your own net. The courts are private. The facility includes amenities like restrooms, water, and lights.",
    "address": "9570 Racquet Ct",
    "city": "Elk Grove",
    "zip_code": "95758",
    "latitude": 38.409951,
    "longitude": -121.427677,
    "indoor": false,
    "lighted": true,
    "num_courts": 4,
    "surface_type": "Hard",
    "fees": "Private",
    "phone": "9166848855",
    "website": "http://www.lagunacreekrc.com/",
    "photo_url": "https://cdn.filestackcontent.com/efX8fRxeTOKF752Ts6pI",
    "has_restrooms": true,
    "has_water": true,
    "nets_provided": false,
    "skill_levels": "beginner,intermediate",
    "court_type": "dedicated"
  },
  {
    "county_slug": "sacramento",
    "state": "CA",
    "verified": false,
    "name": "Laguna Del Sol Clothing Optional Resort",
    "description": "Come play pickleball at Laguna Del Sol Clothing Optional Resort in Wilton, CA! There are 6 outdoor hard courts. These are dedicated courts with permanent lines and nets. A membership is required to play. Amenities include restrooms, water, and lights.",
    "address": "8683 Rawhide Ln",
    "city": "Wilton",
    "zip_code": "95693",
    "latitude": 38.449214,
    "longitude": -121.200668,
    "indoor": false,
    "lighted": true,
    "num_courts": 6,
    "surface_type": "Hard",
    "fees": "Members only",
    "phone": "9166876550",
    "website": "http://www.lagunadelsol.com/",
    "photo_url": "https://cdn.filestackcontent.com/kQxG38y8Rg29UikAQY8r",
    "has_restrooms": true,
    "has_water": true,
    "nets_provided": true,
    "skill_levels": "beginner",
    "court_type": "dedicated"
  },
  {
    "county_slug": "sacramento",
    "state": "CA",
    "verified": false,
    "name": "Laguna Lake",
    "description": "Come play pickleball at Laguna Lake in Elk Grove, CA! There are 2 outdoor hard courts. The lines are overlaid on a tennis court, so the net is a little taller than a normal pickleball net. The courts are private. The facility includes amenities like lights.",
    "address": "9000 Laguna Lake Way",
    "city": "Elk Grove",
    "zip_code": "95758",
    "latitude": 38.4086,
    "longitude": -121.435824,
    "indoor": false,
    "lighted": true,
    "num_courts": 2,
    "surface_type": "Hard",
    "fees": "Private",
    "photo_url": "https://cdn.filestackcontent.com/bjJfLjukQ0eewGtcJ7mN",
    "court_type": "dedicated"
  },
  {
    "county_slug": "sacramento",
    "state": "CA",
    "verified": false,
    "name": "Larchmont Community Park",
    "description": "Come play pickleball at Larchmont Community Park in Sacramento, CA! There are 2 outdoor courts. The lines are overlaid on a tennis court, so the net is a little taller than a normal pickleball net. The courts are free.",
    "address": "2449 Stansberry Way",
    "city": "Sacramento",
    "latitude": 38.568566,
    "longitude": -121.358809,
    "indoor": false,
    "num_courts": 2,
    "fees": "Free",
    "phone": "+19163699844",
    "website": "https://crpd.com/parks/larchmont-community-park/",
    "photo_url": "https://cdn.filestackcontent.com/8DeYOhKLTLGdiBhKeY3f",
    "skill_levels": "beginner,intermediate",
    "court_type": "dedicated"
  },
  {
    "county_slug": "sacramento",
    "state": "CA",
    "verified": false,
    "name": "La Sierra Community Center",
    "description": "La Sierra Community Center is one of the most popular places to play pickleball in Carmichael, CA. There are 5 indoor hard courts. The lines are permanent, but you'll need to bring your own net. A one-time fee is required to play. Amenities include restrooms, water, and lights.",
    "address": "5325 Engle Rd",
    "city": "Carmichael",
    "zip_code": "95608",
    "latitude": 38.633958,
    "longitude": -121.339663,
    "indoor": true,
    "lighted": true,
    "num_courts": 5,
    "surface_type": "Hard",
    "fees": "Fee required",
    "phone": "(916) 483-7826",
    "website": "http://carmichaelpark.com/la-sierra-community-center/",
    "photo_url": "https://cdn.filestackcontent.com/4lQSmBooQTyDunt52Axn",
    "has_restrooms": true,
    "has_water": true,
    "nets_provided": false,
    "skill_levels": "beginner,intermediate",
    "court_type": "dedicated",
    "hours": "30am - 5pm"
  },
  {
    "county_slug": "sacramento",
    "state": "CA",
    "verified": false,
    "name": "Lembi Park",
    "description": "Come play pickleball at Lembi Park in Folsom, CA! There are 12 outdoor hard courts. These are dedicated courts with permanent lines and nets. The courts are free. The facility includes amenities like water, wheelchair accessibility, and lights.",
    "address": "1302 Riley St",
    "city": "Folsom",
    "zip_code": "95630",
    "latitude": 38.667359,
    "longitude": -121.161209,
    "indoor": false,
    "lighted": true,
    "num_courts": 12,
    "surface_type": "Hard",
    "fees": "Free",
    "phone": "9163557285",
    "website": "https://www.FolsomPickleballClub.org",
    "photo_url": "https://cdn.filestackcontent.com/OwE0E0p4RleIEsW10g7Z",
    "has_water": true,
    "wheelchair_accessible": true,
    "nets_provided": true,
    "skill_levels": "beginner,intermediate",
    "court_type": "dedicated"
  },
  {
    "county_slug": "sacramento",
    "state": "CA",
    "verified": false,
    "name": "Lewis Park",
    "description": "Lewis Park is one of the most popular places to play pickleball in Sacramento, CA. There are 2 outdoor hard courts. The lines are overlaid on a tennis court, so the net is a little taller than a normal pickleball net. The courts are free. The facility includes amenities like lights.",
    "address": "6570 Park Riviera Way",
    "city": "Sacramento",
    "zip_code": "95831",
    "latitude": 38.50719,
    "longitude": -121.549179,
    "indoor": false,
    "lighted": true,
    "num_courts": 2,
    "surface_type": "Hard",
    "fees": "Free",
    "phone": "(916) 808-5200",
    "website": "https://www.cityofsacramento.org/ParksandRec/Parks/Park-Directory/Pocket/Lewis-Park",
    "photo_url": "https://cdn.filestackcontent.com/bRTGMsK7T2OE8IPt356m",
    "skill_levels": "beginner,intermediate",
    "court_type": "dedicated"
  },
  {
    "county_slug": "sacramento",
    "state": "CA",
    "verified": false,
    "name": "Life Time Folsom",
    "description": "Life Time Folsom is one of the most popular places to play pickleball in Folsom, CA. There are 16 outdoor hard courts. These are dedicated courts with permanent lines and nets. You can reserve the courts. A membership is required to play. The facility includes amenities like food, locker rooms, restrooms, water, lights, a pro shop or equipment store, trainers or lessons, and wheelchair accessibility.",
    "address": "110 Healthy Way",
    "city": "Folsom",
    "latitude": 38.644773,
    "longitude": -121.104663,
    "indoor": false,
    "lighted": true,
    "num_courts": 16,
    "surface_type": "Hard",
    "fees": "Members only",
    "phone": "+19165979100",
    "website": "https://www.lifetime.life/life-time-locations/ca-folsom.html",
    "photo_url": "https://cdn.filestackcontent.com/aeRCvLcSgKS5v1f0r8PP",
    "has_restrooms": true,
    "has_water": true,
    "has_pro_shop": true,
    "wheelchair_accessible": true,
    "nets_provided": true,
    "skill_levels": "intermediate",
    "court_type": "dedicated"
  },
  {
    "county_slug": "sacramento",
    "state": "CA",
    "verified": false,
    "name": "Lincoln Village Community Park",
    "description": "Lincoln Village Community Park is a place to play pickleball in Sacramento, CA. There are 2 outdoor hard courts. The lines are overlaid on a tennis court, so the net is a little taller than a normal pickleball net. The facility includes amenities like restrooms, water, and lights. The courts are free.",
    "address": "3480 Routier Rd",
    "city": "Sacramento",
    "zip_code": "95827",
    "latitude": 38.564768,
    "longitude": -121.318162,
    "indoor": false,
    "lighted": true,
    "num_courts": 2,
    "surface_type": "Hard",
    "fees": "Free",
    "phone": "(916) 369-9844",
    "website": "http://crpd.com/parks/lincoln-village-community-park/",
    "photo_url": "https://cdn.filestackcontent.com/IHcMTOxSS5u9NcSNb3my",
    "has_restrooms": true,
    "has_water": true,
    "skill_levels": "beginner,intermediate",
    "court_type": "dedicated"
  },
  {
    "county_slug": "sacramento",
    "state": "CA",
    "verified": false,
    "name": "Magnolia Park",
    "description": "Come play pickleball at Magnolia Park in Sacramento, CA! There are 2 outdoor hard courts. The lines are overlaid on a tennis court, so the net is a little taller than a normal pickleball net. The courts are free.",
    "address": "251 Greg Thatch Cir",
    "city": "Sacramento",
    "zip_code": "95835",
    "latitude": 38.680077,
    "longitude": -121.536699,
    "indoor": false,
    "num_courts": 2,
    "surface_type": "Hard",
    "fees": "Free",
    "phone": "(916) 264-5011",
    "website": "https://www.cityofsacramento.org/ParksandRec/Parks/Park-Directory/North-Natomas/Magnolia-Park",
    "photo_url": "https://cdn.filestackcontent.com/dW6UwQ7tTN2sna3YaR7p",
    "skill_levels": "beginner",
    "court_type": "dedicated"
  },
  {
    "county_slug": "sacramento",
    "state": "CA",
    "verified": false,
    "name": "McClatchy Park",
    "description": "McClatchy Park is one of the most popular places to play pickleball in Sacramento, CA. There are 2 outdoor hard courts. The lines are overlaid on a tennis court, so the net is a little taller than a normal pickleball net. Amenities include restrooms and water. The courts are free.",
    "address": "3500 5th Ave",
    "city": "Sacramento",
    "zip_code": "95817",
    "latitude": 38.546951,
    "longitude": -121.470557,
    "indoor": false,
    "num_courts": 2,
    "surface_type": "Hard",
    "fees": "Free",
    "phone": "(916) 808-6060",
    "website": "http://www.cityofsacramento.org/ParksandRec/Parks/Park-Directory/Fruitridge-Broadway/McClatchy-Park",
    "photo_url": "https://cdn.filestackcontent.com/PUrKqKsRLMtlvGjOiI3Q",
    "has_restrooms": true,
    "has_water": true,
    "skill_levels": "beginner,intermediate",
    "court_type": "dedicated"
  },
  {
    "county_slug": "sacramento",
    "state": "CA",
    "verified": false,
    "name": "Miwok Park",
    "description": "Come play pickleball at Miwok Park in Elk Grove, CA! There are 2 outdoor hard courts. The lines are permanent, but you'll need to bring your own net. The courts are free.",
    "address": "9344 Village Tree Dr",
    "city": "Elk Grove",
    "zip_code": "95758",
    "latitude": 38.414876,
    "longitude": -121.403857,
    "indoor": false,
    "num_courts": 2,
    "surface_type": "Hard",
    "fees": "Free",
    "phone": "(916) 405-5688",
    "website": "https://www.yourcsd.com/640/Miwok-Park",
    "photo_url": "https://cdn.filestackcontent.com/HJAyMo2RhyiKE43IgyMw",
    "nets_provided": false,
    "skill_levels": "beginner,intermediate",
    "court_type": "dedicated",
    "has_restrooms": true
  },
  {
    "county_slug": "sacramento",
    "state": "CA",
    "verified": false,
    "name": "North Ridge Country Club",
    "description": "North Ridge Country Club is a place to play pickleball in Fair Oaks, CA. There are 4 outdoor courts. These are dedicated courts with permanent lines and nets. A membership is required to play.",
    "address": "7600 Madison Ave",
    "city": "Fair Oaks",
    "zip_code": "95628",
    "latitude": 38.660129,
    "longitude": -121.286405,
    "indoor": false,
    "num_courts": 4,
    "fees": "Members only",
    "phone": "+19163800215",
    "website": "http://www.northridgegolf.com/",
    "email": "tambibarker@yahoo.com",
    "photo_url": "https://cdn.filestackcontent.com/RtSJfMIGTeutiQtvPYZQ",
    "nets_provided": true,
    "skill_levels": "beginner,intermediate",
    "court_type": "dedicated",
    "has_pro_shop": true
  },
  {
    "county_slug": "sacramento",
    "state": "CA",
    "verified": false,
    "name": "Oasis Community Park",
    "description": "Oasis Community Park is one of the most popular places to play pickleball in Elk Grove, CA. There are 6 outdoor courts. These are dedicated courts with permanent lines and nets. Players have access to restrooms, water, and lights. The courts are free.",
    "address": "8015 Poppy Ridge Rd",
    "city": "Elk Grove",
    "zip_code": "95757",
    "latitude": 38.392563,
    "longitude": -121.40965,
    "indoor": false,
    "lighted": true,
    "num_courts": 6,
    "fees": "Free",
    "website": "https://www.yourcsd.com/505/Oasis-Community-Building",
    "photo_url": "https://cdn.filestackcontent.com/8BV0M4uPSKG4o8lhh0S0",
    "has_restrooms": true,
    "has_water": true,
    "nets_provided": true,
    "skill_levels": "beginner",
    "court_type": "dedicated"
  },
  {
    "county_slug": "sacramento",
    "state": "CA",
    "verified": false,
    "name": "Pannell-Meadowview Community Center",
    "description": "Come play pickleball at Pannell-Meadowview Community Center in Sacramento, CA! There are 3 indoor wood courts. The lines are permanent, and portable nets are available. The facility includes amenities like restrooms. The courts are free.",
    "address": "2450 Meadowview Rd",
    "city": "Sacramento",
    "latitude": 38.480371,
    "longitude": -121.479315,
    "indoor": true,
    "num_courts": 3,
    "surface_type": "Wood",
    "fees": "Free",
    "phone": "+19168086680",
    "website": "http://www.cityofsacramento.org/parksandrec/community-centers/sambonniepannellcenter",
    "email": "pmcc@cityofsacramento.org",
    "photo_url": "https://cdn.filestackcontent.com/qlFuOCpXTYWopihtble8",
    "has_restrooms": true,
    "nets_provided": true,
    "skill_levels": "beginner",
    "court_type": "dedicated"
  },
  {
    "county_slug": "sacramento",
    "state": "CA",
    "verified": false,
    "name": "Pat O'Brien Community Center",
    "description": "Pat O'Brien Community Center is a place to play pickleball in Sacramento, CA. There are 3 indoor wood courts. The lines are permanent, and portable nets are available. Players have access to restrooms, lights, food, and water. A one-time fee is required to play.",
    "address": "8025 Waterman Rd",
    "city": "Sacramento",
    "latitude": 38.466365,
    "longitude": -121.353012,
    "indoor": true,
    "lighted": true,
    "num_courts": 3,
    "surface_type": "Wood",
    "fees": "Fee required",
    "phone": "+19165260234",
    "website": "https://www.southgaterecandpark.net/parks-facilities/community-centers/",
    "photo_url": "https://cdn.filestackcontent.com/vjcuTokkTR2uw4k0F3ox",
    "has_restrooms": true,
    "has_water": true,
    "nets_provided": true,
    "skill_levels": "beginner,intermediate",
    "court_type": "dedicated"
  },
  {
    "county_slug": "sacramento",
    "state": "CA",
    "verified": false,
    "name": "Pecan Park",
    "description": "There are 2 pickle ball courts. The other court is a tennis court",
    "address": "5945 Pecan Ave",
    "city": "Orangevale",
    "zip_code": "95662",
    "latitude": 38.673465,
    "longitude": -121.221583,
    "indoor": false,
    "num_courts": 2,
    "surface_type": "Hard",
    "fees": "Free",
    "phone": "9169884373",
    "website": "https://www.ovparks.com/",
    "email": "info@ovparks.com",
    "photo_url": "https://cdn.filestackcontent.com/5uERaRdFR06092VFZ9pg",
    "has_restrooms": true,
    "nets_provided": true,
    "skill_levels": "advanced,beginner",
    "court_type": "dedicated"
  },
  {
    "county_slug": "sacramento",
    "state": "CA",
    "verified": false,
    "name": "Pickleball Kingdom Elk Grove",
    "description": "COMING SOON!",
    "address": "Elk Grove",
    "city": "Elk Grove",
    "latitude": 38.408954,
    "longitude": -121.378863,
    "indoor": false,
    "open_play_schedule": "COMING SOON!",
    "website": "https://pickleballkingdom.com/elk-grove-ca/",
    "photo_url": "https://cdn.filestackcontent.com/94KbnvlXRVe2xdnBoEiL",
    "skill_levels": "beginner,intermediate"
  },
  {
    "county_slug": "sacramento",
    "state": "CA",
    "verified": false,
    "name": "Pickleball Kingdom Folsom",
    "description": "COMING SOON!",
    "address": "Folsom",
    "city": "Folsom",
    "latitude": 38.671949,
    "longitude": -121.161294,
    "indoor": false,
    "open_play_schedule": "COMING SOON!",
    "website": "https://pickleballkingdom.com/folsom-ca/",
    "photo_url": "https://cdn.filestackcontent.com/oyA2cHITYW9CNBYOz5oQ",
    "skill_levels": "beginner,intermediate"
  },
  {
    "county_slug": "sacramento",
    "state": "CA",
    "verified": false,
    "name": "Pickleball Kingdom Sacramento",
    "description": "COMING SOON!",
    "address": "Sacramento",
    "city": "Sacramento",
    "latitude": 38.578134,
    "longitude": -121.494421,
    "indoor": false,
    "open_play_schedule": "COMING SOON!",
    "website": "https://pickleballkingdom.com/sacramento-ca/",
    "photo_url": "https://cdn.filestackcontent.com/AG9NCV4JQ6GtmRI6Eg1A",
    "skill_levels": "advanced,beginner,intermediate"
  },
  {
    "county_slug": "sacramento",
    "state": "CA",
    "verified": false,
    "name": "Pokelma Park",
    "description": "Come play pickleball at Pokelma Park in Antelope, CA! There are 2 outdoor hard courts. The lines are overlaid on a tennis court, so the net is a little taller than a normal pickleball net. Reservations are not available. The courts are free. Players have access to lights.",
    "address": "8126 Quiet Knolls Dr",
    "city": "Antelope",
    "zip_code": "95843",
    "latitude": 38.718809,
    "longitude": -121.368241,
    "indoor": false,
    "lighted": true,
    "num_courts": 2,
    "surface_type": "Hard",
    "fees": "Free",
    "phone": "(916) 725-1585",
    "website": "http://www.sunriseparks.com/",
    "photo_url": "https://cdn.filestackcontent.com/keEX8GEpRpaXg3zmdiwz",
    "skill_levels": "beginner,intermediate",
    "court_type": "dedicated",
    "hours": "8 am to 7 pm"
  },
  {
    "county_slug": "sacramento",
    "state": "CA",
    "verified": false,
    "name": "Rancho Murieta Country Club",
    "description": "Rancho Murieta Country Club is one of the most popular places to play pickleball in Rancho Murieta, CA. There are 2 outdoor hard courts. The lines are permanent, and portable nets are available. Players have access to restrooms and lights. A membership is required to play.",
    "address": "7000 Alameda Drive",
    "city": "Rancho Murieta",
    "latitude": 38.495312,
    "longitude": -121.09299,
    "indoor": false,
    "lighted": true,
    "num_courts": 2,
    "surface_type": "Hard",
    "fees": "Members only",
    "phone": "+19163543400",
    "website": "https://www.ranchomurietacc.com/Tennis/Pickleball",
    "photo_url": "https://cdn.filestackcontent.com/uwLv2NXRwefDk6X2Fa70",
    "has_restrooms": true,
    "nets_provided": true,
    "skill_levels": "beginner",
    "court_type": "dedicated",
    "hours": "Tuesday - Saturday 9am - 5pm [email protected] © 2026 Rancho Murieta Country Club. All Rights Reserved. Privacy Policy Terms & Conditions SMS Powered by Jonas Club Software"
  },
  {
    "county_slug": "sacramento",
    "state": "CA",
    "verified": false,
    "name": "R. Burnett Miller Park",
    "description": "R. Burnett Miller Park is a place to play pickleball in Sacramento, CA. There are 2 outdoor hard courts. These are dedicated courts with permanent lines and nets. The courts are free.",
    "address": "3260 McKinley Village Way",
    "city": "Sacramento",
    "zip_code": "95816",
    "latitude": 38.58308,
    "longitude": -121.457459,
    "indoor": false,
    "num_courts": 2,
    "surface_type": "Hard",
    "fees": "Free",
    "phone": "9168086060",
    "website": "http://cityofsacramento.org/",
    "photo_url": "https://cdn.filestackcontent.com/0Hv6XFiKTGu1kNMnLYPB",
    "nets_provided": true,
    "skill_levels": "beginner,intermediate",
    "court_type": "dedicated"
  },
  {
    "county_slug": "sacramento",
    "state": "CA",
    "verified": false,
    "name": "Rio Del Oro Sports Club",
    "description": "Come play pickleball at Rio Del Oro Sports Club in Sacramento, CA! There are 8 outdoor hard courts. These are dedicated courts with permanent lines and nets. A membership is required to play. Amenities include restrooms and water.",
    "address": "119 Scripps Dr",
    "city": "Sacramento",
    "zip_code": "95825",
    "latitude": 38.570877,
    "longitude": -121.407121,
    "indoor": false,
    "num_courts": 8,
    "surface_type": "Hard",
    "fees": "Members only",
    "phone": "(916) 696-8790",
    "website": "https://www.sparetimesportsclubs.com/clubs/rio-del-oro/",
    "photo_url": "https://cdn.filestackcontent.com/fv6ha9GRgWE8qvZi8RlY",
    "has_restrooms": true,
    "has_water": true,
    "nets_provided": true,
    "skill_levels": "advanced,intermediate",
    "court_type": "dedicated"
  },
  {
    "county_slug": "sacramento",
    "state": "CA",
    "verified": false,
    "name": "Rio Linda Elverta Recreation and Park District",
    "description": "Rio Linda Elverta Recreation and Park District is a place to play pickleball in Rio Linda, CA. There are 4 outdoor hard courts. The lines are permanent, but you'll need to bring your own net. The courts are free.",
    "address": "810 Oak Ln",
    "city": "Rio Linda",
    "zip_code": "95673",
    "latitude": 38.689848,
    "longitude": -121.44721,
    "indoor": false,
    "num_courts": 4,
    "surface_type": "Hard",
    "fees": "Free",
    "phone": "(916) 991-5929",
    "website": "http://www.rleparks.com/",
    "photo_url": "https://cdn.filestackcontent.com/iuhBX2TtTb2CkU6nMbiI",
    "nets_provided": false,
    "skill_levels": "beginner,intermediate",
    "court_type": "dedicated"
  },
  {
    "county_slug": "sacramento",
    "state": "CA",
    "verified": false,
    "name": "Rivercrest Apartments",
    "description": "Rivercrest Apartments is one of the most popular places to play pickleball in Sacramento, CA. There are 2 outdoor hard courts. These are dedicated courts with permanent lines and nets. The courts are private.",
    "address": "7928 La Riviera Dr",
    "city": "Sacramento",
    "zip_code": "95826",
    "latitude": 38.556263,
    "longitude": -121.408337,
    "indoor": false,
    "num_courts": 2,
    "surface_type": "Hard",
    "fees": "Private",
    "phone": "(916) 381-3083",
    "website": "http://www.rivercrestapts.com/",
    "photo_url": "https://cdn.filestackcontent.com/jIdzrnOPTFye9mIYqdU3",
    "nets_provided": true,
    "skill_levels": "beginner,intermediate",
    "court_type": "dedicated"
  },
  {
    "county_slug": "sacramento",
    "state": "CA",
    "verified": false,
    "name": "Rollingwood YMCA",
    "description": "Previously the Rollingwood Athletic Club",
    "address": "9373 Winding Oak Dr",
    "city": "Fair Oaks",
    "zip_code": "95628",
    "latitude": 38.660158,
    "longitude": -121.205746,
    "indoor": false,
    "lighted": true,
    "num_courts": 6,
    "surface_type": "Hard",
    "fees": "Members only",
    "website": "https://www.ymcasuperiorcal.org/rollingwood-ymca",
    "photo_url": "https://cdn.filestackcontent.com/YEJrwBIBQZmbpE6mslVa",
    "has_restrooms": true,
    "has_water": true,
    "nets_provided": true,
    "skill_levels": "beginner,intermediate",
    "court_type": "dedicated",
    "hours": "11am - 12pm"
  },
  {
    "county_slug": "sacramento",
    "state": "CA",
    "verified": false,
    "name": "Rosemont Community Park",
    "description": "Rosemont Community Park is a place to play pickleball in Sacramento, CA. There are 2 outdoor concrete courts. These are dedicated courts with permanent lines and nets. The courts are free. Players have access to restrooms and lights.",
    "address": "9326 Americana Way",
    "city": "Sacramento",
    "latitude": 38.550708,
    "longitude": -121.352019,
    "indoor": false,
    "lighted": true,
    "num_courts": 2,
    "surface_type": "Concrete",
    "fees": "Free",
    "phone": "+19163699844",
    "website": "http://crpd.com/parks/rosemont-community-park/",
    "photo_url": "https://cdn.filestackcontent.com/TnojX6qiTl6Tets0Huws",
    "has_restrooms": true,
    "nets_provided": true,
    "skill_levels": "advanced,beginner,intermediate",
    "court_type": "dedicated"
  },
  {
    "county_slug": "sacramento",
    "state": "CA",
    "verified": false,
    "name": "Rusch Community Park",
    "description": "Rusch Community Park is a place to play pickleball in Citrus Heights, CA. There are 12 outdoor hard courts. These are dedicated courts with permanent lines and nets. Players have access to restrooms, water, and lights. The courts are free.",
    "address": "7801 Auburn Blvd",
    "city": "Citrus Heights",
    "zip_code": "95610",
    "latitude": 38.707872,
    "longitude": -121.291513,
    "indoor": false,
    "lighted": true,
    "num_courts": 12,
    "surface_type": "Hard",
    "fees": "Free",
    "phone": "+19163376507",
    "website": "http://sunriseparks.com/rusch-community-park/",
    "email": "mohrj155.75@gmail.com",
    "photo_url": "https://cdn.filestackcontent.com/JUfk8nVwTFG7zz0RFB2S",
    "has_restrooms": true,
    "has_water": true,
    "nets_provided": true,
    "skill_levels": "beginner,intermediate",
    "court_type": "dedicated",
    "has_parking": true
  },
  {
    "county_slug": "sacramento",
    "state": "CA",
    "verified": false,
    "name": "Sacramento Asian Sports Foundation",
    "description": "Sacramento Asian Sports Foundation is one of the most popular places to play pickleball in Elk Grove, CA. There are 6 indoor wood courts. The lines are permanent, and portable nets are available. A membership is required to play. Amenities include restrooms, water, and lights.",
    "address": "9040 High Tech Ct",
    "city": "Elk Grove",
    "zip_code": "95758",
    "latitude": 38.429979,
    "longitude": -121.466091,
    "indoor": true,
    "lighted": true,
    "num_courts": 6,
    "surface_type": "Wood",
    "fees": "Members only",
    "phone": "(279) 895-7567",
    "website": "http://www.sasfevents.org/",
    "email": "sasfrentals@gmail.com",
    "photo_url": "https://cdn.filestackcontent.com/DfMtenfYSUiprI0AnS2D",
    "has_restrooms": true,
    "has_water": true,
    "nets_provided": true,
    "skill_levels": "intermediate",
    "court_type": "dedicated"
  },
  {
    "county_slug": "sacramento",
    "state": "CA",
    "verified": false,
    "name": "Sacramento Central YMCA",
    "description": "Sacramento Central YMCA is one of the most popular places to play pickleball in Sacramento, CA. There are 3 indoor asphalt courts. The lines are permanent, and portable nets are available. The courts can be reserved. A one-time fee is required to play. Players have access to food, restrooms, water, and wheelchair accessibility.",
    "address": "2021 W St",
    "city": "Sacramento",
    "zip_code": "95818",
    "latitude": 38.56284,
    "longitude": -121.485702,
    "indoor": true,
    "num_courts": 3,
    "surface_type": "Asphalt",
    "fees": "Fee required",
    "phone": "(916) 452-9622",
    "website": "http://www.ymcasuperiorcal.org/sacramentoymca",
    "photo_url": "https://cdn.filestackcontent.com/14gwgoyoQgOScBc0pMCH",
    "has_restrooms": true,
    "has_water": true,
    "wheelchair_accessible": true,
    "nets_provided": true,
    "skill_levels": "beginner,intermediate",
    "court_type": "dedicated",
    "hours": "5pm - 7pm"
  },
  {
    "county_slug": "sacramento",
    "state": "CA",
    "verified": false,
    "name": "San Juan Park Court",
    "description": "San Juan Park Court is a place to play pickleball in Citrus Heights, CA. There are 4 outdoor hard courts. These are dedicated courts with permanent lines and nets. The courts are free. Players have access to restrooms, water, and lights.",
    "address": "5509 Mariposa Ave",
    "city": "Citrus Heights",
    "zip_code": "95610",
    "latitude": 38.66549,
    "longitude": -121.285401,
    "indoor": false,
    "lighted": true,
    "num_courts": 4,
    "surface_type": "Hard",
    "fees": "Free",
    "phone": "(916) 725-1585",
    "website": "http://www.sunriseparks.com/",
    "photo_url": "https://cdn.filestackcontent.com/R1KzjaNvSuCxNH2qEGxA",
    "has_restrooms": true,
    "has_water": true,
    "nets_provided": true,
    "skill_levels": "beginner,intermediate",
    "court_type": "dedicated",
    "hours": "8 am to 7 pm"
  },
  {
    "county_slug": "sacramento",
    "state": "CA",
    "verified": false,
    "name": "San Juan Pickleball Center",
    "description": "San Juan Pickleball Center is a place to play pickleball in Rancho Cordova, CA. There is 1 indoor asphalt court. The lines are permanent, but you'll need to bring your own net. Players have access to restrooms and lights. A one-time fee is required to play.",
    "address": "11151 Trade Center Dr Ste 102",
    "city": "Rancho Cordova",
    "zip_code": "95670",
    "latitude": 38.60301,
    "longitude": -121.271108,
    "indoor": true,
    "lighted": true,
    "num_courts": 1,
    "surface_type": "Asphalt",
    "fees": "Fee required",
    "photo_url": "https://cdn.filestackcontent.com/jCRP4nmERuGROSwHuhm9",
    "has_restrooms": true,
    "nets_provided": false,
    "skill_levels": "beginner,intermediate",
    "court_type": "dedicated"
  },
  {
    "county_slug": "sacramento",
    "state": "CA",
    "verified": false,
    "name": "Shady oaks",
    "description": "Shady oaks is a place to play pickleball in Orangevale, CA. There are 2 outdoor hard courts. These are dedicated courts with permanent lines and nets. The courts are free. Players have access to lights.",
    "address": "Shady Oaks Disc Golf Course",
    "city": "Orangevale",
    "latitude": 38.696788,
    "longitude": -121.224062,
    "indoor": false,
    "lighted": true,
    "num_courts": 2,
    "surface_type": "Hard",
    "fees": "Free",
    "phone": "+19169884373",
    "website": "https://www.ovparks.com/",
    "email": "info@ovparks.com",
    "photo_url": "https://cdn.filestackcontent.com/kGjb0IAQoO1V5nzX08eQ",
    "nets_provided": true,
    "skill_levels": "beginner,intermediate",
    "court_type": "dedicated"
  },
  {
    "county_slug": "sacramento",
    "state": "CA",
    "verified": false,
    "name": "Shady Oaks Disc Golf Course",
    "description": "Come play pickleball at Shady Oaks Disc Golf Course in Orangevale, CA! There are 2 outdoor hard courts. These are dedicated courts with permanent lines and nets. The courts are free. Amenities include lights.",
    "address": "7208 Hazel Ave",
    "city": "Orangevale",
    "zip_code": "95662",
    "latitude": 38.696511,
    "longitude": -121.22399,
    "indoor": false,
    "lighted": true,
    "num_courts": 2,
    "surface_type": "Hard",
    "fees": "Free",
    "phone": "(916) 987-3472",
    "website": "http://pdga.com/",
    "photo_url": "https://cdn.filestackcontent.com/fmS8HEXSTWhftiFQtssg",
    "nets_provided": true,
    "skill_levels": "beginner,intermediate",
    "court_type": "dedicated",
    "has_pro_shop": true
  },
  {
    "county_slug": "sacramento",
    "state": "CA",
    "verified": false,
    "name": "Southside Park",
    "description": "Come play pickleball at Southside Park in Sacramento, CA! There are 4 outdoor hard courts. These are dedicated courts with permanent lines and nets. The courts are free. The facility includes amenities like lights.",
    "address": "2115 6th St",
    "city": "Sacramento",
    "zip_code": "95818",
    "latitude": 38.569214,
    "longitude": -121.50273,
    "indoor": false,
    "lighted": true,
    "num_courts": 4,
    "surface_type": "Hard",
    "fees": "Free",
    "phone": "(916) 808-5200",
    "website": "https://www.cityofsacramento.org/ParksandRec/Parks/Park-Directory/Central-City/Southside-Park",
    "photo_url": "https://cdn.filestackcontent.com/kjrYKtOaQCeEZ9s2UMY1",
    "nets_provided": true,
    "skill_levels": "intermediate",
    "court_type": "dedicated"
  },
  {
    "county_slug": "sacramento",
    "state": "CA",
    "verified": false,
    "name": "Spare Time Indoors Pickleball and Tennis",
    "description": "Spare Time Indoors Pickleball and Tennis is one of the most popular places to play pickleball in Gold River, CA. There are 14 indoor hard courts. These are dedicated courts with permanent lines and nets. The courts cannot be reserved. A membership is required to play. Amenities include restrooms, youth programming, and trainers or lessons.",
    "address": "11205 Pyrites Way",
    "city": "Gold River",
    "latitude": 38.616309,
    "longitude": -121.261238,
    "indoor": true,
    "num_courts": 14,
    "surface_type": "Hard",
    "fees": "Members only",
    "phone": "+19166686775",
    "website": "https://www.sparetimesportsclubs.com/indoors/pickleball/",
    "photo_url": "https://cdn.filestackcontent.com/hRiy0KehRmcrrxgWAngj",
    "has_restrooms": true,
    "nets_provided": true,
    "skill_levels": "beginner",
    "court_type": "dedicated"
  },
  {
    "county_slug": "sacramento",
    "state": "CA",
    "verified": false,
    "name": "Sport Lab CA",
    "description": "Welcome to the state-of-the-art indoor pickleball courts at SCA, where the thrill of the game meets the comfort of modern amenities. Nestled within our vibrant sports complex, these courts are designed for enthusiasts of all skill levels to enjoy this fast-paced and exciting sport year-round.",
    "address": "9752 Kent Street",
    "city": "Elk Grove",
    "latitude": 38.400907,
    "longitude": -121.360753,
    "indoor": true,
    "lighted": true,
    "num_courts": 2,
    "surface_type": "Concrete",
    "fees": "Fee required — $10",
    "phone": "+17077103060",
    "website": "https://saccountyairsoft.com",
    "email": "saccountyairsoft@att.net",
    "photo_url": "https://cdn.filestackcontent.com/puwA3OKTQSXNYeanm0d4",
    "has_restrooms": true,
    "has_water": true,
    "wheelchair_accessible": true,
    "nets_provided": true,
    "skill_levels": "beginner,intermediate",
    "court_type": "shared"
  },
  {
    "county_slug": "sacramento",
    "state": "CA",
    "verified": false,
    "name": "Stonehouse Park, Rancho Murieta",
    "description": "Stonehouse Park, Rancho Murieta is a place to play pickleball in Rancho Murieta, CA. There are 8 outdoor concrete courts. These are dedicated courts with permanent lines and nets. The courts are private. The facility includes amenities like restrooms.",
    "address": "Escuela Dr",
    "city": "Rancho Murieta",
    "latitude": 38.506483,
    "longitude": -121.099571,
    "indoor": false,
    "num_courts": 8,
    "surface_type": "Concrete",
    "fees": "Private",
    "photo_url": "https://cdn.filestackcontent.com/a0hF1nwSByynezUbM3W2",
    "has_restrooms": true,
    "nets_provided": true,
    "skill_levels": "advanced,beginner",
    "court_type": "dedicated"
  },
  {
    "county_slug": "sacramento",
    "state": "CA",
    "verified": false,
    "name": "Swanston Park",
    "description": "Swanston Park is a place to play pickleball in Sacramento, CA. There are 2 outdoor hard courts. The lines are overlaid on a tennis court, so the net is a little taller than a normal pickleball net. The courts are free. The facility includes amenities like restrooms and water.",
    "address": "2350 Northrop Ave",
    "city": "Sacramento",
    "zip_code": "95825",
    "latitude": 38.581014,
    "longitude": -121.407987,
    "indoor": false,
    "num_courts": 2,
    "surface_type": "Hard",
    "fees": "Free",
    "phone": "(916) 333-6464",
    "website": "https://www.morpd.com/10-swanston-park",
    "photo_url": "https://cdn.filestackcontent.com/j9ROKicaSjeUxkwYarMk",
    "has_restrooms": true,
    "has_water": true,
    "skill_levels": "beginner,intermediate",
    "court_type": "dedicated",
    "hours": "10am-7pm"
  },
  {
    "county_slug": "sacramento",
    "state": "CA",
    "verified": false,
    "name": "Sycamore Park",
    "description": "Come play pickleball at Sycamore Park in Sacramento, CA! There are 2 outdoor asphalt courts. The lines are overlaid on a tennis court, so the net is a little taller than a normal pickleball net. The courts are free. The facility includes amenities like lights.",
    "address": "5400 Banfield Dr",
    "city": "Sacramento",
    "zip_code": "95835",
    "latitude": 38.67153,
    "longitude": -121.509321,
    "indoor": false,
    "lighted": true,
    "num_courts": 2,
    "surface_type": "Asphalt",
    "fees": "Free",
    "phone": "(916) 808-5200",
    "website": "http://www.cityofsacramento.org/ParksandRec/Parks/Park-Directory/North-Natomas/Sycamore-Park",
    "photo_url": "https://cdn.filestackcontent.com/N3wuGqkYTvSzF8MOFoFy",
    "skill_levels": "advanced,beginner,intermediate",
    "court_type": "dedicated"
  },
  {
    "county_slug": "sacramento",
    "state": "CA",
    "verified": false,
    "name": "The Heritage at Gum Ranch by Elliott Homes",
    "description": "The Heritage at Gum Ranch by Elliott Homes is a place to play pickleball in Fair Oaks, CA. There is 1 outdoor hard court. This is a dedicated court with a permanent net and lines. The court is private. You can’t reserve the court.",
    "address": "5601 Tuckeroo Way",
    "city": "Fair Oaks",
    "zip_code": "95628",
    "latitude": 38.668954,
    "longitude": -121.245701,
    "indoor": false,
    "num_courts": 1,
    "surface_type": "Hard",
    "fees": "Private",
    "phone": "(916) 461-9140",
    "website": "https://www.elliotthomes.com/communities/california/sacramento/heritage-at-gum-ranch?utm_source=GMB&utm_medium=organic&utm_campaign=website",
    "photo_url": "https://cdn.filestackcontent.com/4jbpSun1ReEEgP5eAyqj",
    "nets_provided": true,
    "skill_levels": "intermediate",
    "court_type": "dedicated"
  },
  {
    "county_slug": "sacramento",
    "state": "CA",
    "verified": false,
    "name": "The Picklr Rancho Cordova",
    "description": "Come play pickleball at The Picklr Rancho Cordova in Rancho Cordova, CA! There are 10 indoor concrete, acrylic, and hard courts. These are dedicated courts with permanent lines and nets. A membership is required to play. Amenities include locker rooms, restrooms, water, youth programming, lights, a pro shop or equipment store, trainers or lessons, wheelchair accessibility, and adaptive programming.",
    "address": "11135 Trade Center Dr Suite 110",
    "city": "Rancho Cordova",
    "latitude": 38.602492,
    "longitude": -121.271998,
    "indoor": true,
    "lighted": true,
    "num_courts": 10,
    "surface_type": "Concrete, Acrylic, Hard",
    "fees": "Members only",
    "website": "https://thepicklr.com/location/rancho-cordova/",
    "photo_url": "https://cdn.filestackcontent.com/36P05MDIRqiwL5GEiLy6",
    "has_restrooms": true,
    "has_water": true,
    "has_pro_shop": true,
    "wheelchair_accessible": true,
    "nets_provided": true,
    "skill_levels": "beginner,intermediate",
    "court_type": "dedicated"
  },
  {
    "county_slug": "sacramento",
    "state": "CA",
    "verified": false,
    "name": "The Smashing Pickle",
    "description": "The Smashing Pickle is a place to play pickleball in Elk Grove, CA. There are 6 concrete courts. 2 are outdoors and 4 are indoors. These are dedicated courts with permanent lines and nets. Amenities include food, restrooms, water, lights, a pro shop or equipment store, and trainers or lessons.",
    "address": "3443 Laguna Boulevard",
    "city": "Elk Grove",
    "latitude": 38.428384,
    "longitude": -121.464375,
    "indoor": false,
    "lighted": true,
    "num_courts": 6,
    "surface_type": "Concrete",
    "website": "https://www.Thesmashingpickle.com",
    "email": "contact@thesmashingpickle.com",
    "photo_url": "https://cdn.filestackcontent.com/CYoyIVWSSelaKMbhcT5g",
    "has_restrooms": true,
    "has_water": true,
    "has_pro_shop": true,
    "nets_provided": true,
    "skill_levels": "beginner,intermediate",
    "court_type": "dedicated"
  },
  {
    "county_slug": "sacramento",
    "state": "CA",
    "verified": false,
    "name": "Valley Oak Park",
    "description": "Valley Oak Park is one of the most popular places to play pickleball in Sacramento, CA. There are 2 outdoor hard courts. The lines are overlaid on a tennis court, so the net is a little taller than a normal pickleball net. The courts are free. Players have access to water and lights.",
    "address": "2780 Mabry Dr",
    "city": "Sacramento",
    "zip_code": "95835",
    "latitude": 38.673671,
    "longitude": -121.529174,
    "indoor": false,
    "lighted": true,
    "num_courts": 2,
    "surface_type": "Hard",
    "fees": "Free",
    "phone": "(916) 808-5200",
    "website": "https://www.cityofsacramento.org/ParksandRec/Parks/Park-Directory/North-Natomas/ValleyOakPark",
    "photo_url": "https://cdn.filestackcontent.com/yyUcC32YQh6Z15Ha60j9",
    "has_water": true,
    "skill_levels": "advanced,beginner,intermediate",
    "court_type": "dedicated"
  },
  {
    "county_slug": "sacramento",
    "state": "CA",
    "verified": false,
    "name": "Van Doren Park",
    "description": "Van Doren Park is a place to play pickleball in Elk Grove, CA. There are 2 outdoor clay courts. The lines are overlaid on a tennis court, so the net is a little taller than a normal pickleball net. The courts are free.",
    "address": "9100 Neponset Dr",
    "city": "Elk Grove",
    "latitude": 38.420394,
    "longitude": -121.362439,
    "indoor": false,
    "num_courts": 2,
    "surface_type": "Clay",
    "fees": "Free",
    "phone": "+19164055600",
    "website": "https://www.cosumnescsd.gov/652/Van-Doren-Park",
    "photo_url": "https://cdn.filestackcontent.com/IWwGYgqJRiDL2PW31TRW",
    "skill_levels": "beginner,intermediate",
    "court_type": "dedicated"
  },
  {
    "county_slug": "sacramento",
    "state": "CA",
    "verified": false,
    "name": "Wackman Park",
    "description": "Wackman Park is a place to play pickleball in Elk Grove, CA. There are 4 outdoor acrylic courts. The lines are permanent, but you'll need to bring your own net. The courts are free. You can’t reserve the courts.",
    "address": "5851 Laguna Quail Way",
    "city": "Elk Grove",
    "zip_code": "95758",
    "latitude": 38.428432,
    "longitude": -121.441324,
    "indoor": false,
    "num_courts": 4,
    "surface_type": "Acrylic",
    "fees": "Free",
    "phone": "(916) 405-5688",
    "website": "http://www.yourcsd.com/654/Wackman-Park",
    "photo_url": "https://cdn.filestackcontent.com/HYAeqRwXQSyxa2jaf60k",
    "nets_provided": false,
    "skill_levels": "beginner,intermediate",
    "court_type": "dedicated"
  },
  {
    "county_slug": "sacramento",
    "state": "CA",
    "verified": false,
    "name": "Westlake Courts",
    "description": "Westlake Courts is one of the most popular places to play pickleball in Sacramento, CA. There are 2 outdoor concrete courts. The lines are overlaid on a tennis court, so the net is a little taller than a normal pickleball net. The courts are free.",
    "address": "280 Candela Circle",
    "city": "Sacramento",
    "latitude": 38.656345,
    "longitude": -121.545207,
    "indoor": false,
    "num_courts": 2,
    "surface_type": "Concrete",
    "fees": "Free",
    "skill_levels": "advanced,beginner,intermediate",
    "court_type": "dedicated"
  },
  {
    "county_slug": "sacramento",
    "state": "CA",
    "verified": false,
    "name": "Woodlake Park",
    "description": "Woodlake Park is a place to play pickleball in Sacramento, CA. There is 1 outdoor hard court. The lines are overlaid on a tennis court, so the net is a little taller than a normal pickleball net. The court is free. Players have access to water.",
    "address": "500 Arden Wy",
    "city": "Sacramento",
    "latitude": 38.606029,
    "longitude": -121.454882,
    "indoor": false,
    "num_courts": 1,
    "surface_type": "Hard",
    "fees": "Free",
    "website": "https://www.cityofsacramento.org/ParksandRec/Parks/Park-Directory/North-Sacramento/Woodlake-Park",
    "photo_url": "https://cdn.filestackcontent.com/lcYooDySN2OUtTICB4UQ",
    "has_water": true,
    "skill_levels": "beginner,intermediate",
    "court_type": "dedicated"
  }
]