[
  {
    "county_slug": "san-mateo",
    "state": "CA",
    "verified": false,
    "name": "Alexander Park",
    "description": "Alexander Park is one of the most popular places to play pickleball in Belmont, CA. There are 2 outdoor courts. The courts are free.",
    "address": "409 Yorkshire Way",
    "city": "Belmont",
    "zip_code": "94002",
    "latitude": 37.527293,
    "longitude": -122.280483,
    "indoor": false,
    "num_courts": 2,
    "fees": "Free",
    "website": "http://www.belmont.gov/",
    "skill_levels": "beginner,intermediate"
  },
  {
    "county_slug": "san-mateo",
    "state": "CA",
    "verified": false,
    "name": "Andrew Spinas Park",
    "description": "Andrew Spinas Park is a place to play pickleball in Redwood City, CA. There are 2 outdoor hard courts. The lines are permanent, and portable nets are available. The courts are free. Players have access to restrooms, water, and lights.",
    "address": "419 Broadway St",
    "city": "Redwood City",
    "zip_code": "94063",
    "latitude": 37.484976,
    "longitude": -122.201919,
    "indoor": false,
    "lighted": true,
    "num_courts": 2,
    "surface_type": "Hard",
    "fees": "Free",
    "phone": "+16507807311",
    "website": "https://www.redwoodcity.org/Home/Components/FacilityDirectory/FacilityDirectory/2/1912",
    "has_restrooms": true,
    "has_water": true,
    "nets_provided": true,
    "skill_levels": "advanced,beginner",
    "court_type": "dedicated"
  },
  {
    "county_slug": "san-mateo",
    "state": "CA",
    "verified": false,
    "name": "Athletic Club San Carlos",
    "description": "Athletic Club San Carlos is a place to play pickleball in Menlo Park, CA. There are 2 indoor courts. The lines are permanent, and portable nets are available. A membership is required to play.",
    "address": "3 Callie Ln",
    "city": "Menlo Park",
    "zip_code": "94025",
    "latitude": 37.477284,
    "longitude": -122.184133,
    "indoor": true,
    "num_courts": 2,
    "fees": "Members only",
    "phone": "6222260700",
    "website": "https://www.24hourfitness.com/Website/Club/595",
    "photo_url": "https://cdn.filestackcontent.com/gFayS6xgRLuVZgJ4IrSG",
    "nets_provided": true,
    "skill_levels": "beginner,intermediate",
    "court_type": "dedicated",
    "has_pro_shop": true
  },
  {
    "county_slug": "san-mateo",
    "state": "CA",
    "verified": false,
    "name": "Bay Area Sportshouse (BASH)",
    "description": "Bay Area Sportshouse (BASH) is a place to play pickleball in South San Francisco, CA. There are 2 indoor concrete courts. These are dedicated courts with permanent lines and nets. Amenities include locker rooms, restrooms, water, a pro shop or equipment store, and lights. A one-time fee is required to play.",
    "address": "147 Beacon Street",
    "city": "South San Francisco",
    "latitude": 37.640144,
    "longitude": -122.403616,
    "indoor": true,
    "lighted": true,
    "num_courts": 2,
    "surface_type": "Concrete",
    "fees": "Fee required — Come check out our dedicated indoor Pickleball courts at Bay Area Sportshouse (BASH) in South San Francisco. \n\nPlease use the link below to register and buy a \"Day Pass,\" good for open ",
    "phone": "5103128617",
    "website": "http://www.bayareasportshouse.com",
    "email": "Admin@bayareasportshouse.com",
    "photo_url": "https://cdn.filestackcontent.com/ck3XH0tLQuq7CbwuNXlF",
    "has_restrooms": true,
    "has_water": true,
    "has_pro_shop": true,
    "nets_provided": true,
    "skill_levels": "beginner,intermediate",
    "court_type": "dedicated"
  },
  {
    "county_slug": "san-mateo",
    "state": "CA",
    "verified": false,
    "name": "Bay Club - Broadway Tennis and Pickleball",
    "description": "Bay Club - Broadway Tennis and Pickleball is one of the most popular places to play pickleball in Burlingame, CA. There are 6 indoor hard courts. These are dedicated courts with permanent lines and nets. The courts can be reserved. A membership is required to play. Amenities include restrooms, water, lights, locker rooms, trainers or lessons, wheelchair accessibility, and food.",
    "address": "60 Edwards Ct",
    "city": "Burlingame",
    "latitude": 37.592815,
    "longitude": -122.366678,
    "indoor": true,
    "lighted": true,
    "num_courts": 6,
    "surface_type": "Hard",
    "fees": "Members only — Go to https://www.bayclubs.com/broadwaytennis for details regarding membership",
    "phone": "6505795915",
    "website": "https://www.bayclubs.com/broadwaytennis/",
    "email": "info.bcbt@bayclubs.com",
    "photo_url": "https://cdn.filestackcontent.com/sHp9bTShRd66Osjn6o6I",
    "has_restrooms": true,
    "has_water": true,
    "wheelchair_accessible": true,
    "nets_provided": true,
    "skill_levels": "beginner,intermediate",
    "court_type": "dedicated"
  },
  {
    "county_slug": "san-mateo",
    "state": "CA",
    "verified": false,
    "name": "Bay Club South San Francisco",
    "description": "Bay Club South San Francisco is a place to play pickleball in Daly City, CA. There are 6 indoor hard courts. These are dedicated courts with permanent lines and nets. Reservations are available. The facility includes amenities like food, locker rooms, restrooms, water, and lights. A membership is required to play.",
    "address": "501 Carter St",
    "city": "Daly City",
    "zip_code": "94014",
    "latitude": 37.708385,
    "longitude": -122.42389,
    "indoor": true,
    "lighted": true,
    "num_courts": 6,
    "surface_type": "Hard",
    "fees": "Members only",
    "phone": "(415) 777-9000",
    "website": "http://www.bayclubs.com/sftennis",
    "email": "info.bcssf@bayclubs.com",
    "photo_url": "https://cdn.filestackcontent.com/mkulY22iTxUROLMq7Lyr",
    "has_restrooms": true,
    "has_water": true,
    "nets_provided": true,
    "skill_levels": "advanced,intermediate",
    "court_type": "dedicated"
  },
  {
    "county_slug": "san-mateo",
    "state": "CA",
    "verified": false,
    "name": "Beresford Park",
    "description": "Come play pickleball at Beresford Park in San Mateo, CA! There are 3 outdoor concrete courts. The lines are permanent, and portable nets are available. Amenities include lights and restrooms. The courts are free.",
    "address": "2720 Alameda de las Pulgas",
    "city": "San Mateo",
    "latitude": 37.537901,
    "longitude": -122.312944,
    "indoor": false,
    "lighted": true,
    "num_courts": 3,
    "surface_type": "Concrete",
    "open_play_schedule": "8am-10pm",
    "fees": "Free",
    "phone": "6505227440",
    "website": "https://www.cityofsanmateo.org/Facilities/Facility/Details/Beresford-Recreation-Center-4",
    "photo_url": "https://cdn.filestackcontent.com/shc7QsVoSWS7ps8KBH68",
    "has_restrooms": true,
    "nets_provided": true,
    "skill_levels": "beginner,intermediate",
    "court_type": "dedicated"
  },
  {
    "county_slug": "san-mateo",
    "state": "CA",
    "verified": false,
    "name": "Buena Vida Courts @ San Carlos Plaza Hotel",
    "description": "Come play pickleball at Buena Vida Courts @ San Carlos Plaza Hotel in San Carlos, CA! There are 4 outdoor asphalt and concrete courts. These are dedicated courts with permanent lines and nets. You can reserve the courts. The facility includes amenities like lights, restrooms, water, trainers or lessons, and food. A one-time fee is required to play.",
    "address": "Malibú Nte. 71",
    "city": "San Carlos",
    "latitude": 27.958786,
    "longitude": -111.09571,
    "indoor": false,
    "lighted": true,
    "num_courts": 4,
    "surface_type": "Asphalt, Concrete",
    "fees": "Fee required — Use Playtomic App to pay fees and reserve court time!",
    "phone": "503-502-4649",
    "website": "http://www.sancarlosplaza.mx/servicios",
    "email": "tonymeyerneener@gmail.com",
    "photo_url": "https://cdn.filestackcontent.com/SwnotgcSl6LQ7O8forD0",
    "has_restrooms": true,
    "has_water": true,
    "nets_provided": true,
    "court_type": "dedicated"
  },
  {
    "county_slug": "san-mateo",
    "state": "CA",
    "verified": false,
    "name": "Buri Buri Park",
    "description": "Buri Buri Park is one of the most popular places to play pickleball in South San Francisco, CA. There are 4 outdoor hard courts. The lines are permanent, and portable nets are available. Reservations are not available. Amenities include water, restrooms, and lights. The courts are free.",
    "address": "200 Arroyo Dr",
    "city": "South San Francisco",
    "zip_code": "94080",
    "latitude": 37.652145,
    "longitude": -122.442013,
    "indoor": false,
    "lighted": true,
    "num_courts": 4,
    "surface_type": "Hard",
    "fees": "Free",
    "website": "https://www.ssf.net/departments/parks-recreation/parks-division",
    "photo_url": "https://cdn.filestackcontent.com/bg9UL32QaiyLtvdWW8eB",
    "has_restrooms": true,
    "has_water": true,
    "nets_provided": true,
    "skill_levels": "beginner,intermediate",
    "court_type": "dedicated",
    "has_parking": true
  },
  {
    "county_slug": "san-mateo",
    "state": "CA",
    "verified": false,
    "name": "Cañada College Athletic Center",
    "description": "Cañada College Athletic Center is a place to play pickleball in Woodside, CA. There are 3 outdoor concrete courts. These are dedicated courts with permanent lines and nets. The courts can be reserved. The facility includes amenities like water, restrooms, trainers or lessons, wheelchair accessibility, and food. A membership is required to play.",
    "address": "4200 Farm Hill Blvd",
    "city": "Woodside",
    "latitude": 37.447386,
    "longitude": -122.266363,
    "indoor": false,
    "num_courts": 3,
    "surface_type": "Concrete",
    "fees": "Members only",
    "phone": "+16503813575",
    "website": "https://comfit.canadacollege.edu/",
    "photo_url": "https://cdn.filestackcontent.com/AzsplluETGOrvuwBVLYW",
    "has_restrooms": true,
    "has_water": true,
    "wheelchair_accessible": true,
    "nets_provided": true,
    "skill_levels": "advanced,intermediate",
    "court_type": "dedicated",
    "has_parking": true
  },
  {
    "county_slug": "san-mateo",
    "state": "CA",
    "verified": false,
    "name": "Cunha Middle School",
    "description": "Cunha Middle School is one of the most popular places to play pickleball in Half Moon Bay, CA. There are 3 outdoor clay courts. The lines are overlaid on a tennis court, so the net is a little taller than a normal pickleball net. The courts are free.",
    "address": "600 Church St",
    "city": "Half Moon Bay",
    "latitude": 37.463654,
    "longitude": -122.432259,
    "indoor": false,
    "num_courts": 3,
    "surface_type": "Clay",
    "fees": "Free",
    "phone": "+16507127190",
    "website": "https://coastsidepickleball.org",
    "photo_url": "https://cdn.filestackcontent.com/GWuUl4vTc6Ju3A109VRS",
    "skill_levels": "intermediate",
    "court_type": "dedicated"
  },
  {
    "county_slug": "san-mateo",
    "state": "CA",
    "verified": false,
    "name": "Gellert Park",
    "description": "Also various BYO net spaces in addition to 2 permanent courts",
    "address": "50 Wembley Dr",
    "city": "Daly City",
    "latitude": 37.663476,
    "longitude": -122.470917,
    "indoor": false,
    "num_courts": 2,
    "surface_type": "Hard",
    "fees": "Free",
    "phone": "+16509918001",
    "website": "https://www.dalycity.org/",
    "photo_url": "https://cdn.filestackcontent.com/jpI8vhFjRdOY00d7ltWa",
    "nets_provided": true,
    "skill_levels": "beginner,intermediate",
    "court_type": "dedicated"
  },
  {
    "county_slug": "san-mateo",
    "state": "CA",
    "verified": false,
    "name": "Hallmark Park",
    "description": "Hallmark Park is one of the most popular places to play pickleball in Belmont, CA. There are 2 outdoor hard courts. The lines are overlaid on a tennis court, so the net is a little taller than a normal pickleball net. Reservations are not available. The courts are free.",
    "address": "2599 Hallmark Dr",
    "city": "Belmont",
    "latitude": 37.502872,
    "longitude": -122.308677,
    "indoor": false,
    "num_courts": 2,
    "surface_type": "Hard",
    "fees": "Free",
    "phone": "+16505957441",
    "website": "https://www.belmont.gov/Home/Components/FacilityDirectory/FacilityDirectory/16/702",
    "photo_url": "https://cdn.filestackcontent.com/mPkIbYiXSGi9gQVy7y40",
    "skill_levels": "intermediate",
    "court_type": "dedicated"
  },
  {
    "county_slug": "san-mateo",
    "state": "CA",
    "verified": false,
    "name": "Highlands Park",
    "description": "Highlands Park is one of the most popular places to play pickleball in San Carlos, CA. There are 4 outdoor hard courts. The lines are permanent, and portable nets are available. Amenities include restrooms, water, and lights. The courts are free.",
    "address": "2600 Melendy Drive",
    "city": "San Carlos",
    "latitude": 37.493532,
    "longitude": -122.274479,
    "indoor": false,
    "lighted": true,
    "num_courts": 4,
    "surface_type": "Hard",
    "fees": "Free",
    "phone": "(650) 802-4382",
    "website": "http://www.ci.san-carlos.ca.us/",
    "photo_url": "https://cdn.filestackcontent.com/rY62sHEVRDiM2I3Fx8eH",
    "has_restrooms": true,
    "has_water": true,
    "nets_provided": true,
    "skill_levels": "beginner,intermediate",
    "court_type": "dedicated"
  },
  {
    "county_slug": "san-mateo",
    "state": "CA",
    "verified": false,
    "name": "Ladera Oaks",
    "description": "Ladera Oaks is one of the most popular places to play pickleball in Portola Valley, CA. There are 4 outdoor concrete and hard courts. The lines are permanent, and portable nets are available. Reservations are available. A membership is required to play.",
    "address": "3249 Alpine Rd",
    "city": "Portola Valley",
    "latitude": 37.398451,
    "longitude": -122.192143,
    "indoor": false,
    "num_courts": 4,
    "surface_type": "Concrete, Hard",
    "fees": "Members only",
    "phone": "+16508543101",
    "website": "https://www.laderaoaks.com/",
    "photo_url": "https://cdn.filestackcontent.com/vnzr2YURY2z6gphhKY0F",
    "nets_provided": true,
    "skill_levels": "intermediate",
    "court_type": "dedicated"
  },
  {
    "county_slug": "san-mateo",
    "state": "CA",
    "verified": false,
    "name": "Laguna Park Tennis Courts",
    "description": "Tennis and pickleball nets are available on site. The tennis net is also used as the pickleball net. It's height can be adjusted by a Velcro strap in the center.",
    "address": "1414 Laguna Avenue",
    "city": "Burlingame",
    "latitude": 37.589407,
    "longitude": -122.36955,
    "indoor": false,
    "num_courts": 2,
    "surface_type": "Hard",
    "fees": "Free",
    "phone": "+16505587300",
    "website": "https://ca-burlingame.civicplus.com/Facilities/Facility/Details/Laguna-Park-Tennis-Courts-27",
    "email": "recreation@burlingame.org",
    "photo_url": "https://cdn.filestackcontent.com/5PE1Xw1nQ1WUtXip7Dvu",
    "skill_levels": "intermediate",
    "court_type": "dedicated"
  },
  {
    "county_slug": "san-mateo",
    "state": "CA",
    "verified": false,
    "name": "Leo J. Ryan Park",
    "description": "I played on courts 1-3 this morning during open play. There was no mention of a fee. There is no person there to collect monies.",
    "address": "650 Shell Blvd",
    "city": "Foster City",
    "zip_code": "94404",
    "latitude": 37.557081,
    "longitude": -122.267689,
    "indoor": false,
    "lighted": true,
    "num_courts": 6,
    "surface_type": "Acrylic",
    "fees": "Free",
    "phone": "6502863380",
    "website": "https://www.fostercity.org/parksrec/page/leo-j-ryan-park",
    "photo_url": "https://cdn.filestackcontent.com/cZ2TOE6ZQUiFTqL9WtBf",
    "has_restrooms": true,
    "has_water": true,
    "nets_provided": true,
    "skill_levels": "advanced",
    "court_type": "dedicated",
    "hours": "5pm-9pm"
  },
  {
    "county_slug": "san-mateo",
    "state": "CA",
    "verified": false,
    "name": "Millbrae Central Park",
    "description": "Millbrae Central Park is a place to play pickleball in Millbrae, CA. There are 4 outdoor hard courts. The lines are permanent, and portable nets are available. The facility includes amenities like lights. The courts are free.",
    "address": "477 Lincoln Circle",
    "city": "Millbrae",
    "latitude": 37.600042,
    "longitude": -122.400581,
    "indoor": false,
    "lighted": true,
    "num_courts": 4,
    "surface_type": "Hard",
    "fees": "Free",
    "phone": "+16502592360",
    "website": "https://www.ci.millbrae.ca.us/158/Recreation-Department",
    "email": "recreation@ci.millbrae.ca.us",
    "photo_url": "https://cdn.filestackcontent.com/9DAlTv9RQaEkrXvcI5h5",
    "nets_provided": true,
    "skill_levels": "advanced,intermediate",
    "court_type": "dedicated",
    "hours": "Monday through Friday: 8:30 am to 8 pm Saturday: 9 am to 5 pm Sunday: noon to 5 pm Government Websites by CivicPlus® Loading Loading Do Not Show Again Close Arrow Left Arrow Right [] Slideshow Left Arrow Slideshow Right Arrow",
    "has_parking": true
  },
  {
    "county_slug": "san-mateo",
    "state": "CA",
    "verified": false,
    "name": "Mission Blue Tennis Courts",
    "description": "Mission Blue Tennis Courts is a place to play pickleball in Brisbane, CA. There are 2 outdoor hard courts. The lines are permanent, and portable nets are available. The courts are free. The facility includes amenities like lights and restrooms.",
    "address": "Mission Blue Tennis Court",
    "city": "Brisbane",
    "latitude": 37.69238,
    "longitude": -122.414672,
    "indoor": false,
    "lighted": true,
    "num_courts": 2,
    "surface_type": "Hard",
    "fees": "Free",
    "phone": "+14155082140",
    "website": "https://www.brisbaneca.org/parksrec/page/pickleball-mission-blue-tennis-courts",
    "email": "jfranco@brisbaneca.org",
    "photo_url": "https://cdn.filestackcontent.com/zu1MeCu8SuaMrofowsKU",
    "has_restrooms": true,
    "nets_provided": true,
    "skill_levels": "beginner",
    "court_type": "dedicated"
  },
  {
    "county_slug": "san-mateo",
    "state": "CA",
    "verified": false,
    "name": "Moss Beach Park",
    "description": "Come play pickleball at Moss Beach Park in Moss Beach, CA! There is 1 outdoor court. You’ll have to create your own lines and bring your own net.",
    "address": "516 Virginia Ave",
    "city": "Moss Beach",
    "zip_code": "94038",
    "latitude": 37.527031,
    "longitude": -122.51255,
    "indoor": false,
    "num_courts": 1,
    "photo_url": "https://cdn.filestackcontent.com/YIFljOhtThujEB1y53mm",
    "nets_provided": false,
    "skill_levels": "intermediate",
    "court_type": "shared"
  },
  {
    "county_slug": "san-mateo",
    "state": "CA",
    "verified": false,
    "name": "Nealon Park",
    "description": "Nealon Park is one of the most popular places to play pickleball in Menlo Park, CA. There are 4 outdoor asphalt courts. The lines are permanent, and portable nets are available. Reservations are not available. The courts are free. Players have access to restrooms, water, and lights.",
    "address": "800 Middle Ave",
    "city": "Menlo Park",
    "zip_code": "94025",
    "latitude": 37.448025,
    "longitude": -122.18053,
    "indoor": false,
    "lighted": true,
    "num_courts": 4,
    "surface_type": "Asphalt",
    "fees": "Free",
    "phone": "6507999556",
    "website": "https://www.menlopark.org/Facilities/Facility/Details/Nealon-Park-7",
    "email": "menlopickle@gmail.com",
    "photo_url": "https://cdn.filestackcontent.com/3JZdZ2S5SxubqrDoNk2J",
    "has_restrooms": true,
    "has_water": true,
    "nets_provided": true,
    "skill_levels": "advanced,beginner,intermediate",
    "court_type": "dedicated"
  },
  {
    "county_slug": "san-mateo",
    "state": "CA",
    "verified": false,
    "name": "On Call Pickleball",
    "description": "Come play pickleball at On Call Pickleball in Belmont, CA! There is 1 outdoor concrete court. Tape lines have been laid, and portable nets are available. Reservations are not available. The court is private.",
    "address": "2525 Buena Vista Ave",
    "city": "Belmont",
    "latitude": 37.515307,
    "longitude": -122.306533,
    "indoor": false,
    "num_courts": 1,
    "surface_type": "Concrete",
    "fees": "Private",
    "photo_url": "https://cdn.filestackcontent.com/4mba4p0CTIaPGdecKDjf",
    "nets_provided": true,
    "court_type": "shared"
  },
  {
    "county_slug": "san-mateo",
    "state": "CA",
    "verified": false,
    "name": "Pacelli Event Center",
    "description": "Pacelli Event Center is one of the most popular places to play pickleball in Daly City, CA. There are 3 indoor hard courts. The lines are permanent, but you'll need to bring your own net. The courts are free. You can reserve the courts.",
    "address": "145 Lake Merced Blvd",
    "city": "Daly City",
    "zip_code": "94015",
    "latitude": 37.703203,
    "longitude": -122.485685,
    "indoor": true,
    "num_courts": 3,
    "surface_type": "Hard",
    "fees": "Free",
    "phone": "(650) 991-8021",
    "website": "http://www.dalycity.org/",
    "photo_url": "https://cdn.filestackcontent.com/u4gHbyl6QQWqplVGji2M",
    "nets_provided": false,
    "skill_levels": "beginner,intermediate",
    "court_type": "dedicated"
  },
  {
    "county_slug": "san-mateo",
    "state": "CA",
    "verified": false,
    "name": "Portola Valley Town Courts",
    "description": "Portola Valley Town Courts is a place to play pickleball in Portola Valley, CA. There are 8 outdoor hard courts. The lines are permanent, and portable nets are available. The courts are free. The facility includes amenities like restrooms, water, and wheelchair accessibility.",
    "address": "765 Portola Rd",
    "city": "Portola Valley",
    "zip_code": "94028",
    "latitude": 37.382826,
    "longitude": -122.231928,
    "indoor": false,
    "num_courts": 8,
    "surface_type": "Hard",
    "fees": "Free",
    "phone": "6508511700",
    "website": "https://www.portolavalley.net/for-residents/parks-recreation/public-parks-athletic-fields/tennis-all-sports-courts",
    "photo_url": "https://cdn.filestackcontent.com/SLSMWrBaSQevqWNC7zPG",
    "has_restrooms": true,
    "has_water": true,
    "wheelchair_accessible": true,
    "nets_provided": true,
    "skill_levels": "beginner,intermediate",
    "court_type": "dedicated"
  },
  {
    "county_slug": "san-mateo",
    "state": "CA",
    "verified": false,
    "name": "Ray Park",
    "description": "Ray Park is a place to play pickleball in Burlingame, CA. There are 2 outdoor hard courts. The lines are permanent, and portable nets are available. The courts are free.",
    "address": "1525 Balboa Way",
    "city": "Burlingame",
    "latitude": 37.588453,
    "longitude": -122.37714,
    "indoor": false,
    "num_courts": 2,
    "surface_type": "Hard",
    "fees": "Free",
    "phone": "+16505587300",
    "website": "https://ca-burlingame.civicplus.com/Facilities/Facility/Details/Ray-Park-Tennis-Courts-26",
    "email": "recreation@burlingame.org",
    "photo_url": "https://cdn.filestackcontent.com/Wi6wMX7QDy67xI3yVDg1",
    "nets_provided": true,
    "skill_levels": "intermediate",
    "court_type": "dedicated"
  },
  {
    "county_slug": "san-mateo",
    "state": "CA",
    "verified": false,
    "name": "Red Morton Community Center",
    "description": "Red Morton Community Center is one of the most popular places to play pickleball in Redwood City, CA. There are 3 indoor hard courts. The lines are permanent, and portable nets are available. The courts are free. Amenities include lights, water, and restrooms.",
    "address": "1120 Roosevelt Avenue",
    "city": "Redwood City",
    "latitude": 37.472039,
    "longitude": -122.23546,
    "indoor": true,
    "lighted": true,
    "num_courts": 3,
    "surface_type": "Hard",
    "fees": "Free",
    "phone": "+16507807311",
    "website": "https://www.redwoodcity.org/departments/parks-recreation-and-community-services/sports/open-gym",
    "photo_url": "https://cdn.filestackcontent.com/58NrWGsRq6hbGYCk4IkV",
    "has_restrooms": true,
    "has_water": true,
    "nets_provided": true,
    "skill_levels": "beginner,intermediate",
    "court_type": "dedicated",
    "hours": "gym\" on this server. Reference #18.4460d017.1771009295.8e589fc https://errors.edgesuite.net/18.4460d017.1771009295.8e589fc"
  },
  {
    "county_slug": "san-mateo",
    "state": "CA",
    "verified": false,
    "name": "Red Morton Park",
    "description": "Red Morton Park is one of the most popular places to play pickleball in Redwood City, CA. There are 4 outdoor hard courts. The lines are permanent, and portable nets are available. The courts are free. The courts can be reserved. Players have access to restrooms, water, and lights.",
    "address": "1238 Roosevelt Ave",
    "city": "Redwood City",
    "latitude": 37.471168,
    "longitude": -122.236291,
    "indoor": false,
    "lighted": true,
    "num_courts": 4,
    "surface_type": "Hard",
    "fees": "Free",
    "phone": "6507807311",
    "website": "https://www.redwoodcity.org/departments/parks-recreation-and-community-services/facilities/pickleball",
    "email": "enewby@redwoodcity.org",
    "photo_url": "https://cdn.filestackcontent.com/ngUW413eRcq4jzhmtDPP",
    "has_restrooms": true,
    "has_water": true,
    "nets_provided": true,
    "skill_levels": "advanced,intermediate",
    "court_type": "dedicated"
  },
  {
    "county_slug": "san-mateo",
    "state": "CA",
    "verified": false,
    "name": "San Bruno City Park",
    "description": "No lights",
    "address": "120 Portola Way",
    "city": "San Bruno",
    "latitude": 37.614476,
    "longitude": -122.414097,
    "indoor": false,
    "num_courts": 4,
    "surface_type": "Hard",
    "fees": "Free",
    "phone": "+16506167196",
    "website": "https://www.sanbruno.ca.gov/1094/Pickleball-Pilot-Program",
    "photo_url": "https://cdn.filestackcontent.com/DGI9Cg9MRCqgqsnrSgHd",
    "nets_provided": true,
    "skill_levels": "intermediate",
    "court_type": "dedicated"
  },
  {
    "county_slug": "san-mateo",
    "state": "CA",
    "verified": false,
    "name": "San Carlos Youth Center",
    "description": "San Carlos Youth Center is one of the most popular places to play pickleball in San Carlos, CA. There are 3 indoor hard and wood courts. The lines are permanent, and portable nets are available. The facility includes amenities like restrooms. A one-time fee is required to play.",
    "address": "1001 Chestnut Street",
    "city": "San Carlos",
    "latitude": 37.49784,
    "longitude": -122.258343,
    "indoor": true,
    "num_courts": 3,
    "surface_type": "Hard, Wood",
    "fees": "Fee required — $5 per person",
    "phone": "+16508024124",
    "photo_url": "https://cdn.filestackcontent.com/uulAfDTXQKufb87Khjpe",
    "has_restrooms": true,
    "nets_provided": true,
    "skill_levels": "beginner,intermediate",
    "court_type": "dedicated"
  },
  {
    "county_slug": "san-mateo",
    "state": "CA",
    "verified": false,
    "name": "San Mateo Central Park",
    "description": "San Mateo Central Park is one of the most popular places to play pickleball in San Mateo, CA. There are 6 outdoor hard courts. The lines are permanent, and portable nets are available. Amenities include lights. The courts are free.",
    "address": "50 E 5th Ave",
    "city": "San Mateo",
    "zip_code": "94402",
    "latitude": 37.562086,
    "longitude": -122.323726,
    "indoor": false,
    "lighted": true,
    "num_courts": 6,
    "surface_type": "Hard",
    "fees": "Free",
    "phone": "6505227400",
    "website": "http://www.cityofsanmateo.org/index.aspx?NID=718",
    "photo_url": "https://cdn.filestackcontent.com/fECyxTuxS6ab63ySntLi",
    "nets_provided": true,
    "skill_levels": "beginner,intermediate",
    "court_type": "dedicated"
  },
  {
    "county_slug": "san-mateo",
    "state": "CA",
    "verified": false,
    "name": "San Mateo High School",
    "description": "San Mateo High School is one of the most popular places to play pickleball in San Mateo, CA. There are 6 indoor wood courts. The lines are permanent, and portable nets are available. A one-time fee is required to play. Players have access to restrooms and lights.",
    "address": "506 N Delaware St",
    "city": "San Mateo",
    "zip_code": "94401",
    "latitude": 37.579198,
    "longitude": -122.327631,
    "indoor": true,
    "lighted": true,
    "num_courts": 6,
    "surface_type": "Wood",
    "fees": "Fee required — The drop-in fee is only $5",
    "phone": "6505582399",
    "website": "https://www.smuhsd.org/sanmateohigh",
    "photo_url": "https://cdn.filestackcontent.com/FdtNVx6AS3GvgbWrWOi0",
    "has_restrooms": true,
    "nets_provided": true,
    "skill_levels": "beginner,intermediate",
    "court_type": "dedicated"
  },
  {
    "county_slug": "san-mateo",
    "state": "CA",
    "verified": false,
    "name": "Sellick Park",
    "description": "Sellick Park is a place to play pickleball in South San Francisco, CA. There are 4 outdoor courts. The lines are permanent, and portable nets are available. The courts are free. You can’t reserve the courts. The facility includes amenities like lights.",
    "address": "Appian Way",
    "city": "South San Francisco",
    "zip_code": "94080",
    "latitude": 37.642211,
    "longitude": -122.44722,
    "indoor": false,
    "lighted": true,
    "num_courts": 4,
    "fees": "Free",
    "website": "https://www.ssf.net/departments/parks-recreation/parks-division",
    "nets_provided": true,
    "skill_levels": "beginner,intermediate",
    "court_type": "dedicated",
    "has_parking": true
  },
  {
    "county_slug": "san-mateo",
    "state": "CA",
    "verified": false,
    "name": "Sequoia YMCA",
    "description": "Sequoia YMCA is one of the most popular places to play pickleball in Redwood City, CA. There are 2 indoor wood courts. The lines are permanent, and portable nets are available. A membership is required to play. Amenities include restrooms.",
    "address": "1445 Hudson St",
    "city": "Redwood City",
    "zip_code": "94061",
    "latitude": 37.470596,
    "longitude": -122.226479,
    "indoor": true,
    "num_courts": 2,
    "surface_type": "Wood",
    "fees": "Members only",
    "phone": "(650) 368-4168",
    "website": "https://www.ymcasv.org/locations/sequoia-ymca",
    "photo_url": "https://cdn.filestackcontent.com/1lhRvoyESnKJNyIGhGD5",
    "has_restrooms": true,
    "nets_provided": true,
    "skill_levels": "beginner,intermediate",
    "court_type": "dedicated",
    "hours": "6am–8pm"
  },
  {
    "county_slug": "san-mateo",
    "state": "CA",
    "verified": false,
    "name": "Sklarin Pickleball Club",
    "description": "Sklarin Pickleball Club is a place to play pickleball in Atherton, CA. There is 1 outdoor hard court. This is a dedicated court with a permanent net and lines. The court is private.",
    "address": "60 Middlefield Road",
    "city": "Atherton",
    "latitude": 37.469507,
    "longitude": -122.19723,
    "indoor": false,
    "num_courts": 1,
    "surface_type": "Hard",
    "fees": "Private",
    "nets_provided": true,
    "skill_levels": "advanced",
    "court_type": "dedicated"
  },
  {
    "county_slug": "san-mateo",
    "state": "CA",
    "verified": false,
    "name": "Stanford Redwood City Recreation & Wellness Center",
    "description": "Stanford Redwood City Recreation & Wellness Center is a place to play pickleball in Redwood City, CA. There are 3 indoor wood courts. The lines are permanent, and portable nets are available. The facility includes amenities like trainers or lessons, wheelchair accessibility, water, restrooms, locker rooms, lights, and food. A membership is required to play.",
    "address": "900 Warrington Ave",
    "city": "Redwood City",
    "latitude": 37.483753,
    "longitude": -122.204314,
    "indoor": true,
    "lighted": true,
    "num_courts": 3,
    "surface_type": "Wood",
    "fees": "Members only",
    "phone": "+16508393398",
    "website": "https://redwoodcity.stanford.edu/campus-resources/recreation-and-wellness-center",
    "email": "dmpickleball@gmail.com",
    "photo_url": "https://cdn.filestackcontent.com/0BB6kvlcT2GkSoFddS1N",
    "has_restrooms": true,
    "has_water": true,
    "wheelchair_accessible": true,
    "nets_provided": true,
    "skill_levels": "beginner,intermediate",
    "court_type": "dedicated"
  },
  {
    "county_slug": "san-mateo",
    "state": "CA",
    "verified": false,
    "name": "Stonegate Park",
    "description": "Stonegate Park is a place to play pickleball in South San Francisco, CA. There are 2 outdoor courts. The lines are permanent, but you'll need to bring your own net. Reservations are not available. The courts are free.",
    "address": "630 Stonegate Dr",
    "city": "South San Francisco",
    "latitude": 37.664799,
    "longitude": -122.425239,
    "indoor": false,
    "num_courts": 2,
    "fees": "Free",
    "website": "https://www.ssf.net/departments/parks-recreation/parks-division",
    "photo_url": "https://cdn.filestackcontent.com/TZUQ2YvTqevyCnkP6QrQ",
    "nets_provided": false,
    "skill_levels": "beginner,intermediate",
    "court_type": "dedicated",
    "has_parking": true
  },
  {
    "county_slug": "san-mateo",
    "state": "CA",
    "verified": false,
    "name": "Ted Adcock Community Center",
    "description": "Ted Adcock Community Center is one of the most popular places to play pickleball in Half Moon Bay, CA. There are 2 indoor wood courts. The lines are permanent, and portable nets are available. Amenities include restrooms and water. A one-time fee is required to play.",
    "address": "535 Kelly Ave",
    "city": "Half Moon Bay",
    "zip_code": "94019",
    "latitude": 37.464621,
    "longitude": -122.432182,
    "indoor": true,
    "num_courts": 2,
    "surface_type": "Wood",
    "fees": "Fee required",
    "phone": "6507502026",
    "website": "https://www.half-moon-bay.ca.us/435/Ted-Adcock-Community-Center-Room-Rental",
    "photo_url": "https://cdn.filestackcontent.com/QcAw8ZKgRN2zOMTAwHmN",
    "has_restrooms": true,
    "has_water": true,
    "nets_provided": true,
    "skill_levels": "beginner,intermediate",
    "court_type": "dedicated",
    "hours": "Mon -Thurs 8:30AM - 5:00PM Helpful Links California Coastal Commission Governor's Office of Planning and Research San Mateo County Communications Coastside Fire Protection District California State Parks /QuickLinks.aspx Site Links Home FAQs Site Map Employee Portal Staff Directory /QuickLinks.aspx Government Websites by CivicPlus® Loading Loading Do Not Show Again Close Arrow Left Arrow Right [] Slideshow Left Arrow Slideshow Right Arrow"
  },
  {
    "county_slug": "san-mateo",
    "state": "CA",
    "verified": false,
    "name": "Terrabay Gym",
    "description": "Terrabay Gym is one of the most popular places to play pickleball in South San Francisco, CA. There are 4 indoor hard courts. The lines are permanent, and portable nets are available. Players have access to restrooms. You can’t reserve the courts. A one-time fee is required to play.",
    "address": "1121 S San Francisco Dr",
    "city": "South San Francisco",
    "zip_code": "94080",
    "latitude": 37.66985,
    "longitude": -122.416796,
    "indoor": true,
    "num_courts": 4,
    "surface_type": "Hard",
    "fees": "Fee required — $4",
    "website": "http://www.ssf.net/",
    "photo_url": "https://cdn.filestackcontent.com/pQHWvLcrSFe5GRGJ4QZx",
    "has_restrooms": true,
    "nets_provided": true,
    "skill_levels": "beginner",
    "court_type": "dedicated",
    "hours": "11am to 2pm",
    "has_parking": true
  },
  {
    "county_slug": "san-mateo",
    "state": "CA",
    "verified": false,
    "name": "Terra Nova High School",
    "description": "Terra Nova High School is one of the most popular places to play pickleball in Pacifica, CA. There are 4 outdoor hard courts. The lines are overlaid on a tennis court, so the net is a little taller than a normal pickleball net. The courts are free.",
    "address": "1450 Terra Nova Blvd",
    "city": "Pacifica",
    "latitude": 37.595588,
    "longitude": -122.475737,
    "indoor": false,
    "num_courts": 4,
    "surface_type": "Hard",
    "fees": "Free",
    "phone": "+16505507600",
    "website": "https://www.juhsd.net/tnhs",
    "photo_url": "https://cdn.filestackcontent.com/XudRG90STqS5MvAXi98z",
    "skill_levels": "beginner,intermediate",
    "court_type": "dedicated"
  },
  {
    "county_slug": "san-mateo",
    "state": "CA",
    "verified": false,
    "name": "Totonaka Rv",
    "description": "Come play pickleball at Totonaka Rv in San Mateo, CA! There is 1 outdoor court. This is a dedicated court with a permanent net and lines. A one-time fee is required to play.",
    "address": "S Blvd",
    "city": "San Mateo",
    "zip_code": "94402",
    "latitude": 37.554021,
    "longitude": -122.312673,
    "indoor": false,
    "num_courts": 1,
    "fees": "Fee required",
    "phone": "6222260323",
    "photo_url": "https://cdn.filestackcontent.com/ftkDckRVTkOEaec5xwWq",
    "nets_provided": true,
    "skill_levels": "beginner,intermediate",
    "court_type": "dedicated"
  },
  {
    "county_slug": "san-mateo",
    "state": "CA",
    "verified": false,
    "name": "Unlimited Potential Basketball",
    "description": "Unlimited Potential Basketball is one of the most popular places to play pickleball in Burlingame, CA. There are 3 indoor wood courts. The lines are permanent, and portable nets are available. You can reserve the courts. The facility includes amenities like restrooms, water, and wheelchair accessibility. A one-time fee is required to play.",
    "address": "1704-B Rollins Road",
    "city": "Burlingame",
    "latitude": 37.596472,
    "longitude": -122.376103,
    "indoor": true,
    "num_courts": 3,
    "surface_type": "Wood",
    "fees": "Fee required — Reserve times but pay a reservation fee",
    "phone": "+16502041701",
    "website": "https://www.upbtraining.com",
    "email": "ruta@upbtraining.com",
    "photo_url": "https://cdn.filestackcontent.com/GbVhT7b6Qcu2muma3UcV",
    "has_restrooms": true,
    "has_water": true,
    "wheelchair_accessible": true,
    "nets_provided": true,
    "skill_levels": "beginner,intermediate",
    "court_type": "dedicated"
  },
  {
    "county_slug": "san-mateo",
    "state": "CA",
    "verified": false,
    "name": "War Memorial Community Center",
    "description": "War Memorial Community Center is a place to play pickleball in Daly City, CA. There are 3 indoor wood courts. The lines are permanent, and portable nets are available. Amenities include restrooms, water, wheelchair accessibility, and lights. The courts are free. The courts can be reserved.",
    "address": "6655 Mission St",
    "city": "Daly City",
    "zip_code": "94014",
    "latitude": 37.702273,
    "longitude": -122.463014,
    "indoor": true,
    "lighted": true,
    "num_courts": 3,
    "surface_type": "Wood",
    "fees": "Free",
    "phone": "(650) 991-8020",
    "website": "http://www.dalycity.org/",
    "email": "gmagagnini@dalycity.org",
    "photo_url": "https://cdn.filestackcontent.com/wxSK3ruFRUyi0qF41Vfh",
    "has_restrooms": true,
    "has_water": true,
    "wheelchair_accessible": true,
    "nets_provided": true,
    "skill_levels": "beginner,intermediate",
    "court_type": "dedicated"
  },
  {
    "county_slug": "san-mateo",
    "state": "CA",
    "verified": false,
    "name": "Washington Park",
    "description": "Four addition lined courts, no nets (bring your own)",
    "address": "850 Burlingame Avenue",
    "city": "Burlingame",
    "latitude": 37.582067,
    "longitude": -122.342592,
    "indoor": false,
    "lighted": true,
    "num_courts": 4,
    "surface_type": "Hard, Concrete",
    "fees": "Free",
    "website": "https://ca-burlingame.civicplus.com/Facilities/Facility/Details/Washington-Park-Tennis-Courts-24",
    "photo_url": "https://cdn.filestackcontent.com/4wns5rMAQKi4IBZ243LK",
    "has_restrooms": true,
    "has_water": true,
    "nets_provided": true,
    "skill_levels": "beginner,intermediate",
    "court_type": "dedicated"
  },
  {
    "county_slug": "san-mateo",
    "state": "CA",
    "verified": false,
    "name": "Westborough Park",
    "description": "Westborough Park is a place to play pickleball in South San Francisco, CA. There are 4 outdoor courts. The lines are permanent, but you'll need to bring your own net. The courts cannot be reserved. The courts are free.",
    "address": "2350 Galway Dr",
    "city": "South San Francisco",
    "latitude": 37.644607,
    "longitude": -122.457727,
    "indoor": false,
    "num_courts": 4,
    "fees": "Free",
    "website": "https://www.ssf.net/departments/parks-recreation/parks-division",
    "photo_url": "https://cdn.filestackcontent.com/4csMAQ0TOK81apN18yhX",
    "nets_provided": false,
    "skill_levels": "beginner,intermediate",
    "court_type": "dedicated",
    "has_parking": true
  }
]