[
  {
    "county_slug": "san-luis-obispo",
    "state": "CA",
    "verified": false,
    "name": "Arroyo Grande Recreation Center",
    "description": "Arroyo Grande Recreation Center is one of the most popular places to play pickleball in Arroyo Grande, CA. There are 4 outdoor concrete courts. These are dedicated courts with permanent lines and nets. The courts are free. The facility includes amenities like restrooms, water, and wheelchair accessibility.",
    "address": "1221 Ash St",
    "city": "Arroyo Grande",
    "zip_code": "93420",
    "latitude": 35.112934,
    "longitude": -120.602024,
    "indoor": false,
    "num_courts": 4,
    "surface_type": "Concrete",
    "fees": "Free",
    "website": "http://www.arroyogrande.org/Directory.aspx?did=14",
    "photo_url": "https://cdn.filestackcontent.com/XNeP6fauRmGPyLRX2wPg",
    "has_restrooms": true,
    "has_water": true,
    "wheelchair_accessible": true,
    "nets_provided": true,
    "skill_levels": "advanced,beginner,intermediate",
    "court_type": "dedicated"
  },
  {
    "county_slug": "san-luis-obispo",
    "state": "CA",
    "verified": false,
    "name": "Atascadero Junior High School",
    "description": "Atascadero Junior High School is a place to play pickleball in Atascadero, CA. There are 2 indoor hard courts. The lines are permanent, but you'll need to bring your own net. Amenities include restrooms and water. The courts cannot be reserved. The courts are private.",
    "address": "6501 Lewis Ave",
    "city": "Atascadero",
    "zip_code": "93422",
    "latitude": 35.49065,
    "longitude": -120.666641,
    "indoor": true,
    "num_courts": 2,
    "surface_type": "Hard",
    "fees": "Private",
    "phone": "8054237632",
    "website": "http://www.amssaints.org/",
    "photo_url": "https://cdn.filestackcontent.com/sezji50S4q7pTL4pYtTQ",
    "has_restrooms": true,
    "has_water": true,
    "nets_provided": false,
    "court_type": "dedicated"
  },
  {
    "county_slug": "san-luis-obispo",
    "state": "CA",
    "verified": false,
    "name": "Cambria Pickleball By The Sea",
    "description": "Courts are individually fenced.",
    "address": "1350 Main St",
    "city": "Cambria",
    "zip_code": "93428",
    "latitude": 35.562363,
    "longitude": -121.089903,
    "indoor": false,
    "num_courts": 6,
    "surface_type": "Acrylic",
    "fees": "Fee required — $3 fee. After 12:00, the courts are public and free to use.",
    "phone": "+18055740646",
    "website": "https://visitcambriaca.com/itinerary-element/cambria-pickleball-by-the-sea/",
    "photo_url": "https://cdn.filestackcontent.com/AZ1n81xRxiIo1IyWWQg3",
    "has_restrooms": true,
    "nets_provided": true,
    "skill_levels": "advanced,intermediate",
    "court_type": "dedicated"
  },
  {
    "county_slug": "san-luis-obispo",
    "state": "CA",
    "verified": false,
    "name": "Centennial Park",
    "description": "Centennial Park is a place to play pickleball in Paso Robles, CA. There are 5 outdoor acrylic courts. These are dedicated courts with permanent lines and nets. Amenities include restrooms and water. The courts are free.",
    "address": "600 Nickerson Dr",
    "city": "Paso Robles",
    "zip_code": "93446",
    "latitude": 35.622807,
    "longitude": -120.670109,
    "indoor": false,
    "num_courts": 5,
    "surface_type": "Acrylic",
    "fees": "Free",
    "phone": "+18052373988",
    "website": "https://www.prcity.com/799/Centennial-Park-Pool",
    "photo_url": "https://cdn.filestackcontent.com/iCXXuKV0SyqBzJ7uuvaP",
    "has_restrooms": true,
    "has_water": true,
    "nets_provided": true,
    "skill_levels": "advanced,intermediate",
    "court_type": "dedicated",
    "hours": "6 am to 11 pm"
  },
  {
    "county_slug": "san-luis-obispo",
    "state": "CA",
    "verified": false,
    "name": "Colony Park Community Center",
    "description": "Come play pickleball at Colony Park Community Center in Atascadero, CA! There are 7 wood and concrete courts. 3 are indoors and 4 are outdoors. These are dedicated courts with permanent lines and nets. You can’t reserve the courts. A one-time fee is required to play. Amenities include restrooms and water.",
    "address": "5599 Traffic Way",
    "city": "Atascadero",
    "zip_code": "93422",
    "latitude": 35.494069,
    "longitude": -120.666855,
    "indoor": false,
    "num_courts": 7,
    "surface_type": "Wood, Concrete",
    "fees": "Fee required — Drop-in fee due during club hours, $3 cash or $3.50 with credit card.",
    "website": "https://AtascaderoPickleball.com",
    "email": "atascaderopickleball@gmail.com",
    "photo_url": "https://cdn.filestackcontent.com/PK4xVDqXSKqIoMi7dJhA",
    "has_restrooms": true,
    "has_water": true,
    "nets_provided": true,
    "skill_levels": "advanced,intermediate",
    "court_type": "dedicated"
  },
  {
    "county_slug": "san-luis-obispo",
    "state": "CA",
    "verified": false,
    "name": "Del Mar Park in Morro Bay",
    "description": "Del Mar Park in Morro Bay is one of the most popular places to play pickleball in Morro Bay, CA. There are 4 outdoor hard courts. These are dedicated courts with permanent lines and nets. The courts are free. Players have access to restrooms and water.",
    "address": "3060 Ironwood Ave",
    "city": "Morro Bay",
    "latitude": 35.397953,
    "longitude": -120.856901,
    "indoor": false,
    "num_courts": 4,
    "surface_type": "Hard",
    "open_play_schedule": "The courts are open everyday (including holidays) 8am to dusk",
    "fees": "Free",
    "phone": "+18052356079",
    "website": "https://www.morro-bay.ca.us/377/Del-Mar-Park",
    "photo_url": "https://cdn.filestackcontent.com/k4EuvLyjQQKJtC7HFiu4",
    "has_restrooms": true,
    "has_water": true,
    "nets_provided": true,
    "skill_levels": "advanced,intermediate",
    "court_type": "dedicated"
  },
  {
    "county_slug": "san-luis-obispo",
    "state": "CA",
    "verified": false,
    "name": "EA French Park",
    "description": "EA French Park is one of the most popular places to play pickleball in San Luis Obispo, CA. There are 7 outdoor concrete courts. These are dedicated courts with permanent lines and nets. The courts are free. Players have access to restrooms, water, and wheelchair accessibility. You can reserve the courts.",
    "address": "1040 Fuller Rd",
    "city": "San Luis Obispo",
    "zip_code": "93401",
    "latitude": 35.246444,
    "longitude": -120.636871,
    "indoor": false,
    "num_courts": 7,
    "surface_type": "Concrete",
    "fees": "Free",
    "phone": "8057817222",
    "website": "https://www.slocity.org/Home/Components/FacilityDirectory/FacilityDirectory/40/2173",
    "photo_url": "https://cdn.filestackcontent.com/CxDwShpbTxy6Kw1QvivZ",
    "has_restrooms": true,
    "has_water": true,
    "wheelchair_accessible": true,
    "nets_provided": true,
    "skill_levels": "advanced,beginner",
    "court_type": "dedicated"
  },
  {
    "county_slug": "san-luis-obispo",
    "state": "CA",
    "verified": false,
    "name": "Heilmann Regional Park",
    "description": "Heilmann Regional Park is one of the most popular places to play pickleball in Atascadero, CA. There are 4 outdoor hard courts. These are dedicated courts with permanent lines and nets. The courts are free. Players have access to restrooms, water, and lights.",
    "address": "9400 El Bordo Ave",
    "city": "Atascadero",
    "latitude": 35.465576,
    "longitude": -120.639404,
    "indoor": false,
    "lighted": true,
    "num_courts": 4,
    "surface_type": "Hard",
    "fees": "Free",
    "phone": "+18057125780",
    "website": "https://slocountyparks.com/day-use-parks/heilmann-regional-park/",
    "email": "jlong50@yahoo.com",
    "photo_url": "https://cdn.filestackcontent.com/GPix4zjfRXqU0TtNbopQ",
    "has_restrooms": true,
    "has_water": true,
    "nets_provided": true,
    "skill_levels": "advanced,beginner,intermediate",
    "court_type": "dedicated",
    "has_parking": true
  },
  {
    "county_slug": "san-luis-obispo",
    "state": "CA",
    "verified": false,
    "name": "Heritage Ranch",
    "description": "Come play pickleball at Heritage Ranch in El Paso de Robles, CA! There are 3 outdoor concrete courts. These are dedicated courts with permanent lines and nets. The courts are free. Players have access to restrooms.",
    "address": "2130 Heritage Loop Rd",
    "city": "El Paso de Robles",
    "zip_code": "93446",
    "latitude": 35.742418,
    "longitude": -120.876719,
    "indoor": false,
    "num_courts": 3,
    "surface_type": "Concrete",
    "fees": "Free",
    "phone": "8052389641",
    "website": "https://hroa.us/recreation/pickleball-courts-at-heritage-park",
    "email": "office@hroa.us",
    "photo_url": "https://cdn.filestackcontent.com/gnkhbIOpSmyoEhFKrt5y",
    "has_restrooms": true,
    "nets_provided": true,
    "skill_levels": "intermediate",
    "court_type": "dedicated"
  },
  {
    "county_slug": "san-luis-obispo",
    "state": "CA",
    "verified": false,
    "name": "Kon Tiki Inn",
    "description": "Kon Tiki Inn is a place to play pickleball in Pismo Beach, CA. There are 4 outdoor hard courts. These are dedicated courts with permanent lines and nets. The facility includes amenities like lights. A one-time fee is required to play.",
    "address": "1621 Price St",
    "city": "Pismo Beach",
    "latitude": 35.146213,
    "longitude": -120.646073,
    "indoor": false,
    "lighted": true,
    "num_courts": 4,
    "surface_type": "Hard",
    "fees": "Fee required",
    "phone": "(805) 773-4833",
    "website": "https://www.kontikiinn.com/",
    "email": "ktipismo@gmail.com",
    "photo_url": "https://cdn.filestackcontent.com/8thSFP2vR2OjmANIiqge",
    "nets_provided": true,
    "skill_levels": "advanced,beginner,intermediate",
    "court_type": "dedicated"
  },
  {
    "county_slug": "san-luis-obispo",
    "state": "CA",
    "verified": false,
    "name": "Los Osos Community Park",
    "description": "Open Play / Paddles Up\nSun, Tue, Thur, Sat 12pm-2pm\nMon, Wed, Fri 9am-12pm\nFree outdoor parking.",
    "address": "2180 Palisades Ave",
    "city": "Baywood-Los Osos",
    "latitude": 35.31213,
    "longitude": -120.835964,
    "indoor": false,
    "num_courts": 4,
    "surface_type": "Concrete",
    "fees": "Free",
    "phone": "+18054410072",
    "website": "https://slocountyparks.com/day-use-parks/los-osos-community-park/",
    "photo_url": "https://cdn.filestackcontent.com/7H3KIB4vRlaTYO1sLUNU",
    "has_restrooms": true,
    "nets_provided": true,
    "skill_levels": "advanced,beginner,intermediate",
    "court_type": "dedicated",
    "has_parking": true
  },
  {
    "county_slug": "san-luis-obispo",
    "state": "CA",
    "verified": false,
    "name": "Meadow Park",
    "description": "Come play pickleball at Meadow Park in San Luis Obispo, CA! There are 3 outdoor courts. The lines are permanent, but you'll need to bring your own net. The courts are free.",
    "address": "2333 Meadow St",
    "city": "San Luis Obispo",
    "latitude": 35.268261,
    "longitude": -120.658928,
    "indoor": false,
    "num_courts": 3,
    "fees": "Free",
    "phone": "+15156696987",
    "email": "cmkelley2018@gmail.com",
    "photo_url": "https://cdn.filestackcontent.com/QRufmnOSnOW1EsVEqMTG",
    "nets_provided": false,
    "skill_levels": "advanced,beginner,intermediate",
    "court_type": "dedicated"
  },
  {
    "county_slug": "san-luis-obispo",
    "state": "CA",
    "verified": false,
    "name": "Mentone park",
    "description": "Mentone park is a place to play pickleball in Grover Beach, CA. There are 4 outdoor concrete courts. These are dedicated courts with permanent lines and nets. Amenities include restrooms and lights. The courts are free.",
    "address": "1400 Trouville Avenue",
    "city": "Grover Beach",
    "latitude": 35.1161,
    "longitude": -120.61446,
    "indoor": false,
    "lighted": true,
    "num_courts": 4,
    "surface_type": "Concrete",
    "fees": "Free",
    "website": "https://grover.org/141/Community-Services",
    "photo_url": "https://cdn.filestackcontent.com/I3WYXPncTKuMWlw3JneW",
    "has_restrooms": true,
    "nets_provided": true,
    "skill_levels": "advanced,intermediate",
    "court_type": "dedicated",
    "has_parking": true
  },
  {
    "county_slug": "san-luis-obispo",
    "state": "CA",
    "verified": false,
    "name": "Nipomo Community Park",
    "description": "Come play pickleball at Nipomo Community Park in Nipomo, CA! There are 6 outdoor hard courts. These are dedicated courts with permanent lines and nets. The courts are free. The facility includes amenities like lights.",
    "address": "255 Pomeroy Rd",
    "city": "Nipomo",
    "zip_code": "93444",
    "latitude": 35.033773,
    "longitude": -120.499849,
    "indoor": false,
    "lighted": true,
    "num_courts": 6,
    "surface_type": "Hard",
    "fees": "Free",
    "phone": "8057815930",
    "website": "https://slocountyparks.com/day-use-parks/nipomo-community-park/",
    "photo_url": "https://cdn.filestackcontent.com/OdDnv8dTWeY2vH3vtLyd",
    "nets_provided": true,
    "skill_levels": "advanced,intermediate",
    "court_type": "dedicated",
    "has_parking": true
  },
  {
    "county_slug": "san-luis-obispo",
    "state": "CA",
    "verified": false,
    "name": "Palisades Tennis Courts",
    "description": "Palisades Tennis Courts is a place to play pickleball in Pismo Beach, CA. There are 4 outdoor courts. These are dedicated courts with permanent lines and nets. The courts are free. The facility includes amenities like restrooms and water.",
    "address": "3990 Shell Beach Rd",
    "city": "Pismo Beach",
    "zip_code": "93449",
    "latitude": 35.175655,
    "longitude": -120.698112,
    "indoor": false,
    "num_courts": 4,
    "fees": "Free",
    "phone": "8184215073",
    "website": "http://www.pismobeach.org/296/Palisades-Park",
    "email": "bright.00quarry@icloud.com",
    "photo_url": "https://cdn.filestackcontent.com/E6LiUfBQOu8DqbfZ6KJg",
    "has_restrooms": true,
    "has_water": true,
    "nets_provided": true,
    "skill_levels": "advanced,beginner,intermediate",
    "court_type": "dedicated",
    "has_parking": true
  },
  {
    "county_slug": "san-luis-obispo",
    "state": "CA",
    "verified": false,
    "name": "Pismo Beach Athletic Club",
    "description": "Pismo Beach Athletic Club is a place to play pickleball in Pismo Beach, CA. There are 4 outdoor hard courts. These are dedicated courts with permanent lines and nets. A one-time fee is required to play. Players have access to restrooms, water, and lights.",
    "address": "1751 Price St",
    "city": "Pismo Beach",
    "zip_code": "93449",
    "latitude": 35.148181,
    "longitude": -120.648424,
    "indoor": false,
    "lighted": true,
    "num_courts": 4,
    "surface_type": "Hard",
    "fees": "Fee required",
    "phone": "8057733011",
    "website": "http://pbac.com/",
    "photo_url": "https://cdn.filestackcontent.com/saWTzlb7ThG9sA5WqkQj",
    "has_restrooms": true,
    "has_water": true,
    "nets_provided": true,
    "skill_levels": "advanced,beginner",
    "court_type": "dedicated"
  },
  {
    "county_slug": "san-luis-obispo",
    "state": "CA",
    "verified": false,
    "name": "Quail Run Pickleball Courts",
    "description": "Come play pickleball at Quail Run Pickleball Courts in Paso Robles, CA! There is 1 outdoor court. This is a dedicated court with a permanent net and lines. The court is private.",
    "address": "1400 Quail Run",
    "city": "Paso Robles",
    "zip_code": "93446",
    "latitude": 35.617287,
    "longitude": -120.654113,
    "indoor": false,
    "num_courts": 1,
    "open_play_schedule": "This is a private venue open to residents and their guests.",
    "fees": "Private",
    "phone": "4152656485",
    "photo_url": "https://cdn.filestackcontent.com/nTVRknqJSNi2EtMKeqfF",
    "nets_provided": true,
    "court_type": "dedicated"
  },
  {
    "county_slug": "san-luis-obispo",
    "state": "CA",
    "verified": false,
    "name": "Ralph Gorton’s Court",
    "description": "Ralph Gorton’s Court is a place to play pickleball in San Luis Obispo, CA. There is 1 outdoor concrete court. The lines are permanent, and portable nets are available. The facility includes amenities like lights. The court is private.",
    "address": "444 Indian Knob Road",
    "city": "San Luis Obispo",
    "latitude": 35.190389,
    "longitude": -120.674007,
    "indoor": false,
    "lighted": true,
    "num_courts": 1,
    "surface_type": "Concrete",
    "fees": "Private",
    "photo_url": "https://cdn.filestackcontent.com/7ZZmeUG0ROuiKPYDYipY",
    "nets_provided": true,
    "skill_levels": "intermediate",
    "court_type": "dedicated"
  },
  {
    "county_slug": "san-luis-obispo",
    "state": "CA",
    "verified": false,
    "name": "Santa Ysabel Ranch Pickleball",
    "description": "Come play pickleball at Santa Ysabel Ranch Pickleball in Templeton, CA! There are 2 outdoor hard courts. These are dedicated courts with permanent lines and nets. The courts are private.",
    "address": "1966 Lake Ysabel Road",
    "city": "Templeton",
    "latitude": 35.59035,
    "longitude": -120.67206,
    "indoor": false,
    "num_courts": 2,
    "surface_type": "Hard",
    "fees": "Private",
    "photo_url": "https://cdn.filestackcontent.com/Y1nGmIajTNqRC76Ppg7g",
    "nets_provided": true,
    "skill_levels": "intermediate",
    "court_type": "dedicated"
  },
  {
    "county_slug": "san-luis-obispo",
    "state": "CA",
    "verified": false,
    "name": "Templeton Tennis Ranch",
    "description": "Templeton Tennis Ranch is one of the most popular places to play pickleball in Templeton, CA. There are 8 outdoor hard courts. These are dedicated courts with permanent lines and nets. Amenities include food, restrooms, water, wheelchair accessibility, and lights. A membership is required to play.",
    "address": "345 Championship Ln",
    "city": "Templeton",
    "zip_code": "93465",
    "latitude": 35.563588,
    "longitude": -120.707248,
    "indoor": false,
    "lighted": true,
    "num_courts": 8,
    "surface_type": "Hard",
    "fees": "Members only",
    "phone": "8054349605",
    "website": "http://ttrtennis.com/",
    "photo_url": "https://cdn.filestackcontent.com/znUhvicXToOVaoVoXptk",
    "has_restrooms": true,
    "has_water": true,
    "wheelchair_accessible": true,
    "nets_provided": true,
    "skill_levels": "advanced,beginner,intermediate",
    "court_type": "dedicated",
    "hours": "7am - 8pm"
  },
  {
    "county_slug": "san-luis-obispo",
    "state": "CA",
    "verified": false,
    "name": "The Hangar Pickleball Club",
    "description": "Coming Soon!",
    "address": "7200 Chorro Valley Rd",
    "city": "San Luis Obispo",
    "latitude": 35.325862,
    "longitude": -120.738677,
    "indoor": false,
    "photo_url": "https://cdn.filestackcontent.com/oRUnEkWvTzOQbKTmYB2q",
    "skill_levels": "advanced,intermediate"
  },
  {
    "county_slug": "san-luis-obispo",
    "state": "CA",
    "verified": false,
    "name": "Valley View Adventist Academy",
    "description": "Come play pickleball at Valley View Adventist Academy in Arroyo Grande, CA! There are 3 indoor concrete courts. The lines are permanent, but you'll need to bring your own net. The courts are private.",
    "address": "230 Vernon St",
    "city": "Arroyo Grande",
    "zip_code": "93420",
    "latitude": 35.123367,
    "longitude": -120.584809,
    "indoor": true,
    "num_courts": 3,
    "surface_type": "Concrete",
    "fees": "Private",
    "website": "http://vvaaonline.org/",
    "photo_url": "https://cdn.filestackcontent.com/THOJMfonRqep8dozcgvU",
    "nets_provided": false,
    "skill_levels": "advanced",
    "court_type": "dedicated"
  },
  {
    "county_slug": "san-luis-obispo",
    "state": "CA",
    "verified": false,
    "name": "Vineyard Elementary",
    "description": "Come play pickleball at Vineyard Elementary in Templeton, CA! You'll need to bring your own net. The courts are free.",
    "address": "2121 Vineyard Dr",
    "city": "Templeton",
    "zip_code": "93465",
    "latitude": 35.543043,
    "longitude": -120.744861,
    "indoor": false,
    "fees": "Free",
    "phone": "8054237632",
    "nets_provided": false
  }
]