[
  {
    "county_slug": "san-diego",
    "state": "CA",
    "verified": false,
    "name": "Allied Gardens Recreation Center",
    "description": "Allied Gardens Recreation Center is one of the most popular places to play pickleball in San Diego, CA. There are 3 indoor courts. The lines are permanent, and portable nets are available. The courts are free. Players have access to lights.",
    "address": "5155 Greenbrier Ave",
    "city": "San Diego",
    "latitude": 32.796034,
    "longitude": -117.080699,
    "indoor": true,
    "lighted": true,
    "num_courts": 3,
    "fees": "Free",
    "phone": "6192351129",
    "website": "http://www.sandiego.gov/park-and-recreation",
    "photo_url": "https://cdn.filestackcontent.com/ZU6e5HcJSWmiTkigV9nU",
    "nets_provided": true,
    "skill_levels": "beginner,intermediate",
    "court_type": "dedicated",
    "has_parking": true
  },
  {
    "county_slug": "san-diego",
    "state": "CA",
    "verified": false,
    "name": "Arrowood Golf Course",
    "description": "Come play pickleball at Arrowood Golf Course in Oceanside, CA! There are 6 outdoor concrete courts. These are dedicated courts with permanent lines and nets. A membership is required to play. Players have access to restrooms and lights. Reservations are available.",
    "address": "5201 Village Dr",
    "city": "Oceanside",
    "latitude": 33.27283,
    "longitude": -117.287658,
    "indoor": false,
    "lighted": true,
    "num_courts": 6,
    "surface_type": "Concrete",
    "fees": "Members only",
    "phone": "+13123232005",
    "website": "https://arrowoodgolf.com/pickleball-information/",
    "photo_url": "https://cdn.filestackcontent.com/oV90dCyGQZGiBVujJZf2",
    "has_restrooms": true,
    "nets_provided": true,
    "skill_levels": "advanced,intermediate",
    "court_type": "dedicated"
  },
  {
    "county_slug": "san-diego",
    "state": "CA",
    "verified": false,
    "name": "AVA Pacific Beach",
    "description": "AVA Pacific Beach is a place to play pickleball in San Diego, CA. There are 2 outdoor asphalt courts. The lines are overlaid on a tennis court, so the net is a little taller than a normal pickleball net. The courts are private. Players have access to restrooms, water, and lights.",
    "address": "3962 Jewell Street",
    "city": "San Diego",
    "latitude": 32.791967,
    "longitude": -117.236825,
    "indoor": false,
    "lighted": true,
    "num_courts": 2,
    "surface_type": "Asphalt",
    "fees": "Private",
    "website": "https://www.avaloncommunities.com/california/san-diego-apartments/ava-pacific-beach/?utm_source=gmb&utm_medium=organic&utm_campaign=gmblist",
    "photo_url": "https://cdn.filestackcontent.com/89izhPE0QtimQEKiKZJC",
    "has_restrooms": true,
    "has_water": true,
    "skill_levels": "beginner,intermediate",
    "court_type": "shared"
  },
  {
    "county_slug": "san-diego",
    "state": "CA",
    "verified": false,
    "name": "Balboa Park Activity Center",
    "description": "Come play pickleball at Balboa Park Activity Center in San Diego, CA! There are 5 indoor wood courts. The lines are permanent, and portable nets are available. The courts are free.",
    "address": "2145 Park Boulevard",
    "city": "San Diego",
    "latitude": 32.726775,
    "longitude": -117.147723,
    "indoor": true,
    "num_courts": 5,
    "surface_type": "Wood",
    "fees": "Free",
    "phone": "(619) 235-5997",
    "website": "https://www.sandiego.gov/park-and-recreation/centers/bpac",
    "photo_url": "https://cdn.filestackcontent.com/3TWENFw3QlepeZiz95Fu",
    "nets_provided": true,
    "skill_levels": "beginner,intermediate",
    "court_type": "dedicated",
    "has_parking": true
  },
  {
    "county_slug": "san-diego",
    "state": "CA",
    "verified": false,
    "name": "Barnes Tennis",
    "description": "Clinic",
    "address": "Point Loma",
    "city": "San Diego",
    "latitude": 32.70003,
    "longitude": -117.246684,
    "indoor": false,
    "num_courts": 10,
    "surface_type": "Concrete",
    "has_restrooms": true,
    "has_water": true,
    "skill_levels": "advanced,intermediate"
  },
  {
    "county_slug": "san-diego",
    "state": "CA",
    "verified": false,
    "name": "Barnes Tennis Center",
    "description": "Come play pickleball at Barnes Tennis Center in San Diego, CA! There are 23 outdoor hard courts. These are dedicated courts with permanent lines and nets. A one-time fee is required to play. The facility includes amenities like restrooms, food, locker rooms, lights, a pro shop or equipment store, trainers or lessons, wheelchair accessibility, and water. You can reserve the courts.",
    "address": "4490 W Point Loma Blvd",
    "city": "San Diego",
    "latitude": 32.754364,
    "longitude": -117.234886,
    "indoor": false,
    "lighted": true,
    "num_courts": 23,
    "surface_type": "Hard",
    "fees": "Fee required — $15 hr",
    "phone": "(619) 221-9000",
    "website": "http://www.barnestenniscenter.com",
    "email": "info@ytsd.com",
    "photo_url": "https://cdn.filestackcontent.com/QWVCn5WeS1yZmEoQoss2",
    "has_restrooms": true,
    "has_water": true,
    "has_pro_shop": true,
    "wheelchair_accessible": true,
    "nets_provided": true,
    "skill_levels": "intermediate",
    "court_type": "dedicated"
  },
  {
    "county_slug": "san-diego",
    "state": "CA",
    "verified": false,
    "name": "Bay Club Carmel Valley",
    "description": "Come play pickleball at Bay Club Carmel Valley in San Diego, CA! There are 9 concrete and wood courts. 3 are indoors and 6 are outdoors. These are dedicated courts with permanent lines and nets. You can reserve the courts. Players have access to food, locker rooms, lights, a pro shop or equipment store, trainers or lessons, restrooms, water, youth programming, wheelchair accessibility, and adaptive programming. The courts are private.",
    "address": "12000 Carmel Country Road",
    "city": "San Diego",
    "latitude": 32.945109,
    "longitude": -117.221036,
    "indoor": false,
    "lighted": true,
    "num_courts": 9,
    "surface_type": "Concrete, Wood",
    "fees": "Private — $30",
    "phone": "+18585099933",
    "website": "https://www.bayclubs.com/carmelvalley/?utm_source=Chatmeter&utm_medium=Google&utm_campaign=ClubPage",
    "photo_url": "https://cdn.filestackcontent.com/jByBYZcKTkeM5lp4Mn1L",
    "has_restrooms": true,
    "has_water": true,
    "has_pro_shop": true,
    "wheelchair_accessible": true,
    "nets_provided": true,
    "skill_levels": "advanced,intermediate",
    "court_type": "dedicated"
  },
  {
    "county_slug": "san-diego",
    "state": "CA",
    "verified": false,
    "name": "Better at Pickleball",
    "description": "Come play pickleball at Better at Pickleball in Chula Vista, CA! There are 8 outdoor asphalt courts. These are dedicated courts with permanent lines and nets. The courts can be reserved. Amenities include restrooms, lights, trainers or lessons, and water.",
    "address": "2800 Olympic Parkway",
    "city": "Chula Vista",
    "latitude": 32.630346,
    "longitude": -116.937211,
    "indoor": false,
    "lighted": true,
    "num_courts": 8,
    "surface_type": "Asphalt",
    "phone": "619 - 949 - 4556",
    "website": "https://www.betteratpickleball.com",
    "email": "info@betteratpickleball.com",
    "photo_url": "https://cdn.filestackcontent.com/kc9ekqdR1i16Y3ZSGRZA",
    "has_restrooms": true,
    "has_water": true,
    "nets_provided": true,
    "skill_levels": "intermediate",
    "court_type": "dedicated"
  },
  {
    "county_slug": "san-diego",
    "state": "CA",
    "verified": false,
    "name": "Big Rock Park",
    "description": "Big Rock Park is a place to play pickleball in Santee, CA. There are 8 outdoor concrete courts. These are dedicated courts with permanent lines and nets. Players have access to restrooms, water, and wheelchair accessibility. The courts are free.",
    "address": "8125 Arlette St",
    "city": "Santee",
    "zip_code": "92071",
    "latitude": 32.83118,
    "longitude": -117.019515,
    "indoor": false,
    "num_courts": 8,
    "surface_type": "Concrete",
    "fees": "Free",
    "phone": "6195480312",
    "website": "http://cityofsanteeca.gov/our-city/parks-civic-center-rooms/big-rock-park-copy",
    "photo_url": "https://cdn.filestackcontent.com/vS1cyNN5QT2bTx6N8NqW",
    "has_restrooms": true,
    "has_water": true,
    "wheelchair_accessible": true,
    "nets_provided": true,
    "skill_levels": "advanced,beginner,intermediate",
    "court_type": "dedicated",
    "has_parking": true
  },
  {
    "county_slug": "san-diego",
    "state": "CA",
    "verified": false,
    "name": "Black Mountain Recreation Center",
    "description": "Come play pickleball at Black Mountain Recreation Center in San Diego, CA! There are 3 indoor wood courts. The lines are permanent, and portable nets are available. The facility includes amenities like restrooms and water. You can’t reserve the courts. A one-time fee is required to play.",
    "address": "9353 Oviedo St",
    "city": "San Diego",
    "zip_code": "92129",
    "latitude": 32.969176,
    "longitude": -117.12528,
    "indoor": true,
    "num_courts": 3,
    "surface_type": "Wood",
    "fees": "Fee required",
    "phone": "+18585388198",
    "website": "https://www.sandiego.gov/park-and-recreation/centers/recctr/blkmtn",
    "photo_url": "https://cdn.filestackcontent.com/UVclcneqSyS8JYckx5AK",
    "has_restrooms": true,
    "has_water": true,
    "nets_provided": true,
    "skill_levels": "beginner,intermediate",
    "court_type": "dedicated",
    "has_parking": true
  },
  {
    "county_slug": "san-diego",
    "state": "CA",
    "verified": false,
    "name": "Bobby Riggs Racket & Paddle",
    "description": "Come play pickleball at Bobby Riggs Racket & Paddle in Encinitas, CA! There are 22 outdoor hard courts. These are dedicated courts with permanent lines and nets. Reservations are available. The facility includes amenities like food, restrooms, water, lights, a pro shop or equipment store, and trainers or lessons. A one-time fee is required to play.",
    "address": "875 Santa Fe Dr",
    "city": "Encinitas",
    "zip_code": "92024",
    "latitude": 33.03601,
    "longitude": -117.273379,
    "indoor": false,
    "lighted": true,
    "num_courts": 22,
    "surface_type": "Hard",
    "fees": "Fee required — Court reservations are available for $16/hour.",
    "phone": "+17604732672",
    "website": "http://www.bobbyriggs.net/",
    "photo_url": "https://cdn.filestackcontent.com/BMj6tHgRMS4DDMaEUbP4",
    "has_restrooms": true,
    "has_water": true,
    "has_pro_shop": true,
    "nets_provided": true,
    "skill_levels": "advanced,beginner,intermediate",
    "court_type": "dedicated"
  },
  {
    "county_slug": "san-diego",
    "state": "CA",
    "verified": false,
    "name": "Boogaard's Pickleball Ranch in Bonita",
    "description": "This is a private court but the owner (whose skill level is between 3.8 and 4.0) invites anyone whose skill level is between 3.8 and 4.0 to set up a doubles match with him and 2 other players with the same approximate skill level.  You need to confirm court times with the owner for court availability.  Mornings starting at 8:30 a.m. Tuesday, Wednesday, Thursday, and weekends are usually open.  Evenings starting a 6:45 p.m. are open.  Other times are available.  Text first. 619 778 1857.",
    "address": "5055 Sweetwater Rd",
    "city": "Bonita",
    "zip_code": "91902",
    "latitude": 32.675174,
    "longitude": -117.023911,
    "indoor": false,
    "lighted": true,
    "num_courts": 1,
    "surface_type": "Hard",
    "fees": "Private",
    "phone": "6197781857",
    "photo_url": "https://cdn.filestackcontent.com/qCbcq9HIQv2A5uGFyGBp",
    "has_restrooms": true,
    "has_water": true,
    "nets_provided": true,
    "skill_levels": "advanced,intermediate",
    "court_type": "dedicated"
  },
  {
    "county_slug": "san-diego",
    "state": "CA",
    "verified": false,
    "name": "BORDER VIEW FAMILY YMCA",
    "description": "BORDER VIEW FAMILY YMCA is a place to play pickleball in San Diego, CA. There are 2 indoor hard courts. The lines are permanent, and portable nets are available. A membership is required to play. You can reserve the courts. Players have access to restrooms.",
    "address": "3601 Arey Drive",
    "city": "San Diego",
    "latitude": 32.57815,
    "longitude": -117.05707,
    "indoor": true,
    "num_courts": 2,
    "surface_type": "Hard",
    "fees": "Members only",
    "phone": "+16194289622",
    "website": "https://www.ymcasd.org/locations/border-view-family-ymca",
    "email": "cprokop@ymcasd.org",
    "photo_url": "https://cdn.filestackcontent.com/qdtMhiKoR96PLOXaLeOC",
    "has_restrooms": true,
    "nets_provided": true,
    "skill_levels": "beginner,intermediate",
    "court_type": "dedicated"
  },
  {
    "county_slug": "san-diego",
    "state": "CA",
    "verified": false,
    "name": "Borrego Springs Recreation Park",
    "description": "Borrego Springs Recreation Park is a place to play pickleball in Borrego Springs, CA. There are 2 outdoor concrete courts. The lines are permanent, and portable nets are available. The courts are free. The facility includes amenities like restrooms.",
    "address": "2650 Country Club Rd",
    "city": "Borrego Springs",
    "zip_code": "92004",
    "latitude": 33.254745,
    "longitude": -116.380489,
    "indoor": false,
    "num_courts": 2,
    "surface_type": "Concrete",
    "fees": "Free",
    "phone": "7607675555",
    "website": "https://www.springsatborrego.com/",
    "photo_url": "https://cdn.filestackcontent.com/CSZZLQhPRBqX7V6cg3Xm",
    "has_restrooms": true,
    "nets_provided": true,
    "skill_levels": "advanced,intermediate",
    "court_type": "dedicated"
  },
  {
    "county_slug": "san-diego",
    "state": "CA",
    "verified": false,
    "name": "Bostonia Recreation Center",
    "description": "Bostonia Recreation Center is a place to play pickleball in El Cajon, CA. There are 2 indoor courts. The lines are permanent, but you'll need to bring your own net. A one-time fee is required to play. Players have access to restrooms, water, and lights.",
    "address": "1049 Bostonia St",
    "city": "El Cajon",
    "zip_code": "92021",
    "latitude": 32.809326,
    "longitude": -116.932916,
    "indoor": true,
    "lighted": true,
    "num_courts": 2,
    "fees": "Fee required",
    "phone": "6194411670",
    "website": "http://www.elcajon.gov/",
    "photo_url": "https://cdn.filestackcontent.com/8G8dkdtvRva4M7jbycfx",
    "has_restrooms": true,
    "has_water": true,
    "nets_provided": false,
    "skill_levels": "beginner,intermediate",
    "court_type": "dedicated"
  },
  {
    "county_slug": "san-diego",
    "state": "CA",
    "verified": false,
    "name": "Brengle Terrace Park",
    "description": "Brengle Terrace Park is one of the most popular places to play pickleball in Vista, CA. There are 12 outdoor hard courts. These are dedicated courts with permanent lines and nets. The courts are free. The facility includes amenities like restrooms, wheelchair accessibility, and lights.",
    "address": "1200 Vale Terrace Dr",
    "city": "Vista",
    "zip_code": "92084",
    "latitude": 33.208884,
    "longitude": -117.219607,
    "indoor": false,
    "lighted": true,
    "num_courts": 12,
    "surface_type": "Hard",
    "fees": "Free",
    "phone": "7607261340",
    "website": "http://www.vistarecreation.com/",
    "photo_url": "https://cdn.filestackcontent.com/qFPJ7uxTyasPfG7UW1uP",
    "has_restrooms": true,
    "wheelchair_accessible": true,
    "nets_provided": true,
    "skill_levels": "advanced,beginner,intermediate",
    "court_type": "dedicated"
  },
  {
    "county_slug": "san-diego",
    "state": "CA",
    "verified": false,
    "name": "Cajon Valley Middle School",
    "description": "Come play pickleball at Cajon Valley Middle School in El Cajon, CA! There are 2 indoor hard courts. The lines are permanent, and portable nets are available. The courts are free. The courts cannot be reserved. The facility includes amenities like lights.",
    "address": "550 E Park Ave",
    "city": "El Cajon",
    "latitude": 32.799756,
    "longitude": -116.956901,
    "indoor": true,
    "lighted": true,
    "num_courts": 2,
    "surface_type": "Hard",
    "fees": "Free",
    "phone": "+16195883092",
    "website": "https://www.cajonvalley.net/cajonvalley",
    "photo_url": "https://cdn.filestackcontent.com/tVIldeeQxGBlVQAwh4cG",
    "nets_provided": true,
    "skill_levels": "beginner,intermediate",
    "court_type": "dedicated"
  },
  {
    "county_slug": "san-diego",
    "state": "CA",
    "verified": false,
    "name": "Calavera Hills Community Center",
    "description": "Calavera Hills Community Center is a place to play pickleball in Carlsbad, CA. There are 3 indoor wood courts. The lines are permanent, and portable nets are available. Amenities include lights, restrooms, and water. Reservations are not available. The courts are free.",
    "address": "2997 Glasgow Dr",
    "city": "Carlsbad",
    "zip_code": "92010",
    "latitude": 33.16622,
    "longitude": -117.29796,
    "indoor": true,
    "lighted": true,
    "num_courts": 3,
    "surface_type": "Wood",
    "fees": "Free",
    "phone": "(760) 602-4680",
    "website": "https://www.carlsbadca.gov/Home/Components/FacilityDirectory/FacilityDirectory/16/7400",
    "photo_url": "https://cdn.filestackcontent.com/jbKKOfxqSfGRaZ0bvcxV",
    "has_restrooms": true,
    "has_water": true,
    "nets_provided": true,
    "skill_levels": "advanced,beginner,intermediate",
    "court_type": "dedicated"
  },
  {
    "county_slug": "san-diego",
    "state": "CA",
    "verified": false,
    "name": "Candlelight HOA Courts",
    "description": "This court is available by appointment with resident sponsorship only.  I'm looking for some evening play during the weekdays (my preferred availability).  My self-rating by quiz put's me at a 4.16 but I've only played with a group of unrated local residents.  I'm looking for fairly competitive play. Please contact me so we can set up a late afternoon or early evening appointment.",
    "address": "Candlelight Glen",
    "city": "Escondido",
    "latitude": 33.099719,
    "longitude": -117.095747,
    "indoor": false,
    "lighted": true,
    "num_courts": 1,
    "surface_type": "Concrete",
    "open_play_schedule": "1 to 2 sessions per week by appointment.",
    "fees": "Private",
    "email": "surffisher@outlook.com",
    "photo_url": "https://cdn.filestackcontent.com/qQwhywrISQ2NlvRiCQDB",
    "nets_provided": true,
    "skill_levels": "advanced,beginner,intermediate",
    "court_type": "dedicated"
  },
  {
    "county_slug": "san-diego",
    "state": "CA",
    "verified": false,
    "name": "Carmel Mountain and Sabre Springs Recreation Center",
    "description": "Daily play times Monday through Saturday available on website.",
    "address": "10152 Rancho Carmel Dr",
    "city": "San Diego",
    "zip_code": "92128",
    "latitude": 32.966818,
    "longitude": -117.091245,
    "indoor": true,
    "num_courts": 3,
    "fees": "Free",
    "phone": "8585388100",
    "website": "https://www.sandiego.gov/park-and-recreation/centers/recctr/carmelsabre",
    "photo_url": "https://cdn.filestackcontent.com/HQ34elT0TMmNT75sggDs",
    "nets_provided": true,
    "skill_levels": "beginner,intermediate",
    "court_type": "dedicated",
    "has_parking": true,
    "has_restrooms": true
  },
  {
    "county_slug": "san-diego",
    "state": "CA",
    "verified": false,
    "name": "Carmel Valley Recreation Center",
    "description": "Carmel Valley Recreation Center is a place to play pickleball in San Diego, CA. There are 6 indoor wood courts. The lines are permanent, and portable nets are available. The courts are free. Reservations are not available. Players have access to lights and restrooms.",
    "address": "3777 Townsgate Dr",
    "city": "San Diego",
    "latitude": 32.949268,
    "longitude": -117.232543,
    "indoor": true,
    "lighted": true,
    "num_courts": 6,
    "surface_type": "Wood",
    "fees": "Free",
    "phone": "+18585521616",
    "website": "https://www.sandiego.gov/park-and-recreation/centers/recctr/carmelvalley",
    "photo_url": "https://cdn.filestackcontent.com/UoS4BWQSO0JTbR0jBGsg",
    "has_restrooms": true,
    "nets_provided": true,
    "skill_levels": "beginner,intermediate",
    "court_type": "dedicated",
    "has_parking": true
  },
  {
    "county_slug": "san-diego",
    "state": "CA",
    "verified": false,
    "name": "Castle Creek Pickleball Club",
    "description": "Castle Creek Pickleball Club is a place to play pickleball in Escondido, CA. There are 8 outdoor hard courts. These are dedicated courts with permanent lines and nets. Amenities include restrooms and water. A membership is required to play.",
    "address": "8797 Circle R Dr",
    "city": "Escondido",
    "zip_code": "92026",
    "latitude": 33.255135,
    "longitude": -117.145074,
    "indoor": false,
    "num_courts": 8,
    "surface_type": "Hard",
    "fees": "Members only — ​Guest Drop In $5.00 / Membership: $100/6 months",
    "phone": "7608071341",
    "website": "http://www.ccpickleball.com/contact-us.html",
    "email": "info@ccpickleball.com",
    "photo_url": "https://cdn.filestackcontent.com/gRLdZhOSPWTGftpOzAiD",
    "has_restrooms": true,
    "has_water": true,
    "nets_provided": true,
    "skill_levels": "advanced,intermediate",
    "court_type": "dedicated"
  },
  {
    "county_slug": "san-diego",
    "state": "CA",
    "verified": false,
    "name": "Clairemont High School",
    "description": "Clairemont High School is a place to play pickleball in San Diego, CA. There are 4 outdoor concrete courts. The lines are permanent, but you'll need to bring your own net. Amenities include restrooms. The courts are free.",
    "address": "4150 Ute Dr",
    "city": "San Diego",
    "zip_code": "92117",
    "latitude": 32.808907,
    "longitude": -117.20467,
    "indoor": false,
    "num_courts": 4,
    "surface_type": "Concrete",
    "fees": "Free",
    "phone": "8582730201",
    "website": "https://clairemont.sandiegounified.org/",
    "photo_url": "https://cdn.filestackcontent.com/RaVxnhsJSBWxWKAkZbwQ",
    "has_restrooms": true,
    "nets_provided": false,
    "skill_levels": "beginner,intermediate",
    "court_type": "dedicated"
  },
  {
    "county_slug": "san-diego",
    "state": "CA",
    "verified": false,
    "name": "Colina Del Sol Recreation Center",
    "description": "Come play pickleball at Colina Del Sol Recreation Center in San Diego, CA! There are 4 outdoor hard, wood, and concrete courts. These are dedicated courts with permanent lines and nets. Reservations are not available. The facility includes amenities like restrooms, water, and lights. The courts are free.",
    "address": "5319 Orange Ave",
    "city": "San Diego",
    "zip_code": "92115",
    "latitude": 32.75133,
    "longitude": -117.081573,
    "indoor": false,
    "lighted": true,
    "num_courts": 4,
    "surface_type": "Hard, Wood, Concrete",
    "fees": "Free",
    "phone": "6192351144",
    "website": "https://www.sandiego.gov/park-and-recreation/centers/recctr/colina",
    "photo_url": "https://cdn.filestackcontent.com/civxxVcQTImMgJXpV72g",
    "has_restrooms": true,
    "has_water": true,
    "nets_provided": true,
    "skill_levels": "advanced,beginner,intermediate",
    "court_type": "dedicated",
    "has_parking": true
  },
  {
    "county_slug": "san-diego",
    "state": "CA",
    "verified": false,
    "name": "Collier Park",
    "description": "Come play pickleball at Collier Park in La Mesa, CA! There are 4 outdoor hard courts. The lines are permanent, and portable nets are available. The facility includes amenities like restrooms, water, and lights. The courts are free.",
    "address": "4401 Palm Ave",
    "city": "La Mesa",
    "zip_code": "91941",
    "latitude": 32.759237,
    "longitude": -117.015374,
    "indoor": false,
    "lighted": true,
    "num_courts": 4,
    "surface_type": "Hard",
    "fees": "Free",
    "phone": "6196979835",
    "website": "http://www.cityoflamesa.us/",
    "photo_url": "https://cdn.filestackcontent.com/KpATGLyTy63I5AbJyW6I",
    "has_restrooms": true,
    "has_water": true,
    "nets_provided": true,
    "skill_levels": "beginner,intermediate",
    "court_type": "dedicated",
    "hours": "9 AM - 11AM"
  },
  {
    "county_slug": "san-diego",
    "state": "CA",
    "verified": false,
    "name": "Community Association of Bernardo Heights (CABH)",
    "description": "Community Association of Bernardo Heights (CABH) is one of the most popular places to play pickleball in San Diego, CA. There are 8 outdoor concrete courts. These are dedicated courts with permanent lines and nets. Amenities include restrooms, water, and lights. The courts are private. The courts cannot be reserved.",
    "address": "16150 Bernardo Heights Pkwy",
    "city": "San Diego",
    "latitude": 33.006288,
    "longitude": -117.074347,
    "indoor": false,
    "lighted": true,
    "num_courts": 8,
    "surface_type": "Concrete",
    "fees": "Private",
    "phone": "+18584513580",
    "website": "https://www.bernardoheights.org/",
    "photo_url": "https://cdn.filestackcontent.com/rVZBH7lTZyU8kFiMdF1Q",
    "has_restrooms": true,
    "has_water": true,
    "nets_provided": true,
    "skill_levels": "advanced,beginner,intermediate",
    "court_type": "dedicated"
  },
  {
    "county_slug": "san-diego",
    "state": "CA",
    "verified": false,
    "name": "Coronado Cays Park",
    "description": "Coronado Cays Park is a place to play pickleball in Coronado, CA. There are 8 outdoor hard courts. These are dedicated courts with permanent lines and nets. Amenities include restrooms. Reservations are available. A one-time fee is required to play.",
    "address": "16 Bahama Bend",
    "city": "Coronado",
    "latitude": 32.623124,
    "longitude": -117.136033,
    "indoor": false,
    "num_courts": 8,
    "surface_type": "Hard",
    "fees": "Fee required",
    "phone": "+16195227300",
    "website": "https://www.coronado.ca.us/Facilities/Facility/Details/Coronado-Cays-Park-12",
    "photo_url": "https://cdn.filestackcontent.com/7H3RS9NRSjymxM2h3kSQ",
    "has_restrooms": true,
    "nets_provided": true,
    "skill_levels": "advanced,beginner,intermediate",
    "court_type": "dedicated",
    "has_parking": true,
    "wheelchair_accessible": true
  },
  {
    "county_slug": "san-diego",
    "state": "CA",
    "verified": false,
    "name": "Cottonwood Creek Park",
    "description": "Cottonwood Creek Park is a place to play pickleball in Encinitas, CA. There are 8 outdoor concrete courts. The lines are permanent, and portable nets are available. Reservations are not available. Players have access to restrooms and water. The courts are free.",
    "address": "95 N Vulcan Ave N",
    "city": "Encinitas",
    "zip_code": "92024",
    "latitude": 33.04975,
    "longitude": -117.29129,
    "indoor": false,
    "num_courts": 8,
    "surface_type": "Concrete",
    "fees": "Free",
    "phone": "7606332740",
    "website": "http://www.ci.encinitas.ca.us/",
    "photo_url": "https://cdn.filestackcontent.com/fUDPeLITtSfISzSgXgqn",
    "has_restrooms": true,
    "has_water": true,
    "nets_provided": true,
    "skill_levels": "intermediate",
    "court_type": "dedicated"
  },
  {
    "county_slug": "san-diego",
    "state": "CA",
    "verified": false,
    "name": "Cypress Canyon Park",
    "description": "Cypress Canyon Park is one of the most popular places to play pickleball in San Diego, CA. There are 3 outdoor hard courts. The lines are permanent, but you'll need to bring your own net. The courts are free.",
    "address": "11480 Cypress Canyon Rd",
    "city": "San Diego",
    "zip_code": "92131",
    "latitude": 32.924925,
    "longitude": -117.06542,
    "indoor": false,
    "num_courts": 3,
    "surface_type": "Hard",
    "fees": "Free",
    "photo_url": "https://cdn.filestackcontent.com/IxP42lT7SWfFweMgdeW4",
    "nets_provided": false,
    "skill_levels": "beginner,intermediate",
    "court_type": "dedicated"
  },
  {
    "county_slug": "san-diego",
    "state": "CA",
    "verified": false,
    "name": "Dan McKinney Family YMCA",
    "description": "Dan McKinney Family YMCA is a place to play pickleball in San Diego, CA. There are 4 hard courts. 2 are indoors and 2 are outdoors. The lines are permanent, and portable nets are available. A membership is required to play. Players have access to restrooms.",
    "address": "8355 Cliffridge Ave",
    "city": "San Diego",
    "zip_code": "92037",
    "latitude": 32.858566,
    "longitude": -117.243078,
    "indoor": false,
    "num_courts": 4,
    "surface_type": "Hard",
    "fees": "Members only",
    "phone": "8584533483",
    "website": "https://www.ymcasd.org/locations/dan-mckinney-family-ymca",
    "email": "gcui@ymcasd.org",
    "photo_url": "https://cdn.filestackcontent.com/CCe2glxiS1OhUGoweZDc",
    "has_restrooms": true,
    "nets_provided": true,
    "skill_levels": "intermediate",
    "court_type": "dedicated"
  },
  {
    "county_slug": "san-diego",
    "state": "CA",
    "verified": false,
    "name": "Del Cerro Tennis Club and Pickleball Hub",
    "description": "Del Cerro Tennis Club and Pickleball Hub is a place to play pickleball in San Diego, CA. There are 12 outdoor courts. These are dedicated courts with permanent lines and nets. You can reserve the courts. A one-time fee is required to play. The facility includes amenities like restrooms and water.",
    "address": "4956 Waring Rd",
    "city": "San Diego",
    "zip_code": "92120",
    "latitude": 32.78489,
    "longitude": -117.086229,
    "indoor": false,
    "num_courts": 12,
    "fees": "Fee required",
    "phone": "6195017983",
    "website": "https://dctc.com/",
    "photo_url": "https://cdn.filestackcontent.com/derc0wusSkahx5FrU1gx",
    "has_restrooms": true,
    "has_water": true,
    "nets_provided": true,
    "skill_levels": "intermediate",
    "court_type": "dedicated"
  },
  {
    "county_slug": "san-diego",
    "state": "CA",
    "verified": false,
    "name": "Eastlake Greens Community Association",
    "description": "Come play pickleball at Eastlake Greens Community Association in Chula Vista, CA! There are 4 outdoor hard courts. These are dedicated courts with permanent lines and nets. The courts are private. The facility includes amenities like lights.",
    "address": "2405 Clubhouse Dr",
    "city": "Chula Vista",
    "latitude": 32.64,
    "longitude": -116.956957,
    "indoor": false,
    "lighted": true,
    "num_courts": 4,
    "surface_type": "Hard",
    "fees": "Private",
    "phone": "+16194213340",
    "website": "https://eastlakeii.connectresident.com/?fbclid=IwAR1xK2XG8RlK9BALlENz1f97O_HXXDq1vV6zNYIdFodKozPM5SVmv79lUAU",
    "photo_url": "https://cdn.filestackcontent.com/VsTuJxY4TqssYLVPuv4R",
    "nets_provided": true,
    "skill_levels": "beginner,intermediate",
    "court_type": "dedicated"
  },
  {
    "county_slug": "san-diego",
    "state": "CA",
    "verified": false,
    "name": "Eastlake Hills Pool",
    "description": "Come play pickleball at Eastlake Hills Pool in Chula Vista, CA! There are 2 outdoor hard courts. The lines are overlaid on a tennis court, so the net is a little taller than a normal pickleball net. Reservations are not available. The courts are private. Players have access to restrooms and water.",
    "address": "1991 Hillside Dr",
    "city": "Chula Vista",
    "latitude": 32.655779,
    "longitude": -116.982552,
    "indoor": false,
    "num_courts": 2,
    "surface_type": "Hard",
    "fees": "Private",
    "photo_url": "https://cdn.filestackcontent.com/Dykt6Z0RTLasSaBzArNJ",
    "has_restrooms": true,
    "has_water": true,
    "skill_levels": "beginner",
    "court_type": "dedicated"
  },
  {
    "county_slug": "san-diego",
    "state": "CA",
    "verified": false,
    "name": "East Valley Community Center",
    "description": "East Valley Community Center is one of the most popular places to play pickleball in Escondido, CA. There are 2 indoor wood courts. The lines are permanent, and portable nets are available. A one-time fee is required to play. Players have access to restrooms.",
    "address": "2245 East Valley Parkway",
    "city": "Escondido",
    "latitude": 33.138558,
    "longitude": -117.046124,
    "indoor": true,
    "num_courts": 2,
    "surface_type": "Wood",
    "fees": "Fee required — $5 each session or purchase a Punch Pass for 10 visits for $40",
    "phone": "+17608394382",
    "website": "http://www.recreation.escondido.org/",
    "photo_url": "https://cdn.filestackcontent.com/bFycCPTsRVGQX6Nfslnh",
    "has_restrooms": true,
    "nets_provided": true,
    "skill_levels": "advanced,intermediate",
    "court_type": "dedicated"
  },
  {
    "county_slug": "san-diego",
    "state": "CA",
    "verified": false,
    "name": "Ellen Browning Scripps Elementary School",
    "description": "Share basketball courts with Scripps Ranch Rec",
    "address": "11778 Cypress Canyon Rd",
    "city": "San Diego",
    "latitude": 32.929341,
    "longitude": -117.081766,
    "indoor": false,
    "num_courts": 3,
    "surface_type": "Concrete",
    "fees": "Free",
    "phone": "+16196052000",
    "website": "https://scripps.sandiegounified.org/",
    "photo_url": "https://cdn.filestackcontent.com/6w9w6fIyS3aB3UYIs8jR",
    "has_water": true,
    "nets_provided": false,
    "skill_levels": "beginner,intermediate",
    "court_type": "dedicated",
    "has_parking": true
  },
  {
    "county_slug": "san-diego",
    "state": "CA",
    "verified": false,
    "name": "Encinitas Community Center",
    "description": "Come play pickleball at Encinitas Community Center in Encinitas, CA! There are 4 indoor wood courts. The lines are permanent, and portable nets are available. Players have access to restrooms. The courts are free.",
    "address": "1140 Oakcrest Park Dr",
    "city": "Encinitas",
    "zip_code": "92024",
    "latitude": 33.044775,
    "longitude": -117.26728,
    "indoor": true,
    "num_courts": 4,
    "surface_type": "Wood",
    "fees": "Free",
    "phone": "7609432250",
    "website": "https://encinitasca.gov/Residents/Senior-Citizens/Community-Senior-Center",
    "photo_url": "https://cdn.filestackcontent.com/i5H0BEXzSSSv5yqBcd4C",
    "has_restrooms": true,
    "nets_provided": true,
    "skill_levels": "beginner,intermediate",
    "court_type": "dedicated"
  },
  {
    "county_slug": "san-diego",
    "state": "CA",
    "verified": false,
    "name": "Fallbrook Community Center",
    "description": "Fallbrook Community Center is one of the most popular places to play pickleball in Fallbrook, CA. There are 4 outdoor hard courts. The lines are permanent, but you'll need to bring your own net. Players have access to restrooms, water, and lights. A one-time fee is required to play.",
    "address": "341 Heald Ln",
    "city": "Fallbrook",
    "zip_code": "92028",
    "latitude": 33.377376,
    "longitude": -117.236491,
    "indoor": false,
    "lighted": true,
    "num_courts": 4,
    "surface_type": "Hard",
    "fees": "Fee required",
    "phone": "7607281671",
    "website": "http://fallbrookcommunitycenterfriends.org/",
    "photo_url": "https://cdn.filestackcontent.com/SfZ8KQ2S6Yo9D7efgbA4",
    "has_restrooms": true,
    "has_water": true,
    "nets_provided": false,
    "skill_levels": "advanced,intermediate",
    "court_type": "dedicated"
  },
  {
    "county_slug": "san-diego",
    "state": "CA",
    "verified": false,
    "name": "Fallbrook Tennis and Pickleball",
    "description": "Come play pickleball at Fallbrook Tennis and Pickleball in Fallbrook, CA! There are 8 outdoor concrete courts. These are dedicated courts with permanent lines and nets. The facility includes amenities like food, restrooms, water, wheelchair accessibility, and lights. A one-time fee is required to play.",
    "address": "2141 S Mission Rd",
    "city": "Fallbrook",
    "zip_code": "92028",
    "latitude": 33.352308,
    "longitude": -117.249729,
    "indoor": false,
    "lighted": true,
    "num_courts": 8,
    "surface_type": "Concrete",
    "fees": "Fee required",
    "phone": "7607281100",
    "website": "http://www.fallbrooktennisclub.com/",
    "photo_url": "https://cdn.filestackcontent.com/QkIxwPt5SoeOWOTPgFjs",
    "has_restrooms": true,
    "has_water": true,
    "wheelchair_accessible": true,
    "nets_provided": true,
    "skill_levels": "advanced,intermediate",
    "court_type": "dedicated",
    "has_pro_shop": true,
    "has_ball_machine": true
  },
  {
    "county_slug": "san-diego",
    "state": "CA",
    "verified": false,
    "name": "Felicita County Park",
    "description": "Come play pickleball at Felicita County Park in Escondido, CA! There are 2 outdoor hard courts. These are dedicated courts with permanent lines and nets. The courts are free.",
    "address": "742 Clarence Ln",
    "city": "Escondido",
    "zip_code": "92029",
    "latitude": 33.080161,
    "longitude": -117.085558,
    "indoor": false,
    "num_courts": 2,
    "surface_type": "Hard",
    "fees": "Free",
    "phone": "7607454379",
    "website": "http://www.sandiegocounty.gov/parks/picnic/felicita.html",
    "photo_url": "https://cdn.filestackcontent.com/IiwBkwIRF6N6Wd694Rn9",
    "nets_provided": true,
    "skill_levels": "beginner,intermediate",
    "court_type": "dedicated"
  },
  {
    "county_slug": "san-diego",
    "state": "CA",
    "verified": false,
    "name": "Grove Park",
    "description": "Grove Park is one of the most popular places to play pickleball in Chula Vista, CA. There are 2 outdoor courts. The lines are overlaid on a tennis court, so the net is a little taller than a normal pickleball net. The courts are free.",
    "address": "1330 Santa Victoria Road",
    "city": "Chula Vista",
    "latitude": 32.61281,
    "longitude": -116.99406,
    "indoor": false,
    "num_courts": 2,
    "fees": "Free",
    "skill_levels": "beginner,intermediate",
    "court_type": "dedicated"
  },
  {
    "county_slug": "san-diego",
    "state": "CA",
    "verified": false,
    "name": "Guajome Regional park",
    "description": "One pickle ball court in the Guajome Regional  park.  Beautiful setting overlooks the Guajome lake.",
    "address": "3000 Guajome Lake Road",
    "city": "Oceanside",
    "latitude": 33.246153,
    "longitude": -117.270706,
    "indoor": false,
    "num_courts": 1,
    "surface_type": "Concrete",
    "fees": "Free",
    "phone": "+17607244489",
    "website": "https://www.sdparks.org/content/sdparks/en/park-pages/Guajome.html",
    "photo_url": "https://cdn.filestackcontent.com/EpEODWRJT76wNT7QZ1Qw",
    "has_restrooms": true,
    "has_water": true,
    "nets_provided": true,
    "skill_levels": "beginner,intermediate",
    "court_type": "dedicated",
    "hours": "Camping, 24 hours a day, 7 days",
    "has_parking": true
  },
  {
    "county_slug": "san-diego",
    "state": "CA",
    "verified": false,
    "name": "Highwood Park",
    "description": "Come play pickleball at Highwood Park in La Mesa, CA! There are 4 outdoor hard courts. These are dedicated courts with permanent lines and nets. The courts are free. Players have access to restrooms.",
    "address": "Highwood Park",
    "city": "La Mesa",
    "latitude": 32.755973,
    "longitude": -117.02876,
    "indoor": false,
    "num_courts": 4,
    "surface_type": "Hard",
    "fees": "Free",
    "phone": "+18582077181",
    "website": "https://www.cityoflamesa.us/392/Highwood-Park",
    "photo_url": "https://cdn.filestackcontent.com/BLUzto6cTMC52RXF7BMR",
    "has_restrooms": true,
    "nets_provided": true,
    "skill_levels": "beginner,intermediate",
    "court_type": "dedicated",
    "has_parking": true
  },
  {
    "county_slug": "san-diego",
    "state": "CA",
    "verified": false,
    "name": "Hourglass Field Community Park and Field House",
    "description": "Come play pickleball at Hourglass Field Community Park and Field House in San Diego, CA! There are 3 indoor wood courts. The lines are permanent, and portable nets are available. The facility includes amenities like lights and restrooms. The courts are free.",
    "address": "10440 Black Mountain Rd",
    "city": "San Diego",
    "zip_code": "92126",
    "latitude": 32.910135,
    "longitude": -117.12106,
    "indoor": true,
    "lighted": true,
    "num_courts": 3,
    "surface_type": "Wood",
    "fees": "Free",
    "phone": "8585388153",
    "website": "https://www.sandiego.gov/park-and-recreation/centers/recctr/hourglass",
    "photo_url": "https://cdn.filestackcontent.com/X104AhGQZaUAQIxlYbkg",
    "has_restrooms": true,
    "nets_provided": true,
    "skill_levels": "beginner,intermediate",
    "court_type": "dedicated",
    "has_parking": true
  },
  {
    "county_slug": "san-diego",
    "state": "CA",
    "verified": false,
    "name": "Imperial Beach Sports Park",
    "description": "Imperial Beach Sports Park is one of the most popular places to play pickleball in Imperial Beach, CA. There are 2 indoor courts. The lines are permanent, but you'll need to bring your own net. The facility includes amenities like lights.",
    "address": "425 Imperial Beach Blvd",
    "city": "Imperial Beach",
    "zip_code": "91932",
    "latitude": 32.576453,
    "longitude": -117.123899,
    "indoor": true,
    "lighted": true,
    "num_courts": 2,
    "phone": "6199349137",
    "website": "https://www.imperialbeachca.gov/parks",
    "photo_url": "https://cdn.filestackcontent.com/dRLZuGHtROyPlas7WGGQ",
    "nets_provided": false,
    "skill_levels": "beginner,intermediate",
    "court_type": "dedicated",
    "hours": "Monday through Thursday 7:30 a.m. - 5:30 p.m. Community Development Counter Hours: Monday through Thursday 7:30 a.m. to 9:00 a.m. and 3:30 p.m. to 5:00 p.m. or by appointment Quick Links Agendas and Minutes Make a Payment Employee Connect Polices /QuickLinks.aspx Government Websites by CivicPlus® Loading Loading Do Not Show Again Close Arrow Left Arrow Right [] Slideshow Left Arrow Slideshow Right Arrow",
    "has_parking": true
  },
  {
    "county_slug": "san-diego",
    "state": "CA",
    "verified": false,
    "name": "Innovation Park",
    "description": "Innovation Park is a place to play pickleball in San Marcos, CA. There are 4 outdoor courts. These are dedicated courts with permanent lines and nets. Players have access to restrooms. The courts are free.",
    "address": "1151 Armorlite Dr",
    "city": "San Marcos",
    "zip_code": "92069",
    "latitude": 33.145515,
    "longitude": -117.187671,
    "indoor": false,
    "num_courts": 4,
    "open_play_schedule": "9 am to sunset",
    "fees": "Free",
    "phone": "7608229423",
    "website": "https://www.san-marcos.net/Home/Components/FacilityDirectory/FacilityDirectory/701/1126",
    "photo_url": "https://cdn.filestackcontent.com/phpGXDTnywxClPzbE80g",
    "has_restrooms": true,
    "nets_provided": true,
    "skill_levels": "advanced,intermediate",
    "court_type": "dedicated"
  },
  {
    "county_slug": "san-diego",
    "state": "CA",
    "verified": false,
    "name": "JACKIE ROBINSON FAMILY YMCA",
    "description": "JACKIE ROBINSON FAMILY YMCA is a place to play pickleball in San Diego, CA. There are 2 indoor hard courts. The lines are permanent, and portable nets are available. A membership is required to play. Amenities include restrooms. Reservations are not available.",
    "address": "151 YMCA Way",
    "city": "San Diego",
    "latitude": 32.704859,
    "longitude": -117.097059,
    "indoor": true,
    "num_courts": 2,
    "surface_type": "Hard",
    "fees": "Members only",
    "phone": "+16192640144",
    "website": "https://www.ymcasd.org/locations/jackie-robinson-family-ymca",
    "email": "jmonterroso@ymcasd.org",
    "photo_url": "https://cdn.filestackcontent.com/czuQ7BbTSCWg6FksW43z",
    "has_restrooms": true,
    "nets_provided": true,
    "skill_levels": "advanced,beginner,intermediate",
    "court_type": "dedicated"
  },
  {
    "county_slug": "san-diego",
    "state": "CA",
    "verified": false,
    "name": "Junior Seau Beach Community Center",
    "description": "Junior Seau Beach Community Center is one of the most popular places to play pickleball in Oceanside, CA. There are 4 indoor courts. Tape lines have been laid, and portable nets are available. You can’t reserve the courts. A one-time fee is required to play.",
    "address": "300 The Strand N",
    "city": "Oceanside",
    "latitude": 33.194981,
    "longitude": -117.384434,
    "indoor": true,
    "num_courts": 4,
    "open_play_schedule": "Pickleball courts closed for the summer, reopening in the fall",
    "fees": "Fee required",
    "phone": "+17604355233",
    "website": "https://www.ci.oceanside.ca.us/government/parks-recreation/sports-field-rentals",
    "email": "sports@oceansideca.org",
    "photo_url": "https://cdn.filestackcontent.com/B8jGrx8nRqZpWGd9p9lA",
    "nets_provided": true,
    "skill_levels": "beginner,intermediate",
    "court_type": "shared"
  },
  {
    "county_slug": "san-diego",
    "state": "CA",
    "verified": false,
    "name": "Kearny Mesa Recreation Center",
    "description": "Kearny Mesa Recreation Center is one of the most popular places to play pickleball in San Diego, CA. There are 2 outdoor asphalt courts. The lines are permanent, and portable nets are available. The courts are free. Players have access to lights, wheelchair accessibility, youth programming, and restrooms.",
    "address": "3170 Armstrong Place",
    "city": "San Diego",
    "latitude": 32.80428,
    "longitude": -117.162314,
    "indoor": false,
    "lighted": true,
    "num_courts": 2,
    "surface_type": "Asphalt",
    "open_play_schedule": "Basketball gets priority after 2pm.",
    "fees": "Free",
    "phone": "8585731387",
    "website": "https://www.sandiego.gov/park-and-recreation/centers/recctr/kearny",
    "photo_url": "https://cdn.filestackcontent.com/Q7SHaKygSPmd9vrwiPCb",
    "has_restrooms": true,
    "wheelchair_accessible": true,
    "nets_provided": true,
    "skill_levels": "advanced,intermediate",
    "court_type": "dedicated",
    "has_parking": true
  },
  {
    "county_slug": "san-diego",
    "state": "CA",
    "verified": false,
    "name": "Kingdom of Padel",
    "description": "Come play pickleball at Kingdom of Padel in San Diego, CA! There are 9 hard courts. 3 are outdoors and 6 are indoors. These are dedicated courts with permanent lines and nets. A one-time fee is required to play. The courts can be reserved. The facility includes amenities like restrooms, locker rooms, food, water, lights, trainers or lessons, and a pro shop or equipment store.",
    "address": "4645 Morena Blvd",
    "city": "San Diego",
    "latitude": 32.822322,
    "longitude": -117.226181,
    "indoor": false,
    "lighted": true,
    "num_courts": 9,
    "surface_type": "Hard",
    "fees": "Fee required",
    "photo_url": "https://cdn.filestackcontent.com/nBg9C7WfQAioFEDE3nmW",
    "has_restrooms": true,
    "has_water": true,
    "has_pro_shop": true,
    "nets_provided": true,
    "skill_levels": "beginner,intermediate",
    "court_type": "dedicated"
  },
  {
    "county_slug": "san-diego",
    "state": "CA",
    "verified": false,
    "name": "La Casa del Zorro Resort & Spa",
    "description": "La Casa del Zorro Resort & Spa is a place to play pickleball in Borrego Springs, CA. There are 8 outdoor hard courts. These are dedicated courts with permanent lines and nets. A membership is required to play. Players have access to food, restrooms, and water.",
    "address": "3845 Yaqui Pass Rd",
    "city": "Borrego Springs",
    "zip_code": "92004",
    "latitude": 33.210055,
    "longitude": -116.329158,
    "indoor": false,
    "num_courts": 8,
    "surface_type": "Hard",
    "fees": "Members only",
    "phone": "7607670100",
    "website": "http://www.lacasadelzorro.com/",
    "photo_url": "https://cdn.filestackcontent.com/HPzDUUlISK8BnhcRhcw7",
    "has_restrooms": true,
    "has_water": true,
    "nets_provided": true,
    "skill_levels": "intermediate",
    "court_type": "dedicated"
  },
  {
    "county_slug": "san-diego",
    "state": "CA",
    "verified": false,
    "name": "La Colonia Park",
    "description": "La Colonia Park is a place to play pickleball in Solana Beach, CA. There is 1 outdoor concrete court. This is a dedicated court with a permanent net and lines. The court is free. Players have access to restrooms.",
    "address": "715 Valley Avenue",
    "city": "Solana Beach",
    "latitude": 32.986178,
    "longitude": -117.258864,
    "indoor": false,
    "num_courts": 1,
    "surface_type": "Concrete",
    "fees": "Free",
    "phone": "8587202453",
    "website": "https://www.cityofsolanabeach.org/en",
    "photo_url": "https://cdn.filestackcontent.com/dEa1cZqVQK9p6vFo8O52",
    "has_restrooms": true,
    "nets_provided": true,
    "skill_levels": "intermediate",
    "court_type": "dedicated",
    "has_parking": true
  },
  {
    "county_slug": "san-diego",
    "state": "CA",
    "verified": false,
    "name": "La Jolla Beach & Tennis Club",
    "description": "La Jolla Beach & Tennis Club is one of the most popular places to play pickleball in San Diego, CA. There are 2 outdoor hard courts. These are dedicated courts with permanent lines and nets. Players have access to lights. The courts are private.",
    "address": "2000 Spindrift Dr",
    "city": "San Diego",
    "latitude": 32.853184,
    "longitude": -117.25985,
    "indoor": false,
    "lighted": true,
    "num_courts": 2,
    "surface_type": "Hard",
    "fees": "Private",
    "phone": "+18888280948",
    "website": "https://www.ljbtc.com/",
    "photo_url": "https://cdn.filestackcontent.com/RgCaHtuNRSCeUpoVs4Aw",
    "nets_provided": true,
    "skill_levels": "intermediate",
    "court_type": "dedicated"
  },
  {
    "county_slug": "san-diego",
    "state": "CA",
    "verified": false,
    "name": "Lake Jennings Estates",
    "description": "Lake Jennings Estates is one of the most popular places to play pickleball in Lakeside, CA. There is 1 indoor concrete court. The lines are permanent, and portable nets are available. The court is private. Players have access to lights.",
    "address": "9500 Harritt Road",
    "city": "Lakeside",
    "latitude": 32.850482,
    "longitude": -116.888826,
    "indoor": true,
    "lighted": true,
    "num_courts": 1,
    "surface_type": "Concrete",
    "fees": "Private",
    "phone": "+16192778187",
    "website": "https://www.lakejenningsliving.com/",
    "photo_url": "https://cdn.filestackcontent.com/nDddFZqITyWKaCUDT2LA",
    "nets_provided": true,
    "court_type": "dedicated"
  },
  {
    "county_slug": "san-diego",
    "state": "CA",
    "verified": false,
    "name": "Lakeside Community Center",
    "description": "Lakeside Community Center is a place to play pickleball in Lakeside, CA. There are 6 hard courts. 2 are indoors and 4 are outdoors. The lines are permanent, and portable nets are available. A one-time fee is required to play. Amenities include restrooms, water, wheelchair accessibility, and lights.",
    "address": "9841 Vine St",
    "city": "Lakeside",
    "zip_code": "92040",
    "latitude": 32.858629,
    "longitude": -116.917245,
    "indoor": false,
    "lighted": true,
    "num_courts": 6,
    "surface_type": "Hard",
    "fees": "Fee required",
    "phone": "6194439176",
    "website": "http://www.sdparks.org/content/sdparks/en/park-pages/LakesideCommunityCenter.html",
    "photo_url": "https://cdn.filestackcontent.com/zAGrXnwuToqSoyi6OVn3",
    "has_restrooms": true,
    "has_water": true,
    "wheelchair_accessible": true,
    "nets_provided": true,
    "skill_levels": "beginner,intermediate",
    "court_type": "dedicated",
    "hours": "12 – 5 p.m., Monday – Friday; available",
    "has_parking": true
  },
  {
    "county_slug": "san-diego",
    "state": "CA",
    "verified": false,
    "name": "La Mesita",
    "description": "La Mesita is a place to play pickleball in La Mesa, CA. There are 8 outdoor concrete courts. The lines are permanent, and portable nets are available. Reservations are not available. The facility includes amenities like lights and restrooms. The courts are free.",
    "address": "8855 Dallas St",
    "city": "La Mesa",
    "zip_code": "91942",
    "latitude": 32.790737,
    "longitude": -117.007278,
    "indoor": false,
    "lighted": true,
    "num_courts": 8,
    "surface_type": "Concrete",
    "fees": "Free",
    "phone": "6196671300",
    "website": "https://cityoflamesa.us/394/La-Mesita-ParkJunior-Seau-Sports-Complex",
    "email": "Recreation@cityoflamesa.us",
    "photo_url": "https://cdn.filestackcontent.com/VK79s9rSTC9T1nAOV8nI",
    "has_restrooms": true,
    "nets_provided": true,
    "skill_levels": "beginner",
    "court_type": "dedicated",
    "has_parking": true
  },
  {
    "county_slug": "san-diego",
    "state": "CA",
    "verified": false,
    "name": "Lawrence Family Jewish Community Center",
    "description": "Lawrence Family Jewish Community Center is one of the most popular places to play pickleball in San Diego, CA. There are 4 outdoor concrete courts. The lines are permanent, and portable nets are available. You can reserve the courts. Players have access to lights, food, locker rooms, trainers or lessons, restrooms, wheelchair accessibility, and water. A membership is required to play.",
    "address": "4126 Executive Dr",
    "city": "San Diego",
    "zip_code": "92037",
    "latitude": 32.87579,
    "longitude": -117.215875,
    "indoor": false,
    "lighted": true,
    "num_courts": 4,
    "surface_type": "Concrete",
    "fees": "Members only",
    "phone": "8584573030",
    "website": "http://www.lfjcc.org/",
    "photo_url": "https://cdn.filestackcontent.com/WCACmMXnSGCSVu4RRNhw",
    "has_restrooms": true,
    "has_water": true,
    "wheelchair_accessible": true,
    "nets_provided": true,
    "skill_levels": "intermediate",
    "court_type": "dedicated"
  },
  {
    "county_slug": "san-diego",
    "state": "CA",
    "verified": false,
    "name": "Lawrence Welk Resort: Woodsong Ct",
    "description": "Lawrence Welk Resort: Woodsong Ct is a place to play pickleball in Escondido, CA. There are 4 outdoor concrete courts. These are dedicated courts with permanent lines and nets. A one-time fee is required to play. Amenities include restrooms and water.",
    "address": "8860 Lawrence Welk Dr",
    "city": "Escondido",
    "zip_code": "92026",
    "latitude": 33.234014,
    "longitude": -117.142791,
    "indoor": false,
    "num_courts": 4,
    "surface_type": "Concrete",
    "fees": "Fee required",
    "phone": "7605791199",
    "website": "https://www.vacationclubrentals.com/ca/san-diego/the-welk",
    "photo_url": "https://cdn.filestackcontent.com/jJhD4VeOTmeb7qtHhUhR",
    "has_restrooms": true,
    "has_water": true,
    "nets_provided": true,
    "skill_levels": "advanced,intermediate",
    "court_type": "dedicated"
  },
  {
    "county_slug": "san-diego",
    "state": "CA",
    "verified": false,
    "name": "Lemon Grove Recreation Center",
    "description": "Lemon Grove Recreation Center is one of the most popular places to play pickleball in Lemon Grove, CA. There are 4 outdoor asphalt courts. These are dedicated courts with permanent lines and nets. The courts are free. The courts cannot be reserved.",
    "address": "3131 School Ln",
    "city": "Lemon Grove",
    "latitude": 32.739976,
    "longitude": -117.029646,
    "indoor": false,
    "num_courts": 4,
    "surface_type": "Asphalt",
    "open_play_schedule": "The best time to play is 8:30-11:30 when the Lemon Grove Pickleball club meets.",
    "fees": "Free",
    "phone": "+16199409830",
    "website": "https://www.facebook.com/profile.php?id=159725314067977&paipv=0&eav=AfaZHrA-nPUtivv1uvS5UbI9BK2ifQUqwfqy1EnfRpvj9cdqi537rdqtOD_Wwo8CAnY&_rdr",
    "email": "deamicisjuliet@gmail.com",
    "photo_url": "https://cdn.filestackcontent.com/X3XeX2YqSuiBJgjLoYIf",
    "nets_provided": true,
    "skill_levels": "beginner,intermediate",
    "court_type": "dedicated"
  },
  {
    "county_slug": "san-diego",
    "state": "CA",
    "verified": false,
    "name": "Lindo Lake County Park",
    "description": "Outdoor Courts = 4 C&D Professional mobile nets.",
    "address": "9815 Vine St",
    "city": "Lakeside",
    "zip_code": "92040",
    "latitude": 32.857685,
    "longitude": -116.920401,
    "indoor": false,
    "num_courts": 6,
    "surface_type": "Concrete",
    "open_play_schedule": "8:00a to sunset (Park closure)",
    "fees": "Free",
    "website": "http://www.sdparks.org/content/sdparks/en/park-pages/LindoLake.html",
    "photo_url": "https://cdn.filestackcontent.com/pN3HMDGwR869U04PEwGw",
    "has_restrooms": true,
    "wheelchair_accessible": true,
    "nets_provided": true,
    "skill_levels": "beginner,intermediate",
    "court_type": "dedicated",
    "hours": "Sunrise – sunset , daily Follow us on Facebook . Visit the News",
    "has_parking": true
  },
  {
    "county_slug": "san-diego",
    "state": "CA",
    "verified": false,
    "name": "Little Italy Pickleball Court",
    "description": "Little Italy Pickleball Court is one of the most popular places to play pickleball in San Diego, CA. There are 2 outdoor hard courts. These are dedicated courts with permanent lines and nets. The facility includes amenities like restrooms, trainers or lessons, lights, water, and wheelchair accessibility. The courts are free.",
    "address": "1747 Pacific Hwy",
    "city": "San Diego",
    "latitude": 32.72349,
    "longitude": -117.170622,
    "indoor": false,
    "lighted": true,
    "num_courts": 2,
    "surface_type": "Hard",
    "fees": "Free",
    "website": "https://www.littleitalypickleballclub.com/",
    "photo_url": "https://cdn.filestackcontent.com/xl2ltEgeTlmbofPcIIVH",
    "has_restrooms": true,
    "has_water": true,
    "wheelchair_accessible": true,
    "nets_provided": true,
    "skill_levels": "advanced,intermediate",
    "court_type": "dedicated"
  },
  {
    "county_slug": "san-diego",
    "state": "CA",
    "verified": false,
    "name": "Loews Coronado Bay Resort",
    "description": "Loews Coronado Bay Resort is a place to play pickleball in Coronado, CA. There are 8 outdoor hard courts. The lines are permanent, and portable nets are available. The courts are private. The facility includes amenities like lights and restrooms.",
    "address": "4000 Coronado Bay Rd",
    "city": "Coronado",
    "latitude": 32.631884,
    "longitude": -117.133757,
    "indoor": false,
    "lighted": true,
    "num_courts": 8,
    "surface_type": "Hard",
    "fees": "Private",
    "phone": "+16194244000",
    "website": "https://www.loewshotels.com/coronado-bay-resort",
    "photo_url": "https://cdn.filestackcontent.com/OARHj8qkRFSoJ7P4n5zO",
    "has_restrooms": true,
    "nets_provided": true,
    "skill_levels": "intermediate",
    "court_type": "dedicated",
    "has_parking": true
  },
  {
    "county_slug": "san-diego",
    "state": "CA",
    "verified": false,
    "name": "Lomas Santa Fe CC",
    "description": "Come play pickleball at Lomas Santa Fe CC in Solana Beach, CA! There are 3 outdoor hard courts. These are dedicated courts with permanent lines and nets. Amenities include restrooms. The courts are private.",
    "address": "1505 Lomas Santa Fe Dr",
    "city": "Solana Beach",
    "latitude": 32.99489,
    "longitude": -117.24064,
    "indoor": false,
    "num_courts": 3,
    "surface_type": "Hard",
    "fees": "Private",
    "phone": "+18587556768",
    "website": "https://www.lomassantafecc.com/",
    "photo_url": "https://cdn.filestackcontent.com/tocWKEp0S62ge0l4Qtws",
    "has_restrooms": true,
    "nets_provided": true,
    "skill_levels": "intermediate",
    "court_type": "dedicated"
  },
  {
    "county_slug": "san-diego",
    "state": "CA",
    "verified": false,
    "name": "Mackenzie Creek Park",
    "description": "Mackenzie Creek Park is one of the most popular places to play pickleball in Chula Vista, CA. There are 8 outdoor hard courts. These are dedicated courts with permanent lines and nets. The facility includes amenities like restrooms and lights. The courts are free.",
    "address": "Mackenzie Creek Rd",
    "city": "Chula Vista",
    "zip_code": "91914",
    "latitude": 32.658831,
    "longitude": -116.967572,
    "indoor": false,
    "lighted": true,
    "num_courts": 8,
    "surface_type": "Hard",
    "fees": "Free",
    "website": "http://www.chulavistaca.gov/departments/public-works/parks/locations-features-amenities-photos/mackenzie-creek-park",
    "photo_url": "https://cdn.filestackcontent.com/Qr48mEBKTUGixt6jtV7Z",
    "has_restrooms": true,
    "nets_provided": true,
    "skill_levels": "advanced,beginner,intermediate",
    "court_type": "dedicated"
  },
  {
    "county_slug": "san-diego",
    "state": "CA",
    "verified": false,
    "name": "MAGDALENA ECKE FAMILY YMCA",
    "description": "MAGDALENA ECKE FAMILY YMCA is one of the most popular places to play pickleball in Encinitas, CA. There are 2 indoor hard courts. The lines are permanent, and portable nets are available. Amenities include restrooms. A membership is required to play.",
    "address": "200 Saxony Road",
    "city": "Encinitas",
    "latitude": 33.052427,
    "longitude": -117.28744,
    "indoor": true,
    "num_courts": 2,
    "surface_type": "Hard",
    "fees": "Members only",
    "phone": "+17609429622",
    "website": "https://www.ymcasd.org/locations/magdalena-ecke-family-ymca",
    "email": "bwagner@ymcasd.org",
    "photo_url": "https://cdn.filestackcontent.com/A7hUHH7NQ4eweSw33jwE",
    "has_restrooms": true,
    "nets_provided": true,
    "skill_levels": "beginner,intermediate",
    "court_type": "dedicated"
  },
  {
    "county_slug": "san-diego",
    "state": "CA",
    "verified": false,
    "name": "Mavericks Beach Club",
    "description": "Mavericks Beach Club is one of the most popular places to play pickleball in San Diego, CA. There are 3 outdoor concrete courts. These are dedicated courts with permanent lines and nets. A membership is required to play. Reservations are available. Amenities include restrooms, lights, and food.",
    "address": "860 Garnet Ave",
    "city": "San Diego",
    "latitude": 32.797033,
    "longitude": -117.254556,
    "indoor": false,
    "lighted": true,
    "num_courts": 3,
    "surface_type": "Concrete",
    "fees": "Members only",
    "phone": "+18589990348",
    "website": "https://maverickssd.com/",
    "photo_url": "https://cdn.filestackcontent.com/3FLI4ODZQ0qAiuTXjfy0",
    "has_restrooms": true,
    "nets_provided": true,
    "skill_levels": "beginner,intermediate",
    "court_type": "dedicated"
  },
  {
    "county_slug": "san-diego",
    "state": "CA",
    "verified": false,
    "name": "MCRD San Diego Pickleball Courts",
    "description": "Come play pickleball at MCRD San Diego Pickleball Courts in San Diego, CA! There are 6 outdoor hard courts. These are dedicated courts with permanent lines and nets. The courts are private.",
    "address": "Neville Rd San Diego",
    "city": "San Diego",
    "latitude": 32.740419,
    "longitude": -117.207001,
    "indoor": false,
    "num_courts": 6,
    "surface_type": "Hard",
    "fees": "Private — Access to Marine Corps Recruit Depot San Diego required.",
    "phone": "+16195240548",
    "website": "https://sandiego.usmc-mccs.org/recreation-fitness",
    "photo_url": "https://cdn.filestackcontent.com/ML7ggIISICNIcdSn77R0",
    "nets_provided": true,
    "skill_levels": "beginner,intermediate",
    "court_type": "dedicated"
  },
  {
    "county_slug": "san-diego",
    "state": "CA",
    "verified": false,
    "name": "Meadowbrook Middle School",
    "description": "Come play pickleball at Meadowbrook Middle School in Poway, CA! There are 6 indoor courts. The lines are permanent, and portable nets are available. Players have access to restrooms, water, wheelchair accessibility, and lights. The courts are free. The courts cannot be reserved.",
    "address": "12320 Meadowbrook Lane",
    "city": "Poway",
    "zip_code": "92064",
    "latitude": 32.964812,
    "longitude": -117.064422,
    "indoor": true,
    "lighted": true,
    "num_courts": 6,
    "fees": "Free",
    "phone": "+18586684671",
    "website": "https://poway.org/gyms",
    "email": "communitypark@poway.org",
    "photo_url": "https://cdn.filestackcontent.com/sWDP3cqQamUm1YySN9ow",
    "has_restrooms": true,
    "has_water": true,
    "wheelchair_accessible": true,
    "nets_provided": true,
    "skill_levels": "beginner,intermediate",
    "court_type": "dedicated",
    "has_parking": true
  },
  {
    "county_slug": "san-diego",
    "state": "CA",
    "verified": false,
    "name": "Melba Bishop Park",
    "description": "Fee to play",
    "address": "5306 N River Rd",
    "city": "Oceanside",
    "latitude": 33.256493,
    "longitude": -117.292135,
    "indoor": false,
    "num_courts": 11,
    "surface_type": "Concrete",
    "fees": "Fee required — Option for membership or drop in fee",
    "phone": "7602141088",
    "website": "https://oceansidepickleball.org",
    "photo_url": "https://cdn.filestackcontent.com/Ltxruxd3Rs2w4JwR8UqK",
    "has_restrooms": true,
    "nets_provided": true,
    "skill_levels": "advanced,intermediate",
    "court_type": "dedicated"
  },
  {
    "county_slug": "san-diego",
    "state": "CA",
    "verified": false,
    "name": "Millenia Park",
    "description": "Come play pickleball at Millenia Park in Chula Vista, CA! There is 1 outdoor hard court. The lines are overlaid on a tennis court, so the net is a little taller than a normal pickleball net. The court is free.",
    "address": "Millenia Park",
    "city": "Chula Vista",
    "latitude": 32.613236,
    "longitude": -116.968198,
    "indoor": false,
    "num_courts": 1,
    "surface_type": "Hard",
    "fees": "Free",
    "phone": "+16194953893",
    "photo_url": "https://cdn.filestackcontent.com/qi9xiGaHTMCg9d4qGWg3",
    "skill_levels": "beginner,intermediate",
    "court_type": "dedicated"
  },
  {
    "county_slug": "san-diego",
    "state": "CA",
    "verified": false,
    "name": "Montevalle Recreation Center",
    "description": "no longer offered",
    "address": "840 Duncan Ranch Rd",
    "city": "Chula Vista",
    "zip_code": "91914",
    "latitude": 32.659733,
    "longitude": -116.951666,
    "indoor": false,
    "lighted": true,
    "fees": "Free",
    "phone": "6196915269",
    "website": "http://www.chulavistaca.gov/",
    "photo_url": "https://cdn.filestackcontent.com/5NDxP5EETIKSRnJ20NwV",
    "nets_provided": false,
    "skill_levels": "beginner,intermediate",
    "court_type": "dedicated"
  },
  {
    "county_slug": "san-diego",
    "state": "CA",
    "verified": false,
    "name": "Mountain View Park",
    "description": "No reservations, first come, first serve , except for escondido parks and rec classes n leagues",
    "address": "1160 S Citrus Ave",
    "city": "Escondido",
    "latitude": 33.128725,
    "longitude": -117.035526,
    "indoor": false,
    "num_courts": 12,
    "surface_type": "Hard",
    "fees": "Free",
    "photo_url": "https://cdn.filestackcontent.com/cn7u6oIFQh2QXtQiRhqw",
    "has_restrooms": true,
    "nets_provided": false,
    "skill_levels": "beginner,intermediate",
    "court_type": "dedicated"
  },
  {
    "county_slug": "san-diego",
    "state": "CA",
    "verified": false,
    "name": "Murray Ridge Park",
    "description": "There are two courts; one on each side of the Tennis net.",
    "address": "8651 Celestine Avenue",
    "city": "San Diego",
    "latitude": 32.790616,
    "longitude": -117.145857,
    "indoor": false,
    "num_courts": 2,
    "surface_type": "Asphalt",
    "fees": "Free",
    "phone": "+16195731408",
    "website": "https://www.sandiego.gov/parks-and-recreation",
    "photo_url": "https://cdn.filestackcontent.com/B0qtO8QUTwGmGhm1WFL8",
    "nets_provided": false,
    "skill_levels": "beginner,intermediate",
    "court_type": "dedicated",
    "has_parking": true
  },
  {
    "county_slug": "san-diego",
    "state": "CA",
    "verified": false,
    "name": "Nobel Recreation Center",
    "description": "Portable nets are provided by the rec center for the indoor courts during open play hours.",
    "address": "8810 Judicial Dr",
    "city": "San Diego",
    "zip_code": "92122",
    "latitude": 32.86698,
    "longitude": -117.19926,
    "indoor": false,
    "lighted": true,
    "num_courts": 5,
    "fees": "Free",
    "phone": "8585521626",
    "website": "http://www.sandiego.gov/park-and-recreation/centers/recctr/nobel.shtml",
    "photo_url": "https://cdn.filestackcontent.com/5NolG3xCTym6P3zlckXv",
    "nets_provided": true,
    "skill_levels": "intermediate",
    "court_type": "dedicated"
  },
  {
    "county_slug": "san-diego",
    "state": "CA",
    "verified": false,
    "name": "Norman Park Senior Center",
    "description": "Come play pickleball at Norman Park Senior Center in Chula Vista, CA! There are 2 indoor hard and concrete courts. These are dedicated courts with permanent lines and nets. The facility includes amenities like restrooms, lights, trainers or lessons, and water. The courts are free.",
    "address": "270 F St",
    "city": "Chula Vista",
    "latitude": 32.641485,
    "longitude": -117.078165,
    "indoor": true,
    "lighted": true,
    "num_courts": 2,
    "surface_type": "Hard, Concrete",
    "open_play_schedule": "Senior Play for 50 & up",
    "fees": "Free",
    "phone": "+16194091930",
    "website": "https://www.chulavistaca.gov/departments/parks-and-recreation/community-centers/norman-park-senior-center",
    "email": "aruiz@chulavistaca.gov",
    "photo_url": "https://cdn.filestackcontent.com/62fmyCRzWcKAwonbJKsg",
    "has_restrooms": true,
    "has_water": true,
    "nets_provided": true,
    "skill_levels": "beginner,intermediate",
    "court_type": "dedicated"
  },
  {
    "county_slug": "san-diego",
    "state": "CA",
    "verified": false,
    "name": "North Clairemont Recreation Center",
    "description": "Come play pickleball at North Clairemont Recreation Center in San Diego, CA! There are 6 courts. 2 are indoors and 4 are outdoors. The lines are permanent, but you'll need to bring your own net. Players have access to restrooms, water, and lights. The courts are free.",
    "address": "4421 Bannock Ave",
    "city": "San Diego",
    "zip_code": "92117",
    "latitude": 32.831685,
    "longitude": -117.196938,
    "indoor": false,
    "lighted": true,
    "num_courts": 6,
    "fees": "Free",
    "phone": "8585819926",
    "website": "http://www.sandiego.gov/park-and-recreation/centers/recctr/nclairemont.shtml",
    "photo_url": "https://cdn.filestackcontent.com/D1xVUm4QTUWZw5tRvqlv",
    "has_restrooms": true,
    "has_water": true,
    "nets_provided": false,
    "skill_levels": "advanced,beginner,intermediate",
    "court_type": "dedicated"
  },
  {
    "county_slug": "san-diego",
    "state": "CA",
    "verified": false,
    "name": "North clairmont",
    "description": "North clairmont is one of the most popular places to play pickleball in San Diego, CA. There are 2 indoor hard courts. These are dedicated courts with permanent lines and nets. Players have access to trainers or lessons.",
    "address": "Genesee Avenue",
    "city": "San Diego",
    "latitude": 32.841979,
    "longitude": -117.197612,
    "indoor": true,
    "num_courts": 2,
    "surface_type": "Hard",
    "nets_provided": true,
    "skill_levels": "intermediate"
  },
  {
    "county_slug": "san-diego",
    "state": "CA",
    "verified": false,
    "name": "North Park Rec Center",
    "description": "North Park Rec Center is one of the most popular places to play pickleball in San Diego, CA. There are 3 hard courts. 1 is outdoors and 2 are indoors. These are dedicated courts with permanent lines and nets. The courts are free. The facility includes amenities like water and restrooms.",
    "address": "4044 Idaho St",
    "city": "San Diego",
    "latitude": 32.750961,
    "longitude": -117.134134,
    "indoor": false,
    "num_courts": 3,
    "surface_type": "Hard",
    "fees": "Free",
    "phone": "+1 (619) 235-1152",
    "website": "https://www.sandiego.gov/park-and-recreation/centers/recctr/northpark",
    "photo_url": "https://cdn.filestackcontent.com/dCcENMvYQGeo6db7jgWw",
    "has_restrooms": true,
    "has_water": true,
    "nets_provided": true,
    "skill_levels": "advanced,beginner,intermediate",
    "court_type": "dedicated",
    "has_parking": true
  },
  {
    "county_slug": "san-diego",
    "state": "CA",
    "verified": false,
    "name": "Ocean Air Rec Center",
    "description": "3 to 6 courts depending on the day of open play",
    "address": "4770 Fairport Way",
    "city": "San Diego",
    "zip_code": "92130",
    "latitude": 32.926241,
    "longitude": -117.217453,
    "indoor": true,
    "lighted": true,
    "num_courts": 6,
    "surface_type": "Wood",
    "open_play_schedule": "Closed for pickleball this week for camps",
    "fees": "Free",
    "phone": "8585521689",
    "website": "https://www.sandiego.gov/park-and-recreation/centers/recctr/oceanair",
    "photo_url": "https://cdn.filestackcontent.com/o21DnBNPRG6IBWejPUVn",
    "nets_provided": true,
    "skill_levels": "beginner,intermediate",
    "court_type": "dedicated",
    "has_parking": true,
    "has_restrooms": true
  },
  {
    "county_slug": "san-diego",
    "state": "CA",
    "verified": false,
    "name": "Ocean Beach recreation center",
    "description": "Ocean Beach recreation center is one of the most popular places to play pickleball in San Diego, CA. There are 3 indoor courts. The lines are permanent, and portable nets are available. The courts are free. Players have access to lights.",
    "address": "4726 Santa Monica Ave",
    "city": "San Diego",
    "zip_code": "92107",
    "latitude": 32.745068,
    "longitude": -117.245449,
    "indoor": true,
    "lighted": true,
    "num_courts": 3,
    "fees": "Free",
    "phone": "6195311527",
    "website": "http://www.sandiego.gov/park-and-recreation/",
    "photo_url": "https://cdn.filestackcontent.com/cHlOZGjSgal97Bju0Nh2",
    "nets_provided": true,
    "skill_levels": "advanced,intermediate",
    "court_type": "dedicated",
    "has_parking": true
  },
  {
    "county_slug": "san-diego",
    "state": "CA",
    "verified": false,
    "name": "Ocean Hills Country Club",
    "description": "Come play pickleball at Ocean Hills Country Club in Oceanside, CA! There are 16 concrete courts. 8 are outdoors and 8 are indoors. These are dedicated courts with permanent lines and nets. You can reserve the courts. The courts are private. Amenities include restrooms, water, and lights.",
    "address": "4600 Leisure Village Way",
    "city": "Oceanside",
    "latitude": 33.162137,
    "longitude": -117.257678,
    "indoor": false,
    "lighted": true,
    "num_courts": 16,
    "surface_type": "Concrete",
    "fees": "Private — Home Ownership",
    "website": "https://www.oceanhillscountryclub.com/",
    "photo_url": "https://cdn.filestackcontent.com/uaXTRNwpRTu524tsHGxz",
    "has_restrooms": true,
    "has_water": true,
    "nets_provided": true,
    "skill_levels": "intermediate",
    "court_type": "dedicated"
  },
  {
    "county_slug": "san-diego",
    "state": "CA",
    "verified": false,
    "name": "Orange Glen High School",
    "description": "Orange Glen High School is one of the most popular places to play pickleball in Escondido, CA. There are 4 outdoor hard courts. You’ll have to create your own lines and bring your own net. Players have access to water. The courts are free.",
    "address": "1160 S Citrus Ave",
    "city": "Escondido",
    "zip_code": "92027",
    "latitude": 33.12874,
    "longitude": -117.03736,
    "indoor": false,
    "num_courts": 4,
    "surface_type": "Hard",
    "fees": "Free",
    "website": "https://www.escondido.org/parks-lakes-trails.aspx",
    "photo_url": "https://cdn.filestackcontent.com/Skgwl1qeRkyYW5sECmfy",
    "has_water": true,
    "nets_provided": false,
    "skill_levels": "beginner,intermediate",
    "court_type": "shared"
  },
  {
    "county_slug": "san-diego",
    "state": "CA",
    "verified": false,
    "name": "Pacific Beach Rec. Center",
    "description": "Pacific Beach Rec. Center is one of the most popular places to play pickleball in San Diego, CA. There are 3 indoor courts. The lines are permanent, and portable nets are available. Players have access to lights. The courts are free.",
    "address": "1405 Diamond St",
    "city": "San Diego",
    "zip_code": "92109",
    "latitude": 32.801457,
    "longitude": -117.244737,
    "indoor": true,
    "lighted": true,
    "num_courts": 3,
    "fees": "Free",
    "phone": "8585819927",
    "website": "https://www.sandiego.gov/park-and-recreation/centers/recctr/pacificb",
    "photo_url": "https://cdn.filestackcontent.com/pqsU8xVQ5qhJzNZ4K6wW",
    "nets_provided": true,
    "skill_levels": "beginner,intermediate",
    "court_type": "dedicated",
    "has_parking": true
  },
  {
    "county_slug": "san-diego",
    "state": "CA",
    "verified": false,
    "name": "Pacific Beach Tennis Club",
    "description": "Pacific Beach Tennis Club is a place to play pickleball in San Diego, CA. There are 8 outdoor courts. The lines are permanent, and portable nets are available. Reservations are available. A one-time fee is required to play.",
    "address": "2639 Grand Ave",
    "city": "San Diego",
    "zip_code": "92109",
    "latitude": 32.801757,
    "longitude": -117.221736,
    "indoor": false,
    "num_courts": 8,
    "fees": "Fee required — A nominal fee is charged",
    "phone": "(858) 273-9177",
    "website": "http://www.pbtennis.com/",
    "photo_url": "https://cdn.filestackcontent.com/Z8ZaQOZQRuIjIWsLcliL",
    "nets_provided": true,
    "skill_levels": "advanced,intermediate",
    "court_type": "dedicated"
  },
  {
    "county_slug": "san-diego",
    "state": "CA",
    "verified": false,
    "name": "Pacific Highlands Ranch Recreation Center",
    "description": "Pacific Highlands Ranch Recreation Center is a place to play pickleball in San Diego, CA. There are 6 indoor concrete courts. The lines are permanent, but you'll need to bring your own net. The courts are free. The facility includes amenities like restrooms and water.",
    "address": "5977 Village Center Loop Rd",
    "city": "San Diego",
    "zip_code": "92130",
    "latitude": 32.960276,
    "longitude": -117.186256,
    "indoor": true,
    "num_courts": 6,
    "surface_type": "Concrete",
    "fees": "Free",
    "phone": "8585521616",
    "website": "https://www.sandiego.gov/park-and-recreation/centers/recctr/pacifichighlandsranch",
    "photo_url": "https://cdn.filestackcontent.com/KgDZA3zsRwqkn8XVXtj8",
    "has_restrooms": true,
    "has_water": true,
    "nets_provided": false,
    "skill_levels": "intermediate",
    "court_type": "dedicated",
    "has_parking": true
  },
  {
    "county_slug": "san-diego",
    "state": "CA",
    "verified": false,
    "name": "Palacio Del Mar Recreation Center",
    "description": "Palacio Del Mar Recreation Center is one of the most popular places to play pickleball in San Diego, CA. There are 2 outdoor concrete courts. These are dedicated courts with permanent lines and nets. Amenities include lights and restrooms. A one-time fee is required to play.",
    "address": "4853 Caminito Exquisito",
    "city": "San Diego",
    "latitude": 32.942568,
    "longitude": -117.212089,
    "indoor": false,
    "lighted": true,
    "num_courts": 2,
    "surface_type": "Concrete",
    "fees": "Fee required",
    "phone": "+18587924641",
    "photo_url": "https://cdn.filestackcontent.com/n9AdbY9WRmGjvi9TWeMZ",
    "has_restrooms": true,
    "nets_provided": true,
    "skill_levels": "intermediate",
    "court_type": "dedicated"
  },
  {
    "county_slug": "san-diego",
    "state": "CA",
    "verified": false,
    "name": "Park de la Cruz Gymnasium",
    "description": "Park de la Cruz Gymnasium is a place to play pickleball in San Diego, CA. There are 3 indoor hard courts. These are dedicated courts with permanent lines and nets. The courts are free.",
    "address": "3911 Landis St",
    "city": "San Diego",
    "latitude": 32.745516,
    "longitude": -117.110809,
    "indoor": true,
    "num_courts": 3,
    "surface_type": "Hard",
    "fees": "Free",
    "phone": "(619) 516-3141",
    "website": "https://www.sandiego.gov/park-and-recreation/centers/recctr/parkdelacruzgym",
    "photo_url": "https://cdn.filestackcontent.com/7pYNgXmjTTCSCjGKMn0c",
    "nets_provided": true,
    "skill_levels": "beginner,intermediate",
    "court_type": "dedicated",
    "has_parking": true
  },
  {
    "county_slug": "san-diego",
    "state": "CA",
    "verified": false,
    "name": "Petco Park",
    "description": "Petco Park is one of the most popular places to play pickleball in San Diego, CA. There are 4 outdoor hard courts. These are dedicated courts with permanent lines and nets. The courts are free.",
    "address": "100 Park Blvd",
    "city": "San Diego",
    "latitude": 32.707009,
    "longitude": -117.155926,
    "indoor": false,
    "num_courts": 4,
    "surface_type": "Hard",
    "fees": "Free",
    "phone": "+16197955555",
    "photo_url": "https://cdn.filestackcontent.com/osSXWhwTDu4sYy1TODSQ",
    "nets_provided": true,
    "skill_levels": "beginner,intermediate",
    "court_type": "dedicated"
  },
  {
    "county_slug": "san-diego",
    "state": "CA",
    "verified": false,
    "name": "Pickleball Club of Carlsbad",
    "description": "Flat Fee-based play (no initial or ongoing membership charges). Each player needs to register online to reserve and pay for a spot in scheduled events like leagues, drills, and open play periods. Court reservations and lesson scheduling are also done online. \nThese courts are indoors, but there's no air conditioning and it can get hot. Some obstacles like padded posts and walls that are a bit too close impact some of the courts.",
    "address": "2561 El Camino Real",
    "city": "Carlsbad",
    "latitude": 33.17851,
    "longitude": -117.333927,
    "indoor": true,
    "lighted": true,
    "num_courts": 6,
    "surface_type": "Hard",
    "fees": "Fee required — $20 per court, per hour. $5 open play 12-2:00 Mon-Fri. $15 -$30 for most other scheduled events (live ball, play with pro, league sessions, glow ball socials, and more).",
    "phone": "(760) 893-0019",
    "website": "https://pickleballclub.life/",
    "photo_url": "https://cdn.filestackcontent.com/lFQnETf4RAqjiQZPjXwa",
    "has_restrooms": true,
    "has_water": true,
    "has_pro_shop": true,
    "nets_provided": true,
    "skill_levels": "beginner,intermediate",
    "court_type": "dedicated"
  },
  {
    "county_slug": "san-diego",
    "state": "CA",
    "verified": false,
    "name": "Pickleball Training Center",
    "description": "Come play pickleball at Pickleball Training Center in Poway, CA! There are 36 outdoor hard courts. The lines are permanent, and portable nets are available. The courts are private. The courts can be reserved. Players have access to restrooms, water, lights, locker rooms, a pro shop or equipment store, and trainers or lessons.",
    "address": "14343 Silverset St",
    "city": "Poway",
    "zip_code": "92064",
    "latitude": 32.977287,
    "longitude": -117.050203,
    "indoor": false,
    "lighted": true,
    "num_courts": 36,
    "surface_type": "Hard",
    "fees": "Private — $10",
    "phone": "+18588484895",
    "website": "https://www.chiratennisacademy.com/pickleball-training-center",
    "email": "chiratennisacademy@gmail.com",
    "photo_url": "https://cdn.filestackcontent.com/bR9OJxs2QhKJ0DMW33xQ",
    "has_restrooms": true,
    "has_water": true,
    "has_pro_shop": true,
    "nets_provided": true,
    "skill_levels": "beginner,intermediate",
    "court_type": "dedicated"
  },
  {
    "county_slug": "san-diego",
    "state": "CA",
    "verified": false,
    "name": "Pickle-padel.com",
    "description": "Pickle-padel.com is a place to play pickleball in Tecate, CA. There are 3 indoor courts. These are dedicated courts with permanent lines and nets. The courts are free.",
    "address": "Av Lázaro Cárdenas",
    "city": "Tecate",
    "latitude": 32.57671,
    "longitude": -116.627548,
    "indoor": true,
    "num_courts": 3,
    "fees": "Free",
    "nets_provided": true,
    "court_type": "dedicated"
  },
  {
    "county_slug": "san-diego",
    "state": "CA",
    "verified": false,
    "name": "Pine Avenue Community Center",
    "description": "Gymnasium has permanent lines marked for badmitten, basketball, and volleyball, as well as pickleball. Schedules vary, but they have a few hours of open play pickleball on most days.",
    "address": "799 Pine Ave",
    "city": "Carlsbad",
    "zip_code": "92008",
    "latitude": 33.159054,
    "longitude": -117.34379,
    "indoor": true,
    "lighted": true,
    "num_courts": 2,
    "surface_type": "Wood",
    "open_play_schedule": "Several hours of open play most days, but times vary. See online monthly calendar.",
    "fees": "Fee required — $3.00 (free if with a minor)",
    "website": "http://carlsbadca.gov/",
    "photo_url": "https://cdn.filestackcontent.com/aWMIKd5TjeJq5p2zHhao",
    "has_restrooms": true,
    "has_water": true,
    "wheelchair_accessible": true,
    "nets_provided": true,
    "skill_levels": "advanced,beginner,intermediate",
    "court_type": "dedicated"
  },
  {
    "county_slug": "san-diego",
    "state": "CA",
    "verified": false,
    "name": "Pio Pico Thousand Trails Rv Resort",
    "description": "Come play pickleball at Pio Pico Thousand Trails Rv Resort in Jamul, CA! There are 2 outdoor courts. The lines are permanent, but you'll need to bring your own net. A membership is required to play.",
    "address": "14815 Otay Lakes Rd",
    "city": "Jamul",
    "zip_code": "91935",
    "latitude": 32.667507,
    "longitude": -116.826269,
    "indoor": false,
    "num_courts": 2,
    "fees": "Members only",
    "phone": "6194210104",
    "website": "https://thousandtrails.com/california/pio-pico-rv-resort-campground/?utm_source=yext&utm_medium=directory&utm_campaign=Yext%20Directory%20Listing",
    "photo_url": "https://cdn.filestackcontent.com/8bEbhX2WRkeuQfGbMCU7",
    "nets_provided": false,
    "skill_levels": "beginner,intermediate",
    "court_type": "dedicated",
    "has_restrooms": true
  },
  {
    "county_slug": "san-diego",
    "state": "CA",
    "verified": false,
    "name": "PoinsettCommunity Park",
    "description": "Come play pickleball at PoinsettCommunity Park in Carlsbad, CA! There are 6 outdoor hard courts. These are dedicated courts with permanent lines and nets. Players have access to restrooms, water, wheelchair accessibility, and lights. The courts are free.",
    "address": "6600 Hidden Valley Rd",
    "city": "Carlsbad",
    "zip_code": "92009",
    "latitude": 33.113812,
    "longitude": -117.304947,
    "indoor": false,
    "lighted": true,
    "num_courts": 6,
    "surface_type": "Hard",
    "fees": "Free",
    "phone": "7602684784",
    "website": "https://www.carlsbadca.gov/Home/Components/FacilityDirectory/FacilityDirectory/44/",
    "photo_url": "https://cdn.filestackcontent.com/eduRHzauSyygzZonf3QX",
    "has_restrooms": true,
    "has_water": true,
    "wheelchair_accessible": true,
    "nets_provided": true,
    "skill_levels": "advanced,beginner,intermediate",
    "court_type": "dedicated"
  },
  {
    "county_slug": "san-diego",
    "state": "CA",
    "verified": false,
    "name": "Portofino Park",
    "description": "Portofino Park is one of the most popular places to play pickleball in San Diego, CA. There are 4 outdoor hard courts. The lines are permanent, but you'll need to bring your own net. The courts are private.",
    "address": "10680 Porto Ct",
    "city": "San Diego",
    "latitude": 32.825814,
    "longitude": -117.100714,
    "indoor": false,
    "num_courts": 4,
    "surface_type": "Hard",
    "fees": "Private",
    "photo_url": "https://cdn.filestackcontent.com/4TZHVTQdQtmMEMii749N",
    "nets_provided": false,
    "skill_levels": "beginner",
    "court_type": "dedicated"
  },
  {
    "county_slug": "san-diego",
    "state": "CA",
    "verified": false,
    "name": "Poway Community Center",
    "description": "A portable pickleball net is available for use for free. Check-in with park staff at the Mickey Cafagna Community Center lobby. A valid current photo I.D. or keys may be traded in for use of the net. \n\nNOTE ABOUT COURT USE: The court's intended use has priority. That means if a group arrives that would like to play basketball, the court would need to be turned over to the basketball players at that time.",
    "address": "13094 Civic Center Dr",
    "city": "Poway",
    "zip_code": "92064",
    "latitude": 32.952098,
    "longitude": -117.047867,
    "indoor": false,
    "lighted": true,
    "num_courts": 2,
    "fees": "Free",
    "phone": "8586684671",
    "website": "http://www.poway.org/communitypark",
    "photo_url": "https://cdn.filestackcontent.com/bMmPMJKDS5ufUJ6NMdJL",
    "nets_provided": false,
    "skill_levels": "beginner,intermediate",
    "court_type": "dedicated"
  },
  {
    "county_slug": "san-diego",
    "state": "CA",
    "verified": false,
    "name": "Proctor Valley Pickleball",
    "description": "3 private courts for rent.  Throw your own pickleball party or tournament.  Go to Proctor Valley Pickleball on Facebook to book your time or join one of our open play sessions that is limited to 16 players so you won't wait long to play.",
    "address": "12144 Proctor Valley Rd",
    "city": "Chula Vista",
    "latitude": 32.66071,
    "longitude": -116.933869,
    "indoor": false,
    "lighted": true,
    "num_courts": 3,
    "surface_type": "Concrete",
    "phone": "+16193975370",
    "website": "https://www.facebook.com/groups/864630947941360",
    "email": "reganohrmund@gmail.com",
    "photo_url": "https://cdn.filestackcontent.com/TVNwWtqVRHi5iDlneFBR",
    "has_restrooms": true,
    "has_pro_shop": true,
    "nets_provided": true,
    "skill_levels": "beginner,intermediate",
    "court_type": "dedicated"
  },
  {
    "county_slug": "san-diego",
    "state": "CA",
    "verified": false,
    "name": "Rainbow Sport Park",
    "description": "Come play pickleball at Rainbow Sport Park in Fallbrook, CA! There is 1 outdoor asphalt court. This is a dedicated court with a permanent net and lines. The facility includes amenities like restrooms. The court is free.",
    "address": "5157 5th St",
    "city": "Fallbrook",
    "zip_code": "92028",
    "latitude": 33.413789,
    "longitude": -117.150038,
    "indoor": false,
    "num_courts": 1,
    "surface_type": "Asphalt",
    "fees": "Free",
    "photo_url": "https://cdn.filestackcontent.com/bVgKL2KNQtSEkl8C8N2O",
    "has_restrooms": true,
    "nets_provided": true,
    "skill_levels": "beginner,intermediate",
    "court_type": "dedicated"
  },
  {
    "county_slug": "san-diego",
    "state": "CA",
    "verified": false,
    "name": "Rally House Pickleball Club",
    "description": "Rally House Pickleball Club is one of the most popular places to play pickleball in Carlsbad, CA. There are 11 indoor hard courts. These are dedicated courts with permanent lines and nets. You can reserve the courts. Players have access to a pro shop or equipment store, restrooms, food, water, youth programming, trainers or lessons, lights, and wheelchair accessibility.",
    "address": "6131 Innovation Way suite 100",
    "city": "Carlsbad",
    "latitude": 33.12895,
    "longitude": -117.260591,
    "indoor": true,
    "lighted": true,
    "num_courts": 11,
    "surface_type": "Hard",
    "open_play_schedule": "Coming April 2025!",
    "phone": "+17608142202",
    "website": "https://rallyhousepbc.com/",
    "email": "info@rallyhousepbc.com",
    "photo_url": "https://cdn.filestackcontent.com/BO0ZkCkUSXC87x1Z7Zl4",
    "has_restrooms": true,
    "has_water": true,
    "has_pro_shop": true,
    "wheelchair_accessible": true,
    "nets_provided": true,
    "skill_levels": "advanced,intermediate",
    "court_type": "dedicated"
  },
  {
    "county_slug": "san-diego",
    "state": "CA",
    "verified": false,
    "name": "Rams Hill Golf Club",
    "description": "Come play pickleball at Rams Hill Golf Club in Borrego Springs, CA! There are 2 outdoor concrete courts. The lines are permanent, and portable nets are available. Players have access to restrooms and water. A membership is required to play.",
    "address": "1881 Rams Hill Rd",
    "city": "Borrego Springs",
    "latitude": 33.193852,
    "longitude": -116.323329,
    "indoor": false,
    "num_courts": 2,
    "surface_type": "Concrete",
    "fees": "Members only",
    "phone": "+17607673500",
    "website": "https://www.ramshill.com/product/rams-hill-seasonal-golf-memberships/",
    "email": "concierge@ramshill.com",
    "photo_url": "https://cdn.filestackcontent.com/YJsxmiTLRiCVjjJCMyjl",
    "has_restrooms": true,
    "has_water": true,
    "nets_provided": true,
    "skill_levels": "intermediate",
    "court_type": "dedicated"
  },
  {
    "county_slug": "san-diego",
    "state": "CA",
    "verified": false,
    "name": "Rancho Bernardo-Glassman Recreation Center",
    "description": "Rancho Bernardo-Glassman Recreation Center is one of the most popular places to play pickleball in San Diego, CA. There are 3 indoor hard courts. The lines are permanent, and portable nets are available. The facility includes amenities like lights. The courts are free.",
    "address": "18448 W Bernardo Dr",
    "city": "San Diego",
    "zip_code": "92127",
    "latitude": 33.04344,
    "longitude": -117.076003,
    "indoor": true,
    "lighted": true,
    "num_courts": 3,
    "surface_type": "Hard",
    "fees": "Free",
    "phone": "8585388129",
    "website": "https://www.sandiego.gov/park-and-recreation/centers/recctr/rancho",
    "photo_url": "https://cdn.filestackcontent.com/VDNzocDmRMKxO9PD2wjZ",
    "nets_provided": true,
    "skill_levels": "beginner,intermediate",
    "court_type": "dedicated",
    "has_parking": true
  },
  {
    "county_slug": "san-diego",
    "state": "CA",
    "verified": false,
    "name": "RoadRunner Resort",
    "description": "Come play pickleball at RoadRunner Resort in Borrego Springs, CA! There are 8 outdoor concrete courts. These are dedicated courts with permanent lines and nets. Players have access to restrooms. The courts are private.",
    "address": "Nancy Lopez Dr",
    "city": "Borrego Springs",
    "latitude": 33.256679,
    "longitude": -116.378268,
    "indoor": false,
    "num_courts": 8,
    "surface_type": "Concrete",
    "fees": "Private — Must be a resident of RoadRunner Golf Resort or a guest at The Springs at Borrego RV Park to use these courts",
    "phone": "7607675374",
    "website": "http://roadrunnerclub.com/",
    "email": "roadrunnerborrego@gmail.com",
    "photo_url": "https://cdn.filestackcontent.com/ESCieglbQgSAmiECxlZB",
    "has_restrooms": true,
    "nets_provided": true,
    "skill_levels": "intermediate",
    "court_type": "dedicated"
  },
  {
    "county_slug": "san-diego",
    "state": "CA",
    "verified": false,
    "name": "Rooftop Parking Garage Court",
    "description": "Rooftop Parking Garage Court is a place to play pickleball in San Diego, CA. There is 1 outdoor hard court. This is a dedicated court with a permanent net and lines. The court is private.",
    "address": "8680 Spectrum Center Blvd",
    "city": "San Diego",
    "latitude": 32.827064,
    "longitude": -117.141108,
    "indoor": false,
    "num_courts": 1,
    "surface_type": "Hard",
    "fees": "Private",
    "website": "https://www.thevivecollection.com/?/?rccustomid=NjQ2NTk%3d-DiU%2fUXaVqqw%3d&gad_source=1&gad_campaignid=21695967108&gclid=Cj0KCQjwkILEBhDeARIsAL--pjyuEcbmMRmHnpu0Kyem_pBhGESjXPDtVJCoJEqnTrQ4SxzjX8T-B4IaAiD4EALw_wcB",
    "nets_provided": true,
    "skill_levels": "advanced,beginner,intermediate",
    "court_type": "dedicated"
  },
  {
    "county_slug": "san-diego",
    "state": "CA",
    "verified": false,
    "name": "Salvation Army Red Shield El Cajon",
    "description": "Salvation Army Red Shield El Cajon is one of the most popular places to play pickleball in El Cajon, CA. There are 3 indoor acrylic courts. The lines are permanent, and portable nets are available. Amenities include restrooms, water, and lights. A one-time fee is required to play.",
    "address": "1011 E Main St",
    "city": "El Cajon",
    "zip_code": "92020",
    "latitude": 32.794521,
    "longitude": -116.947685,
    "indoor": true,
    "lighted": true,
    "num_courts": 3,
    "surface_type": "Acrylic",
    "fees": "Fee required",
    "phone": "8007252769",
    "website": "http://ecredshield.org/",
    "photo_url": "https://cdn.filestackcontent.com/lKZWHpsSfi8fsL1TFZH2",
    "has_restrooms": true,
    "has_water": true,
    "nets_provided": true,
    "skill_levels": "beginner,intermediate",
    "court_type": "dedicated",
    "hours": "Monday 1 PM - 4 PM"
  },
  {
    "county_slug": "san-diego",
    "state": "CA",
    "verified": false,
    "name": "(San Diego) Coronado Marriott Resort and Spa",
    "description": "(San Diego) Coronado Marriott Resort and Spa is a place to play pickleball in Coronado, CA. There are 12 outdoor hard courts. These are dedicated courts with permanent lines and nets. Amenities include lights, restrooms, water, wheelchair accessibility, food, and locker rooms. Reservations are available. A one-time fee is required to play.",
    "address": "2000 2nd St",
    "city": "Coronado",
    "zip_code": "92118",
    "latitude": 32.694614,
    "longitude": -117.167109,
    "indoor": false,
    "lighted": true,
    "num_courts": 12,
    "surface_type": "Hard",
    "fees": "Fee required",
    "phone": "+16195223082",
    "website": "https://www.marriott.com/hotels/travel/sanci-coronado-island-marriott-resort-and-spa/",
    "photo_url": "https://cdn.filestackcontent.com/iBI6Xk18QHup8qLrrzVy",
    "has_restrooms": true,
    "has_water": true,
    "wheelchair_accessible": true,
    "nets_provided": true,
    "skill_levels": "advanced,beginner,intermediate",
    "court_type": "dedicated"
  },
  {
    "county_slug": "san-diego",
    "state": "CA",
    "verified": false,
    "name": "San Diego Country Estates",
    "description": "Access allowed for local residents, hotel guests and member guests only.",
    "address": "24157 San Vicente Road",
    "city": "Ramona",
    "latitude": 33.002074,
    "longitude": -116.809305,
    "indoor": false,
    "num_courts": 8,
    "surface_type": "Hard",
    "fees": "Members only",
    "website": "https://www.sdcea.net/",
    "photo_url": "https://cdn.filestackcontent.com/Ql0n5yVSRxGxVBap3MM2",
    "nets_provided": true,
    "skill_levels": "beginner,intermediate",
    "court_type": "dedicated"
  },
  {
    "county_slug": "san-diego",
    "state": "CA",
    "verified": false,
    "name": "San Diego Municipal Gymnasium",
    "description": "San Diego Municipal Gymnasium is one of the most popular places to play pickleball in San Diego, CA. There are 9 indoor wood courts. The lines are permanent, and portable nets are available. The courts are free. You can’t reserve the courts. Players have access to wheelchair accessibility, water, and restrooms.",
    "address": "2111 Pan American Plaza",
    "city": "San Diego",
    "latitude": 32.726835,
    "longitude": -117.153041,
    "indoor": true,
    "num_courts": 9,
    "surface_type": "Wood",
    "fees": "Free",
    "phone": "6195258262",
    "website": "https://www.sandiego.gov/park-and-recreation/centers/recctr/munigym",
    "photo_url": "https://cdn.filestackcontent.com/ihqBYOOfTgiR717jjQEY",
    "has_restrooms": true,
    "has_water": true,
    "wheelchair_accessible": true,
    "nets_provided": true,
    "skill_levels": "beginner,intermediate",
    "court_type": "dedicated",
    "has_parking": true
  },
  {
    "county_slug": "san-diego",
    "state": "CA",
    "verified": false,
    "name": "San Diego Pickleball",
    "description": "San Diego Pickleball is one of the most popular places to play pickleball in San Diego, CA. There are 12 outdoor hard courts. The lines are permanent, and portable nets are available. Amenities include lights, restrooms, water, wheelchair accessibility, and trainers or lessons. Reservations are available. A one-time fee is required to play.",
    "address": "1775 East Mission Bay Drive",
    "city": "San Diego",
    "latitude": 32.779172,
    "longitude": -117.211068,
    "indoor": false,
    "lighted": true,
    "num_courts": 12,
    "surface_type": "Hard",
    "fees": "Fee required — $8/Open Play or you can join leagues and or RoundRobbins via Court Reserve",
    "phone": "+18586308740",
    "website": "https://www.sandiegopickleball.com",
    "email": "sdpicklers@gmail.com",
    "photo_url": "https://cdn.filestackcontent.com/mvFsCwxQD63CHwdR4lUJ",
    "has_restrooms": true,
    "has_water": true,
    "wheelchair_accessible": true,
    "nets_provided": true,
    "skill_levels": "advanced,intermediate",
    "court_type": "dedicated",
    "hours": "9am - 9pm"
  },
  {
    "county_slug": "san-diego",
    "state": "CA",
    "verified": false,
    "name": "San Diego Tennis Center - Point Loma",
    "description": "Come play pickleball at San Diego Tennis Center - Point Loma in San Diego, CA! There are 2 outdoor hard courts. The lines are permanent, but you'll need to bring your own net. The courts are private.",
    "address": "3051 Cañon St",
    "city": "San Diego",
    "latitude": 32.721671,
    "longitude": -117.232799,
    "indoor": false,
    "num_courts": 2,
    "surface_type": "Hard",
    "fees": "Private",
    "phone": "+16193540633",
    "website": "https://www.sandiegotenniscenter.com/",
    "email": "info@sandiegotenniscenter.com",
    "photo_url": "https://cdn.filestackcontent.com/JXJAEIcoTtifDMY2LeoT",
    "nets_provided": false,
    "skill_levels": "beginner,intermediate",
    "court_type": "dedicated"
  },
  {
    "county_slug": "san-diego",
    "state": "CA",
    "verified": false,
    "name": "San Diego Yacht Club",
    "description": "MEMBERS ONLY",
    "address": "1011 Anchorage Ln",
    "city": "San Diego",
    "zip_code": "92106",
    "latitude": 32.718282,
    "longitude": -117.229186,
    "indoor": false,
    "num_courts": 3,
    "phone": "6192218400",
    "website": "https://www.sdyc.org/",
    "photo_url": "https://cdn.filestackcontent.com/9e4YEuDuSYurbBtRdESw",
    "nets_provided": false,
    "skill_levels": "advanced,intermediate",
    "court_type": "dedicated",
    "hours": "7AM - 10PM",
    "has_restrooms": true
  },
  {
    "county_slug": "san-diego",
    "state": "CA",
    "verified": false,
    "name": "San Marcos (f. H. Corky) Gymnasium",
    "description": "Come play pickleball at San Marcos (f. H. Corky) Gymnasium in San Marcos, CA! There are 3 indoor courts. The lines are permanent, but you'll need to bring your own net. A one-time fee is required to play. Amenities include lights.",
    "address": "274 Pico Ave",
    "city": "San Marcos",
    "zip_code": "92069",
    "latitude": 33.142875,
    "longitude": -117.166097,
    "indoor": true,
    "lighted": true,
    "num_courts": 3,
    "fees": "Fee required",
    "phone": "7607449494",
    "website": "https://www.san-marcos.net/Home/Components/FacilityDirectory/FacilityDirectory/144/1080",
    "photo_url": "https://cdn.filestackcontent.com/2y7WesZvR6GNzhlPRbZq",
    "nets_provided": false,
    "skill_levels": "intermediate",
    "court_type": "dedicated"
  },
  {
    "county_slug": "san-diego",
    "state": "CA",
    "verified": false,
    "name": "San Vicente Resort",
    "description": "San Vicente Resort is one of the most popular places to play pickleball in Ramona, CA. There are 8 outdoor hard courts. These are dedicated courts with permanent lines and nets. The courts are private. You can’t reserve the courts.",
    "address": "24157 San Vicente Rd",
    "city": "Ramona",
    "latitude": 33.002199,
    "longitude": -116.805761,
    "indoor": false,
    "num_courts": 8,
    "surface_type": "Hard",
    "fees": "Private",
    "phone": "+17607898290",
    "website": "https://www.sdcea.net/tennis-and-pickleball-courts-at-san-vicente-resort",
    "photo_url": "https://cdn.filestackcontent.com/oefjVk5KRMCveZ7qBuDp",
    "nets_provided": true,
    "court_type": "dedicated"
  },
  {
    "county_slug": "san-diego",
    "state": "CA",
    "verified": false,
    "name": "Scripps Ranch Recreation Center",
    "description": "Scripps Ranch Recreation Center is a place to play pickleball in San Diego, CA. There are 4 indoor wood courts. The lines are permanent, and portable nets are available. The courts cannot be reserved. The facility includes amenities like lights and restrooms. The courts are free.",
    "address": "11454 Blue Cypress Dr",
    "city": "San Diego",
    "zip_code": "92131",
    "latitude": 32.927802,
    "longitude": -117.078407,
    "indoor": true,
    "lighted": true,
    "num_courts": 4,
    "surface_type": "Wood",
    "open_play_schedule": "phone call to double check times today",
    "fees": "Free",
    "website": "http://www.sandiego.gov/park-and-recreation/centers/recctr/scripps.shtml",
    "photo_url": "https://cdn.filestackcontent.com/cZ4ju498TSuj12xgXA7y",
    "has_restrooms": true,
    "nets_provided": true,
    "skill_levels": "beginner,intermediate",
    "court_type": "dedicated"
  },
  {
    "county_slug": "san-diego",
    "state": "CA",
    "verified": false,
    "name": "Scripps Ranch Swim & Racquet Club",
    "description": "Scripps Ranch Swim & Racquet Club is a place to play pickleball in San Diego, CA. There are 8 outdoor hard courts. These are dedicated courts with permanent lines and nets. Players have access to lights. Reservations are available. A membership is required to play.",
    "address": "9875 Aviary Drive San Diego 92131",
    "city": "San Diego",
    "latitude": 32.900997,
    "longitude": -117.100875,
    "indoor": false,
    "lighted": true,
    "num_courts": 8,
    "surface_type": "Hard",
    "fees": "Members only",
    "phone": "8582714231",
    "website": "http://www.srsrc.com/",
    "photo_url": "https://cdn.filestackcontent.com/RS5pYv9FQZyD3O63FlN0",
    "nets_provided": true,
    "skill_levels": "beginner,intermediate",
    "court_type": "dedicated"
  },
  {
    "county_slug": "san-diego",
    "state": "CA",
    "verified": false,
    "name": "Sofi Westview Apartment",
    "description": "Sofi Westview Apartment is one of the most popular places to play pickleball in San Diego, CA. There are 2 outdoor concrete courts. These are dedicated courts with permanent lines and nets. The courts cannot be reserved. The facility includes amenities like water. The courts are private.",
    "address": "11706 Westview Pkwy",
    "city": "San Diego",
    "latitude": 32.931125,
    "longitude": -117.122827,
    "indoor": false,
    "num_courts": 2,
    "surface_type": "Concrete",
    "fees": "Private",
    "phone": "+18583042979",
    "website": "https://www.sofiwestview.com/?utm_source=GBP&utm_medium=organic&utm_campaign=GBP",
    "photo_url": "https://cdn.filestackcontent.com/PfxsPFZzSZeW862ABNnt",
    "has_water": true,
    "nets_provided": true,
    "skill_levels": "beginner,intermediate",
    "court_type": "dedicated"
  },
  {
    "county_slug": "san-diego",
    "state": "CA",
    "verified": false,
    "name": "Sonata Tennis Court",
    "description": "Sonata Tennis Court is a place to play pickleball in Escondido, CA. There are 4 outdoor concrete courts. These are dedicated courts with permanent lines and nets. The courts are private. The facility includes amenities like lights.",
    "address": "Sonata Tennis Court",
    "city": "Escondido",
    "latitude": 33.066224,
    "longitude": -117.057664,
    "indoor": false,
    "lighted": true,
    "num_courts": 4,
    "surface_type": "Concrete",
    "fees": "Private",
    "website": "https://www.sonata-hoa.org/sonata-courts",
    "photo_url": "https://cdn.filestackcontent.com/QZpNFOOR22cdoGDPDDUg",
    "nets_provided": true,
    "skill_levels": "advanced,beginner,intermediate",
    "court_type": "dedicated"
  },
  {
    "county_slug": "san-diego",
    "state": "CA",
    "verified": false,
    "name": "Southwestern College",
    "description": "College name was misspelled. Should be Southwestern College; currently ‘Southwester College’",
    "address": "900 Otay Lakes Rd",
    "city": "Chula Vista",
    "latitude": 32.643483,
    "longitude": -116.998093,
    "indoor": false,
    "num_courts": 2,
    "surface_type": "Asphalt, Concrete, Hard",
    "fees": "Free",
    "phone": "+16194216700",
    "website": "https://www.swccd.edu/",
    "photo_url": "https://cdn.filestackcontent.com/gP7iEuaNQ3CM8EmXU2Oh",
    "skill_levels": "beginner,intermediate",
    "court_type": "shared"
  },
  {
    "county_slug": "san-diego",
    "state": "CA",
    "verified": false,
    "name": "Sports Court",
    "description": "We are excited to have you and wanted to go over some ground rules.  Please note that this rental contract is for the court's use only. The area around the court is still under gardening construction. We ask that you please respect this area and stay off it, as we have tools and uneven dirt around it.  \n\nImmerse yourself in the excitement of training amidst the awe-inspiring natural surroundings of an outdoor training facility. Our versatile sports court caters to soccer / Futsal, basketball, and pickleball, providing the ideal synergy of athletic training and the serenity of the great outdoors.  \n\nSpace size:  Our court is 32x60, about 1,920 sq ft. \nPickleball:  Bring your pedals and balls.  Net will be provided.  \n\nIf you are planning to stay and watch, there is a small viewing area. We have 10 plastic chairs. Please feel free to bring your Bluetooth speakers to play music.\n\n1) Please park on the street.  Do not park in the driveway.  \n\n2) Enter through the left gate and follow the sign.  \n\n3) Please refrain from running on the court to prevent accidents or injuries. \n\n4) No restroom on site as it is attached to the resident.  \nFood and drinks are okay, but there is NO FOOD OR DRINKS on the court.  No coolers with wheels.  You must be able to carry it down.  \n\n5)  No wheelchair or stroller access to the court.  It's all steps.\n\n6)  Please do not leave any trash behind.",
    "address": "3432 Avenida Sierra",
    "city": "Escondido",
    "latitude": 33.064751,
    "longitude": -117.077049,
    "indoor": false,
    "num_courts": 1,
    "surface_type": "Hard",
    "fees": "Private — Please see reservation link",
    "phone": "+18588229245",
    "website": "https://www.peerspace.com/pages/listings/668c060343d853c5c3f59656",
    "email": "Lindakvalero@gmail.com",
    "photo_url": "https://cdn.filestackcontent.com/mUxttX4TRip8Ynu95KtU",
    "nets_provided": true,
    "skill_levels": "advanced,beginner",
    "court_type": "dedicated"
  },
  {
    "county_slug": "san-diego",
    "state": "CA",
    "verified": false,
    "name": "Stagecoach Community Center",
    "description": "Come play pickleball at Stagecoach Community Center in Carlsbad, CA! There are 3 indoor wood courts. The lines are permanent, and portable nets are available. Reservations are not available. Players have access to restrooms, water, and food. A one-time fee is required to play.",
    "address": "3420 Camino de los coches",
    "city": "Carlsbad",
    "zip_code": "92009",
    "latitude": 33.075433,
    "longitude": -117.23445,
    "indoor": true,
    "num_courts": 3,
    "surface_type": "Wood",
    "fees": "Fee required — $3",
    "phone": "(442) 339-2690",
    "photo_url": "https://cdn.filestackcontent.com/FVxht2ATTV2X5lDXQVeH",
    "has_restrooms": true,
    "has_water": true,
    "nets_provided": true,
    "skill_levels": "advanced,intermediate",
    "court_type": "dedicated"
  },
  {
    "county_slug": "san-diego",
    "state": "CA",
    "verified": false,
    "name": "Standley Recreation Center",
    "description": "Come play pickleball at Standley Recreation Center in San Diego, CA! There are 4 wood and concrete courts. 2 are indoors and 2 are outdoors. The lines are permanent, and portable nets are available. The courts are free. The courts cannot be reserved. Amenities include restrooms, water, lights, and wheelchair accessibility.",
    "address": "3585 Governor Drive",
    "city": "San Diego",
    "latitude": 32.850822,
    "longitude": -117.210585,
    "indoor": false,
    "lighted": true,
    "num_courts": 4,
    "surface_type": "Wood, Concrete",
    "fees": "Free",
    "phone": "8585521652",
    "website": "https://www.sandiego.gov/park-and-recreation/centers/recctr/standley",
    "photo_url": "https://cdn.filestackcontent.com/PyTb0MRVGV9kdqwDOh9w",
    "has_restrooms": true,
    "has_water": true,
    "wheelchair_accessible": true,
    "nets_provided": true,
    "skill_levels": "beginner,intermediate",
    "court_type": "dedicated",
    "has_parking": true
  },
  {
    "county_slug": "san-diego",
    "state": "CA",
    "verified": false,
    "name": "St. Michael's by-the-Sea Pickleball",
    "description": "St. Michael's by-the-Sea Pickleball is one of the most popular places to play pickleball in Carlsbad, CA. There are 2 outdoor hard courts. These are dedicated courts with permanent lines and nets. You can reserve the courts. The courts are free.",
    "address": "2775 Carlsbad Blvd",
    "city": "Carlsbad",
    "zip_code": "92008",
    "latitude": 33.16022,
    "longitude": -117.353091,
    "indoor": false,
    "num_courts": 2,
    "surface_type": "Hard",
    "fees": "Free",
    "phone": "7607298901",
    "website": "http://stmichaelspickleball.org/",
    "photo_url": "https://cdn.filestackcontent.com/eLVss8tSrClNGh14j0OZ",
    "nets_provided": true,
    "skill_levels": "advanced,beginner,intermediate",
    "court_type": "dedicated",
    "has_parking": true
  },
  {
    "county_slug": "san-diego",
    "state": "CA",
    "verified": false,
    "name": "Stonecrest Village HOA",
    "description": "Come play pickleball at Stonecrest Village HOA in San Diego, CA! There are 2 outdoor hard courts. The lines are permanent, and portable nets are available. Reservations are available. The courts are private. Amenities include restrooms, water, and lights.",
    "address": "3110 West Canyon Avenue",
    "city": "San Diego",
    "latitude": 32.800998,
    "longitude": -117.119024,
    "indoor": false,
    "lighted": true,
    "num_courts": 2,
    "surface_type": "Hard",
    "fees": "Private",
    "photo_url": "https://cdn.filestackcontent.com/2BmwS4jiQvay3Aei0GvC",
    "has_restrooms": true,
    "has_water": true,
    "nets_provided": true,
    "skill_levels": "intermediate",
    "court_type": "dedicated"
  },
  {
    "county_slug": "san-diego",
    "state": "CA",
    "verified": false,
    "name": "Taft Middle School",
    "description": "Taft Middle School is one of the most popular places to play pickleball in San Diego, CA. There are 2 outdoor asphalt courts. These are dedicated courts with permanent lines and nets. The courts are free.",
    "address": "9191 Gramercy Dr",
    "city": "San Diego",
    "latitude": 32.801804,
    "longitude": -117.130407,
    "indoor": false,
    "num_courts": 2,
    "surface_type": "Asphalt",
    "fees": "Free",
    "phone": "+18589352650",
    "website": "https://taft.sandiegounified.org/",
    "photo_url": "https://cdn.filestackcontent.com/TCIqP54uSVGNVJgsToZ7",
    "nets_provided": true,
    "skill_levels": "beginner,intermediate",
    "court_type": "dedicated",
    "has_restrooms": true
  },
  {
    "county_slug": "san-diego",
    "state": "CA",
    "verified": false,
    "name": "T. Claude and Gladys B. Ryan Family YMCA",
    "description": "T. Claude and Gladys B. Ryan Family YMCA is one of the most popular places to play pickleball in San Diego, CA. There are 2 indoor hard courts. The lines are permanent, and portable nets are available. A membership is required to play. Amenities include restrooms.",
    "address": "4390 Valeta St",
    "city": "San Diego",
    "latitude": 32.749303,
    "longitude": -117.232895,
    "indoor": true,
    "num_courts": 2,
    "surface_type": "Hard",
    "fees": "Members only",
    "phone": "+16192268888",
    "website": "https://www.ymcasd.org/locations/t-claude-and-gladys-b-ryan-family-ymca",
    "photo_url": "https://cdn.filestackcontent.com/tCu1cmF6QTivCRlpcRe1",
    "has_restrooms": true,
    "nets_provided": true,
    "skill_levels": "advanced,beginner,intermediate",
    "court_type": "dedicated"
  },
  {
    "county_slug": "san-diego",
    "state": "CA",
    "verified": false,
    "name": "Tennis Club of Vista",
    "description": "Tennis Club of Vista is a place to play pickleball in Vista, CA. There are 14 outdoor concrete and hard courts. These are dedicated courts with permanent lines and nets. Amenities include restrooms, lights, trainers or lessons, a pro shop or equipment store, and locker rooms. The courts can be reserved. A one-time fee is required to play.",
    "address": "685 Taylor St",
    "city": "Vista",
    "latitude": 33.227725,
    "longitude": -117.233311,
    "indoor": false,
    "lighted": true,
    "num_courts": 14,
    "surface_type": "Concrete, Hard",
    "fees": "Fee required — $7 drop in or per hour",
    "phone": "+17607264406",
    "website": "https://tennisclubofvista.com/contact-us/",
    "email": "info@tennisclubofvista.com",
    "photo_url": "https://cdn.filestackcontent.com/ze18aEh4SkS2PyyNbM5s",
    "has_restrooms": true,
    "has_pro_shop": true,
    "nets_provided": true,
    "skill_levels": "intermediate",
    "court_type": "dedicated"
  },
  {
    "county_slug": "san-diego",
    "state": "CA",
    "verified": false,
    "name": "The Lodge at Lake San Marcos",
    "description": "Come play pickleball at The Lodge at Lake San Marcos in San Marcos, CA! There are 6 outdoor asphalt courts. These are dedicated courts with permanent lines and nets. The courts are private. Amenities include restrooms.",
    "address": "1105 La Bonita Drive",
    "city": "San Marcos",
    "latitude": 33.122967,
    "longitude": -117.20809,
    "indoor": false,
    "num_courts": 6,
    "surface_type": "Asphalt",
    "fees": "Private",
    "phone": "+17606533219",
    "website": "https://members.stmarkgolf.com/login.aspx?ReturnUrl=%2F",
    "photo_url": "https://cdn.filestackcontent.com/eiRFFFTe6AhBKhnNp35Q",
    "has_restrooms": true,
    "nets_provided": true,
    "skill_levels": "intermediate",
    "court_type": "dedicated"
  },
  {
    "county_slug": "san-diego",
    "state": "CA",
    "verified": false,
    "name": "The Picklr Vista",
    "description": "Grand Opening: TBD",
    "address": "940 S Santa Fe Ave",
    "city": "Vista",
    "latitude": 33.194221,
    "longitude": -117.232612,
    "indoor": true,
    "lighted": true,
    "num_courts": 9,
    "surface_type": "Hard",
    "open_play_schedule": "Grand Opening: TBD",
    "fees": "Members only",
    "website": "https://thepicklr.com/location/vista/",
    "email": "vista.ca@thepicklrfranchise.com",
    "photo_url": "https://cdn.filestackcontent.com/GbTWPPFORdWu2cDSlwlO",
    "has_restrooms": true,
    "has_water": true,
    "has_pro_shop": true,
    "nets_provided": true,
    "skill_levels": "intermediate",
    "court_type": "dedicated"
  },
  {
    "county_slug": "san-diego",
    "state": "CA",
    "verified": false,
    "name": "The Salvation Army Ray & Joan Kroc Corps Community Center",
    "description": "What to bring\nYour own paddle and balls\nA water bottle\n\nPolicies\nPlease see our policies page for full details on Kroc Center Policies\nWe kindly request and expect all staff, members & guests to represent our Kroc Core Commitments: Interacting with integrity, ethics, rationality, respect and in a manner that is both inclusive and caring to all. Also, have fun!",
    "address": "6753 University Ave",
    "city": "San Diego",
    "latitude": 32.754471,
    "longitude": -117.051687,
    "indoor": true,
    "lighted": true,
    "num_courts": 6,
    "surface_type": "Wood",
    "open_play_schedule": "https://sd.kroccenter.org/kroc-san-diego/pickleball-1",
    "fees": "Members only — Registration fee $15 / Membership $25 a month",
    "phone": "+16192691472",
    "website": "https://sd.kroccenter.org/kroc-san-diego/",
    "email": "krocinfo@usw.salvationarmy.org",
    "photo_url": "https://cdn.filestackcontent.com/CvkYDbdQkOXk2pvx89mQ",
    "has_restrooms": true,
    "has_water": true,
    "wheelchair_accessible": true,
    "nets_provided": true,
    "skill_levels": "beginner,intermediate",
    "court_type": "dedicated"
  },
  {
    "county_slug": "san-diego",
    "state": "CA",
    "verified": false,
    "name": "Thibodo Park",
    "description": "Thibodo Park is one of the most popular places to play pickleball in Vista, CA. There are 4 outdoor hard courts. These are dedicated courts with permanent lines and nets. The courts are free. You can’t reserve the courts. The facility includes amenities like restrooms, lights, water, and wheelchair accessibility.",
    "address": "1150 Lupine Hills Dr",
    "city": "Vista",
    "latitude": 33.170554,
    "longitude": -117.229153,
    "indoor": false,
    "lighted": true,
    "num_courts": 4,
    "surface_type": "Hard",
    "fees": "Free",
    "phone": "7606396151",
    "website": "http://www.cityofvista.com/",
    "photo_url": "https://cdn.filestackcontent.com/pyknuxjBQh2vEMYN6ZrY",
    "has_restrooms": true,
    "has_water": true,
    "wheelchair_accessible": true,
    "nets_provided": true,
    "skill_levels": "advanced,intermediate",
    "court_type": "dedicated"
  },
  {
    "county_slug": "san-diego",
    "state": "CA",
    "verified": false,
    "name": "Tierrasanta Recreation Center",
    "description": "Tierrasanta Recreation Center is a place to play pickleball in San Diego, CA. There are 2 indoor courts. The lines are permanent, and portable nets are available. A one-time fee is required to play. The facility includes amenities like restrooms.",
    "address": "11220 Clairemont Mesa Blvd",
    "city": "San Diego",
    "latitude": 32.830422,
    "longitude": -117.087966,
    "indoor": true,
    "num_courts": 2,
    "fees": "Fee required",
    "phone": "+18585731393",
    "website": "https://www.sandiego.gov/park-and-recreation/centers/recctr/tierrasanta",
    "photo_url": "https://cdn.filestackcontent.com/sYUDiJOETsiw2fnJtwg7",
    "has_restrooms": true,
    "nets_provided": true,
    "skill_levels": "advanced,beginner,intermediate",
    "court_type": "dedicated",
    "has_parking": true
  },
  {
    "county_slug": "san-diego",
    "state": "CA",
    "verified": false,
    "name": "Toby Wells YMCA",
    "description": "Toby Wells YMCA is one of the most popular places to play pickleball in San Diego, CA. There are 2 indoor wood courts. Tape lines have been laid, and portable nets are available. A membership is required to play. Players have access to locker rooms, restrooms, water, wheelchair accessibility, trainers or lessons, and lights.",
    "address": "5105 Overland Ave",
    "city": "San Diego",
    "latitude": 32.829805,
    "longitude": -117.130084,
    "indoor": true,
    "lighted": true,
    "num_courts": 2,
    "surface_type": "Wood",
    "fees": "Members only",
    "phone": "+18584969622",
    "website": "https://www.ymcasd.org/locations/toby-wells-ymca",
    "email": "lmurillo@ymcasd.org",
    "photo_url": "https://cdn.filestackcontent.com/4mlRTJ27QTyIdlsKkCKU",
    "has_restrooms": true,
    "has_water": true,
    "wheelchair_accessible": true,
    "nets_provided": true,
    "skill_levels": "advanced,beginner,intermediate",
    "court_type": "shared"
  },
  {
    "county_slug": "san-diego",
    "state": "CA",
    "verified": false,
    "name": "University City Racquet Club",
    "description": "University City Racquet Club is one of the most popular places to play pickleball in San Diego, CA. There are 2 outdoor hard courts. The lines are permanent, and portable nets are available. Reservations are available. A membership is required to play. Amenities include restrooms and lights.",
    "address": "3585 Governor Dr",
    "city": "San Diego",
    "latitude": 32.85109,
    "longitude": -117.210309,
    "indoor": false,
    "lighted": true,
    "num_courts": 2,
    "surface_type": "Hard",
    "fees": "Members only",
    "phone": "+18584525683",
    "website": "https://www.ucrctennis.com/",
    "photo_url": "https://cdn.filestackcontent.com/YenhcXdiSkONYvnMUnQS",
    "has_restrooms": true,
    "nets_provided": true,
    "skill_levels": "intermediate",
    "court_type": "dedicated",
    "has_pro_shop": true,
    "has_ball_machine": true
  },
  {
    "county_slug": "san-diego",
    "state": "CA",
    "verified": false,
    "name": "University Of San Diego",
    "description": "University Of San Diego is one of the most popular places to play pickleball in San Diego, CA. There are 4 outdoor asphalt courts. The lines are permanent, but you'll need to bring your own net. A membership is required to play. The facility includes amenities like food, restrooms, water, wheelchair accessibility, and lights.",
    "address": "5998 Alcala Park",
    "city": "San Diego",
    "zip_code": "92110",
    "latitude": 32.770515,
    "longitude": -117.189559,
    "indoor": false,
    "lighted": true,
    "num_courts": 4,
    "surface_type": "Asphalt",
    "fees": "Members only",
    "phone": "6192608889",
    "website": "http://www.sandiego.edu/",
    "photo_url": "https://cdn.filestackcontent.com/N1c8pubITURwy0WbfQgN",
    "has_restrooms": true,
    "has_water": true,
    "wheelchair_accessible": true,
    "nets_provided": false,
    "skill_levels": "advanced,intermediate",
    "court_type": "dedicated"
  },
  {
    "county_slug": "san-diego",
    "state": "CA",
    "verified": false,
    "name": "Views West Park San Diego",
    "description": "Open Play - City of San Diego Parks and Rec Dept.",
    "address": "12958 La Tortola",
    "city": "San Diego",
    "latitude": 32.954772,
    "longitude": -117.116405,
    "indoor": false,
    "num_courts": 3,
    "surface_type": "Asphalt, Concrete",
    "fees": "Free",
    "phone": "+18585388131",
    "website": "https://www.sandiego.gov/parks-and-recreation",
    "photo_url": "https://cdn.filestackcontent.com/DrjQ1zxJQIGhxzkOBpKz",
    "has_restrooms": true,
    "has_water": true,
    "nets_provided": false,
    "skill_levels": "intermediate",
    "court_type": "dedicated",
    "has_parking": true
  },
  {
    "county_slug": "san-diego",
    "state": "CA",
    "verified": false,
    "name": "Village Park Clubhouse #2",
    "description": "HOA owned.",
    "address": "399 Glen Arbor Dr",
    "city": "Encinitas",
    "latitude": 33.052084,
    "longitude": -117.241839,
    "indoor": false,
    "num_courts": 2,
    "surface_type": "Concrete",
    "fees": "Private",
    "has_restrooms": true,
    "nets_provided": true,
    "skill_levels": "intermediate",
    "court_type": "dedicated"
  },
  {
    "county_slug": "san-diego",
    "state": "CA",
    "verified": false,
    "name": "Village Park HOA",
    "description": "Village Park HOA is one of the most popular places to play pickleball in Encinitas, CA. There are 2 outdoor courts. These are dedicated courts with permanent lines and nets. The courts are private.",
    "address": "1481 N Willowspring Dr",
    "city": "Encinitas",
    "latitude": 33.05888,
    "longitude": -117.25394,
    "indoor": false,
    "num_courts": 2,
    "fees": "Private",
    "nets_provided": true,
    "court_type": "dedicated"
  },
  {
    "county_slug": "san-diego",
    "state": "CA",
    "verified": false,
    "name": "Village Park Rec Ctr #1",
    "description": "Park near pool.",
    "address": "200 Village Run E",
    "city": "Encinitas",
    "latitude": 33.048103,
    "longitude": -117.247276,
    "indoor": false,
    "num_courts": 2,
    "surface_type": "Concrete",
    "fees": "Private",
    "photo_url": "https://cdn.filestackcontent.com/IrPiICoWSECRZBuCJYR4",
    "nets_provided": true,
    "skill_levels": "intermediate",
    "court_type": "dedicated"
  },
  {
    "county_slug": "san-diego",
    "state": "CA",
    "verified": false,
    "name": "Villanitas HOA Park",
    "description": "Villanitas HOA Park is one of the most popular places to play pickleball in Encinitas, CA. There are 2 outdoor concrete courts. These are dedicated courts with permanent lines and nets. The courts are private. The facility includes amenities like restrooms.",
    "address": "1599 Wandering Road",
    "city": "Encinitas",
    "latitude": 33.053832,
    "longitude": -117.255387,
    "indoor": false,
    "num_courts": 2,
    "surface_type": "Concrete",
    "fees": "Private",
    "website": "https://villanitasboard.com/",
    "photo_url": "https://cdn.filestackcontent.com/XicanObdRGy4GnLtSDBy",
    "has_restrooms": true,
    "nets_provided": true,
    "court_type": "dedicated"
  },
  {
    "county_slug": "san-diego",
    "state": "CA",
    "verified": false,
    "name": "Villas Fore Pickleball Club",
    "description": "There are no public restrooms.  These courts are owned by the Villas Fore HOA. Must be invited to play by a home owner at this time.  Hoping to develop a duel membership club and open up to the community of Bonsall.",
    "address": "Camino Del Rey",
    "city": "Bonsall",
    "latitude": 33.278736,
    "longitude": -117.186173,
    "indoor": false,
    "num_courts": 2,
    "surface_type": "Concrete",
    "fees": "Private",
    "phone": "+16615990863",
    "email": "rdtrip99@gmail.com",
    "nets_provided": true,
    "skill_levels": "beginner",
    "court_type": "shared"
  },
  {
    "county_slug": "san-diego",
    "state": "CA",
    "verified": false,
    "name": "Villa Zosaneli",
    "description": "This is the perfect facility for your pickleball party, social, group or other event. We have 4 permanent courts with a pickleball pavilion that can Accommodate groups up to 40 people! Www.villazosaneli.com",
    "address": "9381 West Lilac Road",
    "city": "Escondido",
    "latitude": 33.296098,
    "longitude": -117.131494,
    "indoor": false,
    "lighted": true,
    "num_courts": 4,
    "surface_type": "Hard",
    "open_play_schedule": "Open everyday from 8 am to 10 pm!",
    "fees": "Private — $100 an hour to rent our facility!",
    "phone": "6197261997",
    "email": "Villazosaneli@gmail.com",
    "photo_url": "https://cdn.filestackcontent.com/1WjQI0VBQuiFxz21Mtr7",
    "has_restrooms": true,
    "has_water": true,
    "nets_provided": true,
    "court_type": "dedicated"
  },
  {
    "county_slug": "san-diego",
    "state": "CA",
    "verified": false,
    "name": "Waterfront Park",
    "description": "Waterfront Park is a place to play pickleball in San Diego, CA. There are 2 outdoor concrete courts. These are dedicated courts with permanent lines and nets. The facility includes amenities like lights, restrooms, and wheelchair accessibility. The courts are free.",
    "address": "1600 Pacific Hwy",
    "city": "San Diego",
    "latitude": 32.72142,
    "longitude": -117.171913,
    "indoor": false,
    "lighted": true,
    "num_courts": 2,
    "surface_type": "Concrete",
    "fees": "Free",
    "phone": "+16192327275",
    "website": "https://www.sdparks.org/content/sdparks/en/park-pages/Waterfront.html",
    "email": "Waterfront.Park@sdcounty.ca.gov",
    "photo_url": "https://cdn.filestackcontent.com/Yqj1IGRqomaeIWFrqw7E",
    "has_restrooms": true,
    "wheelchair_accessible": true,
    "nets_provided": true,
    "skill_levels": "advanced,intermediate",
    "court_type": "dedicated",
    "hours": "6 a.m. – 10 p.m.,",
    "has_parking": true
  },
  {
    "county_slug": "san-diego",
    "state": "CA",
    "verified": false,
    "name": "Wells Park",
    "description": "Wells Park is one of the most popular places to play pickleball in El Cajon, CA. There are 5 outdoor concrete courts. These are dedicated courts with permanent lines and nets. The courts are free. The facility includes amenities like restrooms, lights, and a pro shop or equipment store.",
    "address": "1153 E Madison Ave",
    "city": "El Cajon",
    "latitude": 32.799364,
    "longitude": -116.943558,
    "indoor": false,
    "lighted": true,
    "num_courts": 5,
    "surface_type": "Concrete",
    "fees": "Free",
    "phone": "+16198732322",
    "website": "https://www.elcajon.gov/",
    "photo_url": "https://cdn.filestackcontent.com/RFX8uoV9QdykMKYzQIKo",
    "has_restrooms": true,
    "has_pro_shop": true,
    "nets_provided": true,
    "skill_levels": "advanced,intermediate",
    "court_type": "dedicated"
  },
  {
    "county_slug": "san-diego",
    "state": "CA",
    "verified": false,
    "name": "Westfield UTC",
    "description": "Court is now closed",
    "address": "4303 La Jolla Village Dr",
    "city": "San Diego",
    "latitude": 32.871974,
    "longitude": -117.213457,
    "indoor": false,
    "num_courts": 3,
    "surface_type": "Concrete",
    "open_play_schedule": "Courts are open from sunrise to sundown",
    "fees": "Free",
    "phone": "+18585468858",
    "website": "https://www.westfield.com/united-states/utc",
    "photo_url": "https://cdn.filestackcontent.com/HEtdeV7eStSSHQkkczeP",
    "has_restrooms": true,
    "has_water": true,
    "nets_provided": true,
    "skill_levels": "advanced,beginner,intermediate",
    "court_type": "dedicated",
    "has_parking": true
  },
  {
    "county_slug": "san-diego",
    "state": "CA",
    "verified": false,
    "name": "Westwood Club",
    "description": "Westwood Club is one of the most popular places to play pickleball in San Diego, CA. There are 5 outdoor asphalt courts. The lines are permanent, and portable nets are available. The courts can be reserved. A membership is required to play. Players have access to food, locker rooms, restrooms, water, lights, and trainers or lessons.",
    "address": "17394 W Bernardo Dr",
    "city": "San Diego",
    "latitude": 33.028381,
    "longitude": -117.083527,
    "indoor": false,
    "lighted": true,
    "num_courts": 5,
    "surface_type": "Asphalt",
    "fees": "Members only — Must live in Westwood Community and pay the HOA to get access to the club; however, guests are allowed to join Members to play.",
    "phone": "+18584856300",
    "website": "http://www.rbwestwoodclub.com/index.php/sites/pickle-ball",
    "photo_url": "https://cdn.filestackcontent.com/Lj3YyUrSQjS74XgkEBao",
    "has_restrooms": true,
    "has_water": true,
    "nets_provided": true,
    "skill_levels": "advanced,beginner,intermediate",
    "court_type": "dedicated",
    "hours": "8am-9pm"
  },
  {
    "county_slug": "san-diego",
    "state": "CA",
    "verified": false,
    "name": "Woodland Park Tennis Center",
    "description": "The school located next door uses the courts till 4 on the weekdays.",
    "address": "846 Quiet Hills Dr",
    "city": "San Marcos",
    "latitude": 33.151889,
    "longitude": -117.127425,
    "indoor": false,
    "num_courts": 6,
    "surface_type": "Concrete",
    "fees": "Free",
    "photo_url": "https://cdn.filestackcontent.com/c6kp69ETnOxjoQ2L38nW",
    "has_restrooms": true,
    "nets_provided": false,
    "skill_levels": "intermediate",
    "court_type": "dedicated"
  },
  {
    "county_slug": "san-diego",
    "state": "CA",
    "verified": false,
    "name": "YMCA Mission Valley",
    "description": "YMCA Mission Valley is a place to play pickleball in San Diego, CA. There are 3 indoor wood courts. The lines are permanent, and portable nets are available. The facility includes amenities like food, restrooms, water, and locker rooms. Reservations are not available. A membership is required to play.",
    "address": "5505 Friars Rd",
    "city": "San Diego",
    "zip_code": "92110",
    "latitude": 32.763861,
    "longitude": -117.192272,
    "indoor": true,
    "num_courts": 3,
    "surface_type": "Wood",
    "fees": "Members only",
    "phone": "6192983576",
    "website": "https://www.ymcasd.org/locations/mission-valley-ymca",
    "photo_url": "https://cdn.filestackcontent.com/3e5yWLbsSjCJDgaGMTVr",
    "has_restrooms": true,
    "has_water": true,
    "nets_provided": true,
    "skill_levels": "advanced,intermediate",
    "court_type": "dedicated"
  }
]