[
  {
    "county_slug": "san-joaquin",
    "state": "CA",
    "verified": false,
    "name": "American Legion Park",
    "description": "American Legion Park is a place to play pickleball in Lodi, CA. There are 6 outdoor hard courts. These are dedicated courts with permanent lines and nets. Players have access to restrooms and lights. The courts are free.",
    "address": "835 S Hutchins St",
    "city": "Lodi",
    "zip_code": "95240",
    "latitude": 38.123525,
    "longitude": -121.279875,
    "indoor": false,
    "lighted": true,
    "num_courts": 6,
    "surface_type": "Hard",
    "fees": "Free",
    "phone": "2093336742",
    "photo_url": "https://cdn.filestackcontent.com/HhhNg5tsT7umnbI1qC7e",
    "has_restrooms": true,
    "nets_provided": true,
    "skill_levels": "advanced,intermediate",
    "court_type": "dedicated"
  },
  {
    "county_slug": "san-joaquin",
    "state": "CA",
    "verified": false,
    "name": "Central Park Tennis Courts",
    "description": "Central Park Tennis Courts is one of the most popular places to play pickleball in Mountain House, CA. There are 2 outdoor hard courts. These are dedicated courts with permanent lines and nets. A one-time fee is required to play. Reservations are available.",
    "address": "251 East Main Street",
    "city": "Mountain House",
    "latitude": 37.779284,
    "longitude": -121.539825,
    "indoor": false,
    "num_courts": 2,
    "surface_type": "Hard",
    "fees": "Fee required",
    "phone": "+12098312300",
    "website": "https://www.mountainhouseca.gov/departments/parks-and-recreation/tennis-courts",
    "photo_url": "https://cdn.filestackcontent.com/TYrq64PgScqqFhNrF4j9",
    "nets_provided": true,
    "skill_levels": "beginner,intermediate",
    "court_type": "dedicated",
    "hours": "Saturday, 8 am to Sunset during non-school hours (summer, winter breaks). Pickleball Comes to Mountain House! Mountain House is excited to join the growing pickleball community here in Mountain House; the fastest growing sport in the U.S. The courts will be painted Friday, April 11 and will be open for walk-on play beginning Monday, April 14! Two pickleball courts are available at the Central Park Tennis Courts, on Court 3 only, Monday through Friday, 8 am"
  },
  {
    "county_slug": "san-joaquin",
    "state": "CA",
    "verified": false,
    "name": "Fritz Grupe Park",
    "description": "Fritz Grupe Park is a place to play pickleball in Stockton, CA. There are 4 outdoor asphalt courts. The lines are permanent, but you'll need to bring your own net. Amenities include restrooms and water. The courts are free.",
    "address": "5818 Cumberland Pl",
    "city": "Stockton",
    "zip_code": "95219",
    "latitude": 37.996926,
    "longitude": -121.355847,
    "indoor": false,
    "num_courts": 4,
    "surface_type": "Asphalt",
    "fees": "Free",
    "phone": "5417408787",
    "photo_url": "https://cdn.filestackcontent.com/v6I0HBrpTcaxSmKHbLFg",
    "has_restrooms": true,
    "has_water": true,
    "nets_provided": false,
    "skill_levels": "beginner,intermediate",
    "court_type": "dedicated"
  },
  {
    "county_slug": "san-joaquin",
    "state": "CA",
    "verified": false,
    "name": "In-Shape Health Club - Tracy",
    "description": "In-Shape Health Club - Tracy is a place to play pickleball in Tracy, CA. There are 4 outdoor concrete courts. The lines are permanent, but you'll need to bring your own net. A membership is required to play. Players have access to restrooms.",
    "address": "101 S Tracy Blvd",
    "city": "Tracy",
    "zip_code": "95376",
    "latitude": 37.731072,
    "longitude": -121.435805,
    "indoor": false,
    "num_courts": 4,
    "surface_type": "Concrete",
    "fees": "Members only",
    "phone": "2098362504",
    "website": "https://www.inshape.com/gyms/tracy-blvd-california-95376/",
    "photo_url": "https://cdn.filestackcontent.com/6ZxAY6USFutzR9AVilEg",
    "has_restrooms": true,
    "nets_provided": false,
    "skill_levels": "beginner,intermediate",
    "court_type": "dedicated"
  },
  {
    "county_slug": "san-joaquin",
    "state": "CA",
    "verified": false,
    "name": "In-Shape Stockton West Lane",
    "description": "In-Shape Stockton West Lane is one of the most popular places to play pickleball in Stockton, CA. There are 22 hard courts. 12 are outdoors and 10 are indoors. These are dedicated courts with permanent lines and nets. A membership is required to play. Players have access to restrooms, water, and lights.",
    "address": "1074 E Bianchi Rd",
    "city": "Stockton",
    "zip_code": "95210",
    "latitude": 37.994373,
    "longitude": -121.290956,
    "indoor": false,
    "lighted": true,
    "num_courts": 22,
    "surface_type": "Hard",
    "fees": "Members only",
    "phone": "2094722100",
    "website": "https://www.inshape.com/gyms/stockton-west-lane-california-95210?utm_source=Yext&utm_medium=Listing&utm_campaign=GOOGLE",
    "photo_url": "https://cdn.filestackcontent.com/6n3grvjUQSiskh9nxYDI",
    "has_restrooms": true,
    "has_water": true,
    "nets_provided": true,
    "skill_levels": "beginner,intermediate",
    "court_type": "dedicated"
  },
  {
    "county_slug": "san-joaquin",
    "state": "CA",
    "verified": false,
    "name": "Kofu Park",
    "description": "Kofu Park is one of the most popular places to play pickleball in Lodi, CA. There are 4 outdoor hard courts. The lines are permanent, but you'll need to bring your own net. Amenities include lights. The courts are free.",
    "address": "1145 S Ham Ln",
    "city": "Lodi",
    "zip_code": "95242",
    "latitude": 38.120133,
    "longitude": -121.287976,
    "indoor": false,
    "lighted": true,
    "num_courts": 4,
    "surface_type": "Hard",
    "fees": "Free",
    "phone": "2093336742",
    "website": "http://www.lodi.gov/",
    "photo_url": "https://cdn.filestackcontent.com/pOSQTeQCQK6WSK6B6ruS",
    "nets_provided": false,
    "skill_levels": "advanced,beginner,intermediate",
    "court_type": "dedicated"
  },
  {
    "county_slug": "san-joaquin",
    "state": "CA",
    "verified": false,
    "name": "Lathrop Generations Center",
    "description": "Lathrop Generations Center is one of the most popular places to play pickleball in Lathrop, CA. There are 2 outdoor hard and concrete courts. These are dedicated courts with permanent lines and nets. The courts are free.",
    "address": "530 Albany St",
    "city": "Lathrop",
    "latitude": 37.825361,
    "longitude": -121.3009,
    "indoor": false,
    "num_courts": 2,
    "surface_type": "Hard, Concrete",
    "fees": "Free",
    "website": "https://www.ci.lathrop.ca.us/parksrec/page/lathrop-generations-center",
    "photo_url": "https://cdn.filestackcontent.com/B8K74q3R06evCx1pdYgG",
    "nets_provided": true,
    "skill_levels": "beginner,intermediate",
    "court_type": "dedicated"
  },
  {
    "county_slug": "san-joaquin",
    "state": "CA",
    "verified": false,
    "name": "Manteca Public Tennis Courts at Center ST",
    "description": "Manteca Public Tennis Courts at Center ST is one of the most popular places to play pickleball in Manteca, CA. There are 2 outdoor concrete courts. The lines are overlaid on a tennis court, so the net is a little taller than a normal pickleball net. The courts are free.",
    "address": "311 West Center Street",
    "city": "Manteca",
    "latitude": 37.799428,
    "longitude": -121.219798,
    "indoor": false,
    "num_courts": 2,
    "surface_type": "Concrete",
    "fees": "Free",
    "photo_url": "https://cdn.filestackcontent.com/RNMcuxTERgaafM34ba5q",
    "skill_levels": "beginner,intermediate",
    "court_type": "dedicated"
  },
  {
    "county_slug": "san-joaquin",
    "state": "CA",
    "verified": false,
    "name": "Manteca Tennis Courts at GolfCourse",
    "description": "Manteca Tennis Courts at GolfCourse is a place to play pickleball in Manteca, CA. There are 6 outdoor concrete courts. The lines are overlaid on a tennis court, so the net is a little taller than a normal pickleball net. The courts are free. Players have access to lights.",
    "address": "305 N Union Rd",
    "city": "Manteca",
    "latitude": 37.801487,
    "longitude": -121.237531,
    "indoor": false,
    "lighted": true,
    "num_courts": 6,
    "surface_type": "Concrete",
    "fees": "Free",
    "photo_url": "https://cdn.filestackcontent.com/ezCeV73gS7awI2NKcPiY",
    "skill_levels": "beginner,intermediate",
    "court_type": "dedicated"
  },
  {
    "county_slug": "san-joaquin",
    "state": "CA",
    "verified": false,
    "name": "Marina Tennis Club",
    "description": "Come play pickleball at Marina Tennis Club in Stockton, CA! There are 2 outdoor hard courts. The lines are permanent, but you'll need to bring your own net. A membership is required to play. The facility includes amenities like restrooms, water, and lights.",
    "address": "6545 Embarcadero Dr",
    "city": "Stockton",
    "zip_code": "95219",
    "latitude": 38.001245,
    "longitude": -121.367796,
    "indoor": false,
    "lighted": true,
    "num_courts": 2,
    "surface_type": "Hard",
    "fees": "Members only",
    "phone": "2094722111",
    "website": "https://www.inshape.com/gyms/stockton-marina-california-95219",
    "photo_url": "https://cdn.filestackcontent.com/7pgWSbhyTcaHhadT6bZz",
    "has_restrooms": true,
    "has_water": true,
    "nets_provided": false,
    "skill_levels": "beginner,intermediate",
    "court_type": "dedicated"
  },
  {
    "county_slug": "san-joaquin",
    "state": "CA",
    "verified": false,
    "name": "Oak Park Senior Center",
    "description": "Oak Park Senior Center is a place to play pickleball in Stockton, CA. The court surface is wood. Youâ€™ll have to create your own lines and bring your own net. The courts are free. Amenities include restrooms.",
    "address": "730 E Fulton St",
    "city": "Stockton",
    "zip_code": "95204",
    "latitude": 37.985162,
    "longitude": -121.291885,
    "indoor": false,
    "surface_type": "Wood",
    "fees": "Free",
    "phone": "2099377777",
    "photo_url": "https://cdn.filestackcontent.com/Uc9quWGFSK23sPBTv98t",
    "has_restrooms": true,
    "nets_provided": false,
    "skill_levels": "beginner,intermediate",
    "court_type": "shared"
  },
  {
    "county_slug": "san-joaquin",
    "state": "CA",
    "verified": false,
    "name": "Ripon Community Tennis Courts",
    "description": "Come play pickleball at Ripon Community Tennis Courts in Ripon, CA! There are 8 outdoor hard courts. The lines are permanent, but you'll need to bring your own net. The courts are free. Amenities include restrooms, water, and lights.",
    "address": "687 S Locust Ave",
    "city": "Ripon",
    "latitude": 37.734231,
    "longitude": -121.126543,
    "indoor": false,
    "lighted": true,
    "num_courts": 8,
    "surface_type": "Hard",
    "fees": "Free",
    "phone": "2093275122",
    "website": "http://www.cityofripon.org/",
    "photo_url": "https://cdn.filestackcontent.com/gwl1N45XTBaJFL4IWFke",
    "has_restrooms": true,
    "has_water": true,
    "nets_provided": false,
    "skill_levels": "beginner,intermediate",
    "court_type": "dedicated",
    "hours": "Tuesday - Friday: 8:00 am to 6:00 pm"
  },
  {
    "county_slug": "san-joaquin",
    "state": "CA",
    "verified": false,
    "name": "Stribley Community Center",
    "description": "Stribley Community Center is one of the most popular places to play pickleball in Stockton, CA. There is 1 indoor wood court. The lines are permanent, but you'll need to bring your own net. Players have access to restrooms. A one-time fee is required to play.",
    "address": "1760 E Sonora St",
    "city": "Stockton",
    "zip_code": "95205",
    "latitude": 37.952253,
    "longitude": -121.266281,
    "indoor": true,
    "num_courts": 1,
    "surface_type": "Wood",
    "fees": "Fee required",
    "phone": "2099375544",
    "website": "http://www.stocktonca.gov/government/departments/communityServices/communityCenters.html",
    "photo_url": "https://cdn.filestackcontent.com/yQiwrRaVSKWRdbZNU7Pj",
    "has_restrooms": true,
    "nets_provided": false,
    "skill_levels": "beginner,intermediate",
    "court_type": "dedicated",
    "has_parking": true
  },
  {
    "county_slug": "san-joaquin",
    "state": "CA",
    "verified": false,
    "name": "University of Pacific",
    "description": "University of Pacific is one of the most popular places to play pickleball in Stockton, CA. There are 8 outdoor concrete courts. These are dedicated courts with permanent lines and nets. Amenities include lights. The courts are free.",
    "address": "1178 Larry Heller Dr",
    "city": "Stockton",
    "latitude": 37.975303,
    "longitude": -121.315917,
    "indoor": false,
    "lighted": true,
    "num_courts": 8,
    "surface_type": "Concrete",
    "fees": "Free",
    "website": "https://pacificrec.pacific.edu/facility/GetFacility?facilityId=bf1b6e5a-282c-4bec-9ddd-bcb151809cf9",
    "photo_url": "https://cdn.filestackcontent.com/eGc6TALSq2APseNC9KRj",
    "nets_provided": true,
    "skill_levels": "beginner,intermediate",
    "court_type": "dedicated",
    "hours": "6am-8am",
    "has_parking": true
  },
  {
    "county_slug": "san-joaquin",
    "state": "CA",
    "verified": false,
    "name": "Western Park",
    "description": "Western Park is a place to play pickleball in Tracy, CA. There are 2 outdoor concrete courts. These are dedicated courts with permanent lines and nets. The courts cannot be reserved. The courts are free. Amenities include water.",
    "address": "2880 Ellis Town Dr",
    "city": "Tracy",
    "latitude": 37.739582,
    "longitude": -121.426002,
    "indoor": false,
    "num_courts": 2,
    "surface_type": "Concrete",
    "fees": "Free",
    "phone": "+12098316200",
    "photo_url": "https://cdn.filestackcontent.com/SCAAVhu1RFagLXO8NEOQ",
    "has_water": true,
    "nets_provided": true,
    "skill_levels": "beginner,intermediate",
    "court_type": "dedicated"
  }
]