[
  {
    "county_slug": "san-francisco",
    "state": "CA",
    "verified": false,
    "name": "Alta Plaza Park",
    "description": "Alta Plaza Park is one of the most popular places to play pickleball in San Francisco, CA. There are 2 outdoor concrete courts. The lines are permanent, and portable nets are available. The courts are free. The facility includes amenities like restrooms and water.",
    "address": "2501-2599 Jackson St",
    "city": "San Francisco",
    "latitude": 37.791173,
    "longitude": -122.43767,
    "indoor": false,
    "num_courts": 2,
    "surface_type": "Concrete",
    "fees": "Free",
    "phone": "+14158312700",
    "website": "https://sfrecpark.org/Facilities/Facility/Details/Alta-Plaza-Park-147",
    "email": "rpdinfo@sfgov.org",
    "photo_url": "https://cdn.filestackcontent.com/rptd2I46R6um0uFcHAuG",
    "has_restrooms": true,
    "has_water": true,
    "nets_provided": true,
    "skill_levels": "beginner,intermediate",
    "court_type": "dedicated",
    "has_parking": true,
    "wheelchair_accessible": true
  },
  {
    "county_slug": "san-francisco",
    "state": "CA",
    "verified": false,
    "name": "Angelo J. Rossi Playground",
    "description": "Angelo J. Rossi Playground is one of the most popular places to play pickleball in San Francisco, CA. There are 9 outdoor hard and asphalt courts. The lines are permanent, and portable nets are available. The courts are free. Amenities include restrooms and water. You can reserve the courts.",
    "address": "600 Arguello Blvd",
    "city": "San Francisco",
    "latitude": 37.77909,
    "longitude": -122.458268,
    "indoor": false,
    "num_courts": 9,
    "surface_type": "Hard, Asphalt",
    "fees": "Free",
    "phone": "(415) 666-7014",
    "website": "https://sfrecpark.org/Facilities/Facility/Details/Angelo-J-Rossi-Playground-229",
    "photo_url": "https://cdn.filestackcontent.com/nnzxZ8ouTNexefZRNZic",
    "has_restrooms": true,
    "has_water": true,
    "nets_provided": true,
    "skill_levels": "advanced,beginner,intermediate",
    "court_type": "dedicated",
    "has_parking": true
  },
  {
    "county_slug": "san-francisco",
    "state": "CA",
    "verified": false,
    "name": "Bay Club Gateway",
    "description": "Bay Club Gateway is a place to play pickleball in San Francisco, CA. There are 6 outdoor hard courts. These are dedicated courts with permanent lines and nets. Amenities include locker rooms, restrooms, water, and lights. A membership is required to play.",
    "address": "370 Drumm St",
    "city": "San Francisco",
    "latitude": 37.797259,
    "longitude": -122.396934,
    "indoor": false,
    "lighted": true,
    "num_courts": 6,
    "surface_type": "Hard",
    "fees": "Members only",
    "phone": "+14156168800",
    "website": "https://www.bayclubs.com/thegateway/",
    "email": "info.bcg@bayclubs.com",
    "photo_url": "https://cdn.filestackcontent.com/YV8IxJivRUCJZSRVF3pi",
    "has_restrooms": true,
    "has_water": true,
    "nets_provided": true,
    "skill_levels": "beginner,intermediate",
    "court_type": "dedicated"
  },
  {
    "county_slug": "san-francisco",
    "state": "CA",
    "verified": false,
    "name": "Bay Padel Dogpatch Indoor Padel and Pickleball Courts in San Francisco",
    "description": "Bay Padel is San Francisco’s premier indoor padel and pickleball club, offering an unmatched experience for players of all levels. Our facility boasts state-of-the-art indoor courts, providing the perfect environment for year-round play regardless of the weather. With a team of dedicated and knowledgeable instructors, Bay Padel ensures every member can elevate their skills in a supportive and dynamic setting. Beyond just a place to play, we pride ourselves on fostering a welcoming community where members connect, compete, and enjoy the vibrant social scene that padel and pickleball bring. Come join us at Bay Padel and experience the best in indoor racquet sports in San Francisco!",
    "address": "1070 Maryland St",
    "city": "San Francisco",
    "latitude": 37.758669,
    "longitude": -122.383913,
    "indoor": true,
    "lighted": true,
    "num_courts": 1,
    "surface_type": "Concrete",
    "fees": "Members only — Members play free, non-members pay a one-time free",
    "phone": "+16285028969",
    "website": "https://baypadel.us/dogpatch-san-francisco/",
    "email": "info@baypadel.us",
    "photo_url": "https://cdn.filestackcontent.com/KyTaozhyRvGVzTFSkjkS",
    "has_restrooms": true,
    "has_water": true,
    "has_pro_shop": true,
    "nets_provided": true,
    "skill_levels": "beginner,intermediate",
    "court_type": "dedicated",
    "hours": "Friday 7am – 11pm",
    "has_parking": true
  },
  {
    "county_slug": "san-francisco",
    "state": "CA",
    "verified": false,
    "name": "Bay Padel Indoor Padel and Pickleball Courts in San Francisco",
    "description": "Bay Padel is San Francisco’s premier indoor padel and pickleball club, offering an unmatched experience for players of all levels. Our facility boasts state-of-the-art indoor courts, providing the perfect environment for year-round play regardless of the weather. With a team of dedicated and knowledgeable instructors, Bay Padel ensures every member can elevate their skills in a supportive and dynamic setting. Beyond just a place to play, we pride ourselves on fostering a welcoming community where members connect, compete, and enjoy the vibrant social scene that padel and pickleball bring. Come join us at Bay Padel and experience the best in indoor racquet sports in San Francisco!",
    "address": "29 Avenue G",
    "city": "San Francisco",
    "latitude": 37.818438,
    "longitude": -122.367008,
    "indoor": true,
    "lighted": true,
    "num_courts": 4,
    "surface_type": "Concrete",
    "fees": "Fee required — Members can reserve courts for free, non-members can pay a daily rate",
    "phone": "+14157258871",
    "website": "https://www.baypadel.us",
    "email": "info@baypadel.us",
    "photo_url": "https://cdn.filestackcontent.com/jXBjrrnCQueYfm4dQt0U",
    "has_restrooms": true,
    "has_water": true,
    "has_pro_shop": true,
    "nets_provided": true,
    "skill_levels": "advanced,beginner,intermediate",
    "court_type": "dedicated"
  },
  {
    "county_slug": "san-francisco",
    "state": "CA",
    "verified": false,
    "name": "Buena Vista Park",
    "description": "Buena Vista Park is a place to play pickleball in San Francisco, CA. There are 4 outdoor hard courts. The lines are permanent, but you'll need to bring your own net. The courts are free. You can reserve the courts.",
    "address": "118 Buena Vista Ave E",
    "city": "San Francisco",
    "zip_code": "94117",
    "latitude": 37.76665,
    "longitude": -122.43851,
    "indoor": false,
    "num_courts": 4,
    "surface_type": "Hard",
    "fees": "Free",
    "phone": "+14158315500",
    "website": "http://www.sfgov.org/",
    "photo_url": "https://cdn.filestackcontent.com/0HSc6NQqKYDxKmRVJRyg",
    "nets_provided": false,
    "skill_levels": "beginner,intermediate",
    "court_type": "dedicated",
    "has_parking": true
  },
  {
    "county_slug": "san-francisco",
    "state": "CA",
    "verified": false,
    "name": "Carl Larsen Playground",
    "description": "Carl Larsen Playground is one of the most popular places to play pickleball in San Francisco, CA. There are 8 outdoor hard courts. These are dedicated courts with permanent lines and nets. You can’t reserve the courts. The courts are free. Players have access to restrooms, water, and wheelchair accessibility.",
    "address": "2570 20th Ave",
    "city": "San Francisco",
    "zip_code": "94116",
    "latitude": 37.739818,
    "longitude": -122.476399,
    "indoor": false,
    "num_courts": 8,
    "surface_type": "Hard",
    "fees": "Free",
    "website": "http://www.sfgov.org/",
    "photo_url": "https://cdn.filestackcontent.com/PKiAqd1ESEGAO2f7ZJPU",
    "has_restrooms": true,
    "has_water": true,
    "wheelchair_accessible": true,
    "nets_provided": true,
    "skill_levels": "advanced,intermediate",
    "court_type": "dedicated",
    "has_parking": true
  },
  {
    "county_slug": "san-francisco",
    "state": "CA",
    "verified": false,
    "name": "Church of Pickleball",
    "description": "Come play pickleball at Church of Pickleball in San Francisco, CA! There are 4 indoor hard courts. The lines are permanent, and portable nets are available. Players have access to lights, trainers or lessons, food, restrooms, and water. A one-time fee is required to play.",
    "address": "554 Fillmore St",
    "city": "San Francisco",
    "latitude": 37.774705,
    "longitude": -122.430552,
    "indoor": true,
    "lighted": true,
    "num_courts": 4,
    "surface_type": "Hard",
    "fees": "Fee required — https://www.dinksf.com",
    "phone": "415-818-1339",
    "website": "https://www.dinksf.com",
    "email": "connect@dinksf.com",
    "photo_url": "https://cdn.filestackcontent.com/TKbna2VDT8GUHLsaZgUx",
    "has_restrooms": true,
    "has_water": true,
    "nets_provided": true,
    "skill_levels": "beginner,intermediate",
    "court_type": "dedicated"
  },
  {
    "county_slug": "san-francisco",
    "state": "CA",
    "verified": false,
    "name": "Crocker Amazon Park",
    "description": "Crocker Amazon Park is one of the most popular places to play pickleball in San Francisco, CA. There are 4 outdoor hard courts. These are dedicated courts with permanent lines and nets. The courts can be reserved. The courts are free.",
    "address": "931 Moscow St",
    "city": "San Francisco",
    "zip_code": "94112",
    "latitude": 37.713521,
    "longitude": -122.433158,
    "indoor": false,
    "num_courts": 4,
    "surface_type": "Hard",
    "fees": "Free",
    "phone": "4153374708",
    "website": "https://sfrecpark.org/",
    "photo_url": "https://cdn.filestackcontent.com/9jnckMZmShqaToyCfxTm",
    "nets_provided": true,
    "skill_levels": "beginner",
    "court_type": "dedicated",
    "has_parking": true,
    "has_restrooms": true
  },
  {
    "county_slug": "san-francisco",
    "state": "CA",
    "verified": false,
    "name": "Eureka Valley Rec Center",
    "description": "Come play pickleball at Eureka Valley Rec Center in San Francisco, CA! There are 3 indoor wood courts. The lines are permanent, and portable nets are available. The courts are free. Amenities include restrooms.",
    "address": "100 Collingwood St",
    "city": "San Francisco",
    "zip_code": "94114",
    "latitude": 37.76048,
    "longitude": -122.436243,
    "indoor": true,
    "num_courts": 3,
    "surface_type": "Wood",
    "fees": "Free",
    "phone": "(415) 831-6810",
    "website": "https://sfrecpark.org/688/Eureka-Valley-Recreation-Center",
    "photo_url": "https://cdn.filestackcontent.com/qynhE1SzRMyREtOgE6Hi",
    "has_restrooms": true,
    "nets_provided": true,
    "skill_levels": "beginner,intermediate",
    "court_type": "dedicated"
  },
  {
    "county_slug": "san-francisco",
    "state": "CA",
    "verified": false,
    "name": "George Christopher Playground Park",
    "description": "George Christopher Playground Park is a place to play pickleball in San Francisco, CA. There are 2 outdoor hard courts. The lines are permanent, but you'll need to bring your own net. The courts are free. The courts cannot be reserved.",
    "address": "354 Amber Dr",
    "city": "San Francisco",
    "zip_code": "94131",
    "latitude": 37.744204,
    "longitude": -122.442548,
    "indoor": false,
    "num_courts": 2,
    "surface_type": "Hard",
    "fees": "Free",
    "phone": "4156955000",
    "website": "http://www.sfgov.org/",
    "photo_url": "https://cdn.filestackcontent.com/NAUHaVo6SMeeSFMpbJer",
    "nets_provided": false,
    "skill_levels": "intermediate",
    "court_type": "dedicated",
    "has_parking": true
  },
  {
    "county_slug": "san-francisco",
    "state": "CA",
    "verified": false,
    "name": "Glen Park Recreation Center",
    "description": "Glen Park Recreation Center is one of the most popular places to play pickleball in San Francisco, CA. There are 3 indoor wood courts. The lines are permanent, and portable nets are available. Players have access to lights. The courts are free. Reservations are available.",
    "address": "70 Elk St",
    "city": "San Francisco",
    "zip_code": "94131",
    "latitude": 37.73619,
    "longitude": -122.440031,
    "indoor": true,
    "lighted": true,
    "num_courts": 3,
    "surface_type": "Wood",
    "fees": "Free",
    "phone": "(415) 239-4007",
    "website": "http://sfrecpark.org/Facilities/Facility/Details/Glen-Park-Rec-Center-89",
    "photo_url": "https://cdn.filestackcontent.com/zXLp9EvRr2gsTLVYcokT",
    "nets_provided": true,
    "skill_levels": "beginner,intermediate",
    "court_type": "dedicated",
    "hours": "10 AM to 8 PM",
    "has_restrooms": true,
    "wheelchair_accessible": true
  },
  {
    "county_slug": "san-francisco",
    "state": "CA",
    "verified": false,
    "name": "Hamilton Recreation Center",
    "description": "Hamilton Recreation Center is a place to play pickleball in San Francisco, CA. There are 3 indoor hard courts. The lines are permanent, and portable nets are available. The facility includes amenities like restrooms, water, and wheelchair accessibility. You can reserve the courts. The courts are free.",
    "address": "1900 Geary Blvd",
    "city": "San Francisco",
    "zip_code": "94115",
    "latitude": 37.784393,
    "longitude": -122.435069,
    "indoor": true,
    "num_courts": 3,
    "surface_type": "Hard",
    "fees": "Free",
    "phone": "(415) 292-2111",
    "website": "https://sfrecpark.org/692/Hamilton-Recreation-Center",
    "email": "tara.peakes@sfgov.org",
    "photo_url": "https://cdn.filestackcontent.com/fRtg8zyRSe9emyEOW1DQ",
    "has_restrooms": true,
    "has_water": true,
    "wheelchair_accessible": true,
    "nets_provided": true,
    "skill_levels": "beginner,intermediate",
    "court_type": "dedicated",
    "has_parking": true
  },
  {
    "county_slug": "san-francisco",
    "state": "CA",
    "verified": false,
    "name": "Lisa & Douglas Goldman Tennis Center",
    "description": "Lisa & Douglas Goldman Tennis Center is a place to play pickleball in San Francisco, CA. There are 5 outdoor asphalt courts. These are dedicated courts with permanent lines and nets. Players have access to food, restrooms, water, wheelchair accessibility, and lights. A one-time fee is required to play. You can reserve the courts.",
    "address": "Bowling Green Dr",
    "city": "San Francisco",
    "zip_code": "94122",
    "latitude": 37.770639,
    "longitude": -122.458943,
    "indoor": false,
    "lighted": true,
    "num_courts": 5,
    "surface_type": "Asphalt",
    "fees": "Fee required — $10 per hour for residents / $16 for non-residents",
    "phone": "(415) 581-2540",
    "website": "https://www.lifetimeactivities.com/san-francisco/",
    "email": "goldmantc@lifetimeactivities.com",
    "photo_url": "https://cdn.filestackcontent.com/cscu3sP1S6u9xnkxS1tq",
    "has_restrooms": true,
    "has_water": true,
    "wheelchair_accessible": true,
    "nets_provided": true,
    "skill_levels": "advanced,intermediate",
    "court_type": "dedicated",
    "hours": "7am-10pm daily Follow us on Instagram #LifeTimeActivities #LifeTimeActivities FAQ RESERVATIONS & POLICIES Registrations & Refunds Inclement Weather Policies Privacy Policy Contact JOB OPPORTUNITIES Nancy Pelosi Dr & Bowling Green Dr, San Francisco, CA 94122 T 415-581-2540 MAP follow us Join us at any of our 6 Bay Area Locations for a lifetime of training and fun! register now Search",
    "has_parking": true,
    "has_pro_shop": true,
    "has_ball_machine": true
  },
  {
    "county_slug": "san-francisco",
    "state": "CA",
    "verified": false,
    "name": "Louis Sutter Playground",
    "description": "Louis Sutter Playground is a place to play pickleball in San Francisco, CA. There are 6 outdoor hard courts. These are dedicated courts with permanent lines and nets. The courts are free. The facility includes amenities like restrooms, water, and wheelchair accessibility. You can’t reserve the courts.",
    "address": "614 University St",
    "city": "San Francisco",
    "zip_code": "94134",
    "latitude": 37.722307,
    "longitude": -122.413376,
    "indoor": false,
    "num_courts": 6,
    "surface_type": "Hard",
    "fees": "Free",
    "phone": "(415) 307-4074",
    "website": "https://sfrecpark.org/Facilities/Facility/Details/Louis-Sutter-Playground-254",
    "photo_url": "https://cdn.filestackcontent.com/WR5X9wpTRPCgaXuIeNIV",
    "has_restrooms": true,
    "has_water": true,
    "wheelchair_accessible": true,
    "nets_provided": true,
    "skill_levels": "intermediate",
    "court_type": "dedicated",
    "has_parking": true
  },
  {
    "county_slug": "san-francisco",
    "state": "CA",
    "verified": false,
    "name": "Minnie & Lovie Ward Recreational Center",
    "description": "Come play pickleball at Minnie & Lovie Ward Recreational Center in San Francisco, CA! There are 4 indoor wood courts. The lines are permanent, and portable nets are available. The courts are free.",
    "address": "650 Capitol Ave",
    "city": "San Francisco",
    "latitude": 37.716123,
    "longitude": -122.457406,
    "indoor": true,
    "num_courts": 4,
    "surface_type": "Wood",
    "fees": "Free",
    "phone": "(415) 337-4710",
    "website": "https://sfrecpark.org/963/Minnie-and-Lovie-Ward-Rec-Center---Gymna",
    "photo_url": "https://cdn.filestackcontent.com/oiSIfLJfT2adXcHynXHS",
    "nets_provided": true,
    "skill_levels": "beginner,intermediate",
    "court_type": "dedicated",
    "has_parking": true,
    "has_restrooms": true
  },
  {
    "county_slug": "san-francisco",
    "state": "CA",
    "verified": false,
    "name": "Mission Bay",
    "description": "Come play pickleball at Mission Bay in San Francisco, CA! There is 1 outdoor hard court. The lines are permanent, but you'll need to bring your own net. The court is free. The facility includes amenities like lights.",
    "address": "451 Berry St",
    "city": "San Francisco",
    "zip_code": "94158",
    "latitude": 37.771499,
    "longitude": -122.398001,
    "indoor": false,
    "lighted": true,
    "num_courts": 1,
    "surface_type": "Hard",
    "fees": "Free",
    "phone": "+14155439063",
    "website": "https://missionbayparks.com/",
    "photo_url": "https://cdn.filestackcontent.com/Y30sdt6KS2Khu9pOYJhA",
    "nets_provided": false,
    "skill_levels": "beginner,intermediate",
    "court_type": "dedicated"
  },
  {
    "county_slug": "san-francisco",
    "state": "CA",
    "verified": false,
    "name": "Moscone Park Playground",
    "description": "Moscone Park Playground is a place to play pickleball in San Francisco, CA. There are 7 wood and hard courts. 1 is indoors and 6 are outdoors. The lines are permanent, and portable nets are available. The courts are free. You can reserve the courts. The facility includes amenities like restrooms.",
    "address": "1800 Chestnut Street",
    "city": "San Francisco",
    "latitude": 37.801452,
    "longitude": -122.432826,
    "indoor": false,
    "num_courts": 7,
    "surface_type": "Wood, Hard",
    "fees": "Free",
    "phone": "4152922045",
    "website": "https://sfrecpark.org/Facilities/Facility/Details/Moscone-Rec-Center-101",
    "email": "Ross.Teter@sfgov.org",
    "photo_url": "https://cdn.filestackcontent.com/kgHQ1aqjS36HWBP6Vfkq",
    "has_restrooms": true,
    "nets_provided": true,
    "skill_levels": "beginner,intermediate",
    "court_type": "dedicated",
    "has_parking": true
  },
  {
    "county_slug": "san-francisco",
    "state": "CA",
    "verified": false,
    "name": "Palace of Fine Arts",
    "description": "Pickleball players can reserve 90-minute spots, from 9:30 to 11 a.m., Tuesday through Sunday through the San Francisco Recreation and Park Department’s tennis and pickleball free online reservation system.",
    "address": "3601 Lyon Street",
    "city": "San Francisco",
    "latitude": 37.802903,
    "longitude": -122.44836,
    "indoor": true,
    "num_courts": 3,
    "phone": "+14157938272",
    "website": "https://sfrecpark.org/Facilities/Facility/Details/Palace-of-Fine-Arts-423",
    "email": "Mdeguzman713@gmail.com",
    "photo_url": "https://cdn.filestackcontent.com/rjyeUX7MQr04JEggU0MD",
    "nets_provided": true,
    "skill_levels": "beginner,intermediate",
    "court_type": "dedicated",
    "has_parking": true,
    "has_restrooms": true
  },
  {
    "county_slug": "san-francisco",
    "state": "CA",
    "verified": false,
    "name": "Parkside Square & Bob Cheney Field",
    "description": "Parkside Square & Bob Cheney Field is a place to play pickleball in San Francisco, CA. There are 8 outdoor courts. The lines are permanent, but you'll need to bring your own net. Reservations are available. The courts are free.",
    "address": "2680 28th Ave",
    "city": "San Francisco",
    "zip_code": "94116",
    "latitude": 37.738342,
    "longitude": -122.483771,
    "indoor": false,
    "num_courts": 8,
    "fees": "Free",
    "phone": "+14156213260",
    "website": "https://sfrecpark.org/Facilities/Facility/Details/Parkside-Square-196",
    "photo_url": "https://cdn.filestackcontent.com/liRrgOgZRcaFrWSpGb66",
    "nets_provided": false,
    "skill_levels": "beginner,intermediate",
    "court_type": "dedicated",
    "has_parking": true,
    "has_restrooms": true
  },
  {
    "county_slug": "san-francisco",
    "state": "CA",
    "verified": false,
    "name": "Presidio Wall Playground",
    "description": "Presidio Wall Playground is one of the most popular places to play pickleball in San Francisco, CA. There are 6 outdoor asphalt courts. The lines are permanent, and portable nets are available. Amenities include restrooms and water. The courts can be reserved. The courts are free.",
    "address": "Pacific Ave",
    "city": "San Francisco",
    "zip_code": "94118",
    "latitude": 37.790504,
    "longitude": -122.454265,
    "indoor": false,
    "num_courts": 6,
    "surface_type": "Asphalt",
    "fees": "Free",
    "phone": "(415) 713-4997",
    "website": "http://sfrecpark.org/facilities/facility/details/presidiowallplayground-251",
    "photo_url": "https://cdn.filestackcontent.com/eFDUL5ZfSSLVw6fiehAc",
    "has_restrooms": true,
    "has_water": true,
    "nets_provided": true,
    "skill_levels": "advanced,beginner,intermediate",
    "court_type": "dedicated",
    "has_parking": true
  },
  {
    "county_slug": "san-francisco",
    "state": "CA",
    "verified": false,
    "name": "Rec Fillmore",
    "description": "Come play pickleball at Rec Fillmore in San Francisco, CA! There are 2 outdoor asphalt courts. These are dedicated courts with permanent lines and nets. A one-time fee is required to play. You can reserve the courts.",
    "address": "1441 Ellis St",
    "city": "San Francisco",
    "latitude": 37.782375,
    "longitude": -122.430211,
    "indoor": false,
    "num_courts": 2,
    "surface_type": "Asphalt",
    "fees": "Fee required",
    "website": "https://www.rec.us/fillmore",
    "email": "Support@rec.us",
    "photo_url": "https://cdn.filestackcontent.com/caCKMQhRKGKyEsqn0Gpm",
    "nets_provided": true,
    "skill_levels": "beginner,intermediate",
    "court_type": "dedicated"
  },
  {
    "county_slug": "san-francisco",
    "state": "CA",
    "verified": false,
    "name": "Richmond Playground",
    "description": "Richmond Playground is a place to play pickleball in San Francisco, CA. There are 2 outdoor asphalt courts. The lines are permanent, and portable nets are available. You can reserve the courts. The facility includes amenities like restrooms. The courts are private.",
    "address": "149 18th Ave",
    "city": "San Francisco",
    "zip_code": "94121",
    "latitude": 37.785307,
    "longitude": -122.477826,
    "indoor": false,
    "num_courts": 2,
    "surface_type": "Asphalt",
    "open_play_schedule": "Reserved only. No open play.",
    "fees": "Private",
    "phone": "(415) 601-7277",
    "website": "http://sfrecpark.org/destination/richmond-playground/",
    "photo_url": "https://cdn.filestackcontent.com/iKz8eIotRUWs7ANGGZvz",
    "has_restrooms": true,
    "nets_provided": true,
    "skill_levels": "beginner,intermediate",
    "court_type": "dedicated"
  },
  {
    "county_slug": "san-francisco",
    "state": "CA",
    "verified": false,
    "name": "Richmond Recreation Center",
    "description": "Richmond Recreation Center is a place to play pickleball in San Francisco, CA. There are 4 indoor hard courts. The lines are permanent, and portable nets are available. Amenities include restrooms. The courts are free.",
    "address": "251 18th Ave",
    "city": "San Francisco",
    "zip_code": "94121",
    "latitude": 37.783324,
    "longitude": -122.478113,
    "indoor": true,
    "num_courts": 4,
    "surface_type": "Hard",
    "fees": "Free",
    "phone": "(415) 666-7020",
    "website": "https://sfrecpark.org/Facilities/Facility/Details/Richmond-Rec-Center-105",
    "photo_url": "https://cdn.filestackcontent.com/OednC9c6SNvAl8MZr1rI",
    "has_restrooms": true,
    "nets_provided": true,
    "skill_levels": "intermediate",
    "court_type": "dedicated",
    "has_parking": true
  },
  {
    "county_slug": "san-francisco",
    "state": "CA",
    "verified": false,
    "name": "States Street Playground",
    "description": "States Street Playground is a place to play pickleball in San Francisco, CA. There are 2 outdoor hard courts. Chalk lines have been drawn, and portable nets are available. You can’t reserve the courts. The courts are free.",
    "address": "States St",
    "city": "San Francisco",
    "latitude": 37.76382,
    "longitude": -122.43926,
    "indoor": false,
    "num_courts": 2,
    "surface_type": "Hard",
    "fees": "Free",
    "website": "https://sfrecpark.org/Facilities/Facility/Details/States-Street-Playground-268",
    "photo_url": "https://cdn.filestackcontent.com/4TlptIroTQWpWVy9jmrY",
    "nets_provided": true,
    "skill_levels": "beginner,intermediate",
    "court_type": "shared",
    "has_restrooms": true
  },
  {
    "county_slug": "san-francisco",
    "state": "CA",
    "verified": false,
    "name": "Stern Grove Playground",
    "description": "Come play pickleball at Stern Grove Playground in San Francisco, CA! There are 6 outdoor hard courts. The lines are permanent, and portable nets are available. The courts are free. You can reserve the courts.",
    "address": "630 Sloat Boulevard",
    "city": "San Francisco",
    "latitude": 37.734815,
    "longitude": -122.478879,
    "indoor": false,
    "num_courts": 6,
    "surface_type": "Hard",
    "fees": "Free",
    "phone": "+14157537043",
    "website": "https://sfrecpark.org/facilities/facility/details/Sigmund-Stern-Grove-375",
    "photo_url": "https://cdn.filestackcontent.com/deXV2HkvQFSj1F3YEN59",
    "nets_provided": true,
    "skill_levels": "beginner,intermediate",
    "court_type": "dedicated",
    "has_restrooms": true
  },
  {
    "county_slug": "san-francisco",
    "state": "CA",
    "verified": false,
    "name": "The Crossing at East Cut",
    "description": "The Crossing at East Cut is one of the most popular places to play pickleball in San Francisco, CA. There are 5 outdoor concrete courts. These are dedicated courts with permanent lines and nets. The facility includes amenities like food, restrooms, and lights. Reservations are available. The courts are free.",
    "address": "200 Folsom St",
    "city": "San Francisco",
    "latitude": 37.789286,
    "longitude": -122.392299,
    "indoor": false,
    "lighted": true,
    "num_courts": 5,
    "surface_type": "Concrete",
    "fees": "Free",
    "website": "http://www.eastcutcrossing.com/",
    "email": "info@eastutcrossing.com",
    "photo_url": "https://cdn.filestackcontent.com/mU9QFGFIRHSrm3NJol0h",
    "has_restrooms": true,
    "nets_provided": true,
    "skill_levels": "advanced,beginner,intermediate",
    "court_type": "dedicated"
  },
  {
    "county_slug": "san-francisco",
    "state": "CA",
    "verified": false,
    "name": "UCSF Bakar Fitness Center (Mission Bay)",
    "description": "UCSF Bakar Fitness Center (Mission Bay) is one of the most popular places to play pickleball in San Francisco, CA. There are 3 indoor wood courts. The lines are permanent, and portable nets are available. Amenities include locker rooms, restrooms, and water.",
    "address": "1675 Owens St UNIT 150",
    "city": "San Francisco",
    "latitude": 37.76808,
    "longitude": -122.393011,
    "indoor": true,
    "num_courts": 3,
    "surface_type": "Wood",
    "website": "https://campuslifeserviceshome.ucsf.edu/fitness-and-recreation/bakar-fitness-center-ucsf-mission-bay",
    "email": "ucsf.fitness@ucsf.edu",
    "photo_url": "https://cdn.filestackcontent.com/13cqqqDQzC80hCShXI5I",
    "has_restrooms": true,
    "has_water": true,
    "nets_provided": true,
    "skill_levels": "beginner,intermediate",
    "court_type": "dedicated"
  },
  {
    "county_slug": "san-francisco",
    "state": "CA",
    "verified": false,
    "name": "Upper Noe Recreation Center",
    "description": "Come play pickleball at Upper Noe Recreation Center in San Francisco, CA! There are 6 hard courts. 2 are outdoors and 4 are indoors. The lines are overlaid on a tennis court, so the net is a little taller than a normal pickleball net. You can reserve the courts. Players have access to lights and restrooms. The courts are free.",
    "address": "295 Day St",
    "city": "San Francisco",
    "zip_code": "94131",
    "latitude": 37.742577,
    "longitude": -122.428479,
    "indoor": false,
    "lighted": true,
    "num_courts": 6,
    "surface_type": "Hard",
    "fees": "Free",
    "phone": "(415) 970-8061",
    "website": "http://sfrecpark.org/Facilities/Facility/Details/Upper-Noe-Rec-Center-112",
    "photo_url": "https://cdn.filestackcontent.com/te1KSUkpSXW1hqjZq2iK",
    "has_restrooms": true,
    "skill_levels": "beginner,intermediate",
    "court_type": "dedicated",
    "has_parking": true
  }
]