[
  {
    "county_slug": "san-bernardino",
    "state": "CA",
    "verified": false,
    "name": "7th Street Park Pickleball Courts",
    "description": "7th Street Park Pickleball Courts is a place to play pickleball in Yucaipa, CA. There are 8 outdoor hard and concrete courts. These are dedicated courts with permanent lines and nets. The courts are free. The facility includes amenities like restrooms, water, and lights.",
    "address": "33928-33994 Avenue E",
    "city": "Yucaipa",
    "latitude": 34.026998,
    "longitude": -117.064054,
    "indoor": false,
    "lighted": true,
    "num_courts": 8,
    "surface_type": "Hard, Concrete",
    "fees": "Free",
    "phone": "9517973897",
    "website": "http://www.yucaipapickleball.com",
    "email": "dennistpm.pickleball@gmail.com",
    "photo_url": "https://cdn.filestackcontent.com/jRhRh2wdRB2oH7pJATlF",
    "has_restrooms": true,
    "has_water": true,
    "nets_provided": true,
    "skill_levels": "intermediate",
    "court_type": "dedicated"
  },
  {
    "county_slug": "san-bernardino",
    "state": "CA",
    "verified": false,
    "name": "Alec Ferguson Park",
    "description": "Alec Ferguson Park is a place to play pickleball in Rialto, CA. There are 2 outdoor asphalt courts. The lines are overlaid on a tennis court, so the net is a little taller than a normal pickleball net. The courts are free.",
    "address": "2395 W Sunrise Dr",
    "city": "Rialto",
    "latitude": 34.159512,
    "longitude": -117.421067,
    "indoor": false,
    "num_courts": 2,
    "surface_type": "Asphalt",
    "open_play_schedule": "Rialto City announced on September 24 2025 that they will be renovating and putting in 4 new pickleball courts",
    "fees": "Free",
    "phone": "+19094214949",
    "website": "https://www.yourrialto.com/Facilities/Facility/Details/Alec-Fergusson-Park-3",
    "photo_url": "https://cdn.filestackcontent.com/r8VWufwjQvaZVUvl28xL",
    "skill_levels": "beginner,intermediate",
    "court_type": "dedicated",
    "has_restrooms": true
  },
  {
    "county_slug": "san-bernardino",
    "state": "CA",
    "verified": false,
    "name": "Avenue I Park",
    "description": "Avenue I Park is one of the most popular places to play pickleball in Yucaipa, CA. There are 3 outdoor concrete courts. The lines are permanent, but you'll need to bring your own net. The courts are free. Amenities include restrooms and wheelchair accessibility.",
    "address": "34014 Ave I",
    "city": "Yucaipa",
    "zip_code": "92399",
    "latitude": 34.00866,
    "longitude": -117.061468,
    "indoor": false,
    "num_courts": 3,
    "surface_type": "Concrete",
    "fees": "Free",
    "photo_url": "https://cdn.filestackcontent.com/yR27gMlsTgmpWw7620xG",
    "has_restrooms": true,
    "wheelchair_accessible": true,
    "nets_provided": false,
    "skill_levels": "beginner,intermediate",
    "court_type": "dedicated"
  },
  {
    "county_slug": "san-bernardino",
    "state": "CA",
    "verified": false,
    "name": "Azure Hills SDA Church",
    "description": "Azure Hills SDA Church is one of the most popular places to play pickleball in Grand Terrace, CA. There are 6 outdoor hard courts. The lines are permanent, and portable nets are available. Amenities include restrooms, water, and lights. The courts are free.",
    "address": "22633 Barton Rd",
    "city": "Grand Terrace",
    "zip_code": "92313",
    "latitude": 34.033837,
    "longitude": -117.310703,
    "indoor": false,
    "lighted": true,
    "num_courts": 6,
    "surface_type": "Hard",
    "fees": "Free",
    "phone": "(909) 825-8611",
    "website": "http://azurehills.org/",
    "email": "office@azurehills.org",
    "photo_url": "https://cdn.filestackcontent.com/D0p77JoHQ2SGsBBMCoij",
    "has_restrooms": true,
    "has_water": true,
    "nets_provided": true,
    "skill_levels": "beginner,intermediate",
    "court_type": "dedicated",
    "hours": "Friday 9am-2pm"
  },
  {
    "county_slug": "san-bernardino",
    "state": "CA",
    "verified": false,
    "name": "Brewster Park",
    "description": "Brewster Park is a place to play pickleball in Apple Valley, CA. There is 1 outdoor concrete court. The lines are permanent, but you'll need to bring your own net. Amenities include restrooms, water, and wheelchair accessibility. The court is free.",
    "address": "21024 Otoe Rd",
    "city": "Apple Valley",
    "zip_code": "92307",
    "latitude": 34.54876,
    "longitude": -117.206523,
    "indoor": false,
    "num_courts": 1,
    "surface_type": "Concrete",
    "fees": "Free",
    "phone": "7609477377",
    "website": "http://www.applevalley.org/",
    "photo_url": "https://cdn.filestackcontent.com/1VNszMnSFeUuz8lU2NBR",
    "has_restrooms": true,
    "has_water": true,
    "wheelchair_accessible": true,
    "nets_provided": false,
    "skill_levels": "beginner,intermediate",
    "court_type": "dedicated"
  },
  {
    "county_slug": "san-bernardino",
    "state": "CA",
    "verified": false,
    "name": "Catawba Park",
    "description": "No lights",
    "address": "11411 Catawba Pl",
    "city": "Fontana",
    "zip_code": "92337",
    "latitude": 34.045287,
    "longitude": -117.458284,
    "indoor": false,
    "num_courts": 2,
    "surface_type": "Asphalt",
    "fees": "Free",
    "phone": "+19093496900",
    "website": "https://www.fontana.org/700/Catawba-Park",
    "photo_url": "https://cdn.filestackcontent.com/m0z5GerIQn25UwFOGXfR",
    "has_restrooms": true,
    "has_water": true,
    "wheelchair_accessible": true,
    "skill_levels": "beginner,intermediate",
    "court_type": "dedicated"
  },
  {
    "county_slug": "san-bernardino",
    "state": "CA",
    "verified": false,
    "name": "Chino Rancho Park",
    "description": "Chino Rancho Park is a place to play pickleball in Chino, CA. There are 2 outdoor concrete and acrylic courts. These are dedicated courts with permanent lines and nets. The courts are free. The facility includes amenities like restrooms and lights.",
    "address": "5325 Phillips Blvd",
    "city": "Chino",
    "latitude": 34.047155,
    "longitude": -117.68887,
    "indoor": false,
    "lighted": true,
    "num_courts": 2,
    "surface_type": "Concrete, Acrylic",
    "open_play_schedule": "7am to 9pm daily",
    "fees": "Free",
    "phone": "9093343256",
    "website": "https://www.parksforcalifornia.org/project/1519/",
    "email": "chino_cspr@cityofchino.org",
    "photo_url": "https://cdn.filestackcontent.com/e3ddfoAEQIeYg4wLs9sT",
    "has_restrooms": true,
    "nets_provided": true,
    "skill_levels": "beginner",
    "court_type": "dedicated",
    "has_parking": true
  },
  {
    "county_slug": "san-bernardino",
    "state": "CA",
    "verified": false,
    "name": "Chino Valley YMCA",
    "description": "Come play pickleball at Chino Valley YMCA in Chino, CA! There are 2 outdoor hard courts. The lines are permanent, and portable nets are available. A membership is required to play. The facility includes amenities like lights.",
    "address": "5665 Edison Ave",
    "city": "Chino",
    "zip_code": "91710",
    "latitude": 33.997213,
    "longitude": -117.681658,
    "indoor": false,
    "lighted": true,
    "num_courts": 2,
    "surface_type": "Hard",
    "fees": "Members only",
    "phone": "9095977445",
    "website": "https://www.weymca.org/",
    "photo_url": "https://cdn.filestackcontent.com/TiyJCJnjRc29KtQ2jQzQ",
    "nets_provided": true,
    "skill_levels": "beginner,intermediate",
    "court_type": "dedicated"
  },
  {
    "county_slug": "san-bernardino",
    "state": "CA",
    "verified": false,
    "name": "Citrus Trails Park",
    "description": "Citrus Trails Park is a place to play pickleball in Redlands, CA. There are 2 outdoor asphalt courts. These are dedicated courts with permanent lines and nets. The facility includes amenities like restrooms, water, and wheelchair accessibility. The courts are free. Reservations are not available.",
    "address": "26312 Park Ave",
    "city": "Redlands",
    "latitude": 34.05876,
    "longitude": -117.21044,
    "indoor": false,
    "num_courts": 2,
    "surface_type": "Asphalt",
    "fees": "Free",
    "photo_url": "https://cdn.filestackcontent.com/8yzPycJuQuSCgTkhUGEN",
    "has_restrooms": true,
    "has_water": true,
    "wheelchair_accessible": true,
    "nets_provided": true,
    "skill_levels": "beginner,intermediate",
    "court_type": "dedicated"
  },
  {
    "county_slug": "san-bernardino",
    "state": "CA",
    "verified": false,
    "name": "Crafton Hills College",
    "description": "Crafton Hills College is one of the most popular places to play pickleball in Yucaipa, CA. There are 6 outdoor hard courts. The lines are permanent, but you'll need to bring your own net. The courts are free.",
    "address": "11711 Sand Canyon Rd",
    "city": "Yucaipa",
    "zip_code": "92399",
    "latitude": 34.042881,
    "longitude": -117.099662,
    "indoor": false,
    "num_courts": 6,
    "surface_type": "Hard",
    "fees": "Free",
    "phone": "9497942161",
    "website": "http://www.craftonhills.edu/",
    "photo_url": "https://cdn.filestackcontent.com/cVK2ds8pSq6bnl78Vg9b",
    "nets_provided": false,
    "skill_levels": "beginner,intermediate",
    "court_type": "dedicated",
    "has_parking": true
  },
  {
    "county_slug": "san-bernardino",
    "state": "CA",
    "verified": false,
    "name": "Creekside park",
    "description": "Creekside park is one of the most popular places to play pickleball in Ontario, CA. There are 2 outdoor concrete courts. These are dedicated courts with permanent lines and nets. Amenities include restrooms and lights. The courts cannot be reserved. The courts are free.",
    "address": "3151 E Riverside Dr",
    "city": "Ontario",
    "latitude": 34.019559,
    "longitude": -117.583327,
    "indoor": false,
    "lighted": true,
    "num_courts": 2,
    "surface_type": "Concrete",
    "fees": "Free",
    "phone": "+19093952000",
    "website": "https://www.ontarioca.gov/creekside-park",
    "photo_url": "https://cdn.filestackcontent.com/x5SPJHoR02aeIr2PLrZ7",
    "has_restrooms": true,
    "nets_provided": true,
    "skill_levels": "beginner,intermediate",
    "court_type": "dedicated",
    "has_parking": true
  },
  {
    "county_slug": "san-bernardino",
    "state": "CA",
    "verified": false,
    "name": "Dana Park",
    "description": "Dana Park is a place to play pickleball in Barstow, CA. There are 3 outdoor concrete courts. These are dedicated courts with permanent lines and nets. Players have access to restrooms, water, and lights. The courts are free.",
    "address": "850 Barstow Rd",
    "city": "Barstow",
    "zip_code": "92311",
    "latitude": 34.888733,
    "longitude": -117.023043,
    "indoor": false,
    "lighted": true,
    "num_courts": 3,
    "surface_type": "Concrete",
    "fees": "Free",
    "phone": "7602565617",
    "website": "http://www.barstowca.org/",
    "photo_url": "https://cdn.filestackcontent.com/3EEEDA2zSqisjIxlEcMG",
    "has_restrooms": true,
    "has_water": true,
    "nets_provided": true,
    "skill_levels": "advanced,intermediate",
    "court_type": "dedicated"
  },
  {
    "county_slug": "san-bernardino",
    "state": "CA",
    "verified": false,
    "name": "Dana Park Pickleball Courts",
    "description": "New courts with no set time for open play.\n\nTo get ahold of Barstow & Surrounding High Desert locals for games … add the Barstow Pickleball WhatsApp: https://chat.whatsapp.com/GMUCaTjjcMI6Sq1OAzqBjq",
    "address": "850 Barstow Rd",
    "city": "Barstow",
    "latitude": 34.889628,
    "longitude": -117.023318,
    "indoor": false,
    "num_courts": 6,
    "surface_type": "Concrete",
    "fees": "Free",
    "phone": "+17147672171",
    "website": "https://www.barstowca.org/departments/community-services-department/parks-and-recreation-division",
    "email": "alealofi@gmail.com",
    "photo_url": "https://cdn.filestackcontent.com/GIkVu4hXQby7fD5kMtBL",
    "has_restrooms": true,
    "nets_provided": true,
    "skill_levels": "advanced,intermediate",
    "court_type": "dedicated"
  },
  {
    "county_slug": "san-bernardino",
    "state": "CA",
    "verified": false,
    "name": "Dan’s",
    "description": "Come play pickleball at Dan’s in Apple Valley, CA! There are 4 outdoor concrete courts. The lines are permanent, and portable nets are available. The facility includes amenities like lights. The courts are private.",
    "address": "15110 Mandan Road",
    "city": "Apple Valley",
    "latitude": 34.525798,
    "longitude": -117.242023,
    "indoor": false,
    "lighted": true,
    "num_courts": 4,
    "surface_type": "Concrete",
    "fees": "Private",
    "photo_url": "https://cdn.filestackcontent.com/3EsrWUDvTs2gRyQJJ9bk",
    "nets_provided": true,
    "skill_levels": "advanced,intermediate",
    "court_type": "dedicated"
  },
  {
    "county_slug": "san-bernardino",
    "state": "CA",
    "verified": false,
    "name": "De Anza Community And Teen Center",
    "description": "De Anza Community And Teen Center is one of the most popular places to play pickleball in Ontario, CA. There are 2 outdoor hard courts. The lines are permanent, but you'll need to bring your own net. Players have access to restrooms and water. The courts are free.",
    "address": "1405 S Fern Ave",
    "city": "Ontario",
    "zip_code": "91762",
    "latitude": 34.048134,
    "longitude": -117.654531,
    "indoor": false,
    "num_courts": 2,
    "surface_type": "Hard",
    "fees": "Free",
    "phone": "(909) 395-2030",
    "website": "https://www.ontarioca.gov/de-anza-community-teen-center",
    "photo_url": "https://cdn.filestackcontent.com/Wj5RrozSTEWoT3O1HxvE",
    "has_restrooms": true,
    "has_water": true,
    "nets_provided": false,
    "skill_levels": "beginner,intermediate",
    "court_type": "dedicated",
    "hours": "8 AM - 8 PM"
  },
  {
    "county_slug": "san-bernardino",
    "state": "CA",
    "verified": false,
    "name": "Del Webb Sun City",
    "description": "Del Webb Sun City is one of the most popular places to play pickleball in Apple Valley, CA. There are 4 outdoor hard courts. The lines are permanent, but you'll need to bring your own net. Players have access to lights. Reservations are not available. The courts are private.",
    "address": "18952 Cassia Ct",
    "city": "Apple Valley",
    "zip_code": "92308",
    "latitude": 34.458245,
    "longitude": -117.24841,
    "indoor": false,
    "lighted": true,
    "num_courts": 4,
    "surface_type": "Hard",
    "fees": "Private",
    "website": "https://www.delwebb.com/homes/california/southern-california/apple-valley/sun-city-apple-valley-12227",
    "photo_url": "https://cdn.filestackcontent.com/Hn3yfEVQWSwYITRoKyn6",
    "nets_provided": false,
    "skill_levels": "intermediate",
    "court_type": "dedicated"
  },
  {
    "county_slug": "san-bernardino",
    "state": "CA",
    "verified": false,
    "name": "Elmer Digneo Park",
    "description": "Come play pickleball at Elmer Digneo Park in Loma Linda, CA! There are 2 outdoor hard courts. The lines are permanent, but you'll need to bring your own net. The courts are free. The facility includes amenities like restrooms.",
    "address": "10925 Parkland St",
    "city": "Loma Linda",
    "zip_code": "92354",
    "latitude": 34.055322,
    "longitude": -117.26104,
    "indoor": false,
    "num_courts": 2,
    "surface_type": "Hard",
    "fees": "Free",
    "phone": "(909) 799-2800",
    "website": "https://www.lomalinda-ca.gov/our_city/parks/elmer_digneo_park",
    "photo_url": "https://cdn.filestackcontent.com/fYBuLaWZRliTuOZ5xsUF",
    "has_restrooms": true,
    "nets_provided": false,
    "skill_levels": "beginner",
    "court_type": "dedicated"
  },
  {
    "county_slug": "san-bernardino",
    "state": "CA",
    "verified": false,
    "name": "Erwin Ranch Tennis Center",
    "description": "Come play pickleball at Erwin Ranch Tennis Center in Big Bear City, CA! There are 8 outdoor concrete courts. These are dedicated courts with permanent lines and nets. Players have access to restrooms and water. A one-time fee is required to play.",
    "address": "2050 Erwin Ranch Rd",
    "city": "Big Bear City",
    "zip_code": "92314",
    "latitude": 34.249525,
    "longitude": -116.806253,
    "indoor": false,
    "num_courts": 8,
    "surface_type": "Concrete",
    "fees": "Fee required",
    "phone": "9512064550",
    "website": "http://www.bigbearsportsranch.com/",
    "photo_url": "https://cdn.filestackcontent.com/fOZ0POtTpqEaLzaGAQyc",
    "has_restrooms": true,
    "has_water": true,
    "nets_provided": true,
    "skill_levels": "beginner,intermediate",
    "court_type": "dedicated"
  },
  {
    "county_slug": "san-bernardino",
    "state": "CA",
    "verified": false,
    "name": "Ford Park",
    "description": "Ford Park is a place to play pickleball in Redlands, CA. There are 2 outdoor hard courts. The lines are overlaid on a tennis court, so the net is a little taller than a normal pickleball net. The courts are free. You can’t reserve the courts. Players have access to lights.",
    "address": "955 Parkford Dr",
    "city": "Redlands",
    "latitude": 34.043291,
    "longitude": -117.16101,
    "indoor": false,
    "lighted": true,
    "num_courts": 2,
    "surface_type": "Hard",
    "fees": "Free",
    "phone": "+19097987655",
    "website": "https://www.cityofredlands.org/post/ford-park",
    "photo_url": "https://cdn.filestackcontent.com/HaThc6mTSCCdH4WB1JoW",
    "skill_levels": "beginner,intermediate",
    "court_type": "dedicated"
  },
  {
    "county_slug": "san-bernardino",
    "state": "CA",
    "verified": false,
    "name": "Grand Avenue Park",
    "description": "Come play pickleball at Grand Avenue Park in Chino Hills, CA! There are 5 outdoor hard courts. The lines are permanent, and portable nets are available. The facility includes amenities like restrooms, water, and lights. The courts cannot be reserved. The courts are free.",
    "address": "1301 Grand Ave",
    "city": "Chino Hills",
    "latitude": 33.993952,
    "longitude": -117.774171,
    "indoor": false,
    "lighted": true,
    "num_courts": 5,
    "surface_type": "Hard",
    "open_play_schedule": "See the newly attached schedule",
    "fees": "Free",
    "phone": "9093642600",
    "website": "http://www.chinohills.org/",
    "photo_url": "https://cdn.filestackcontent.com/5mIPxIT9S2q9Attwueg8",
    "has_restrooms": true,
    "has_water": true,
    "nets_provided": true,
    "skill_levels": "beginner",
    "court_type": "dedicated"
  },
  {
    "county_slug": "san-bernardino",
    "state": "CA",
    "verified": false,
    "name": "Highland Family YMCA",
    "description": "Highland Family YMCA is a place to play pickleball in Highland, CA. There are 2 indoor wood courts. The lines are permanent, but you'll need to bring your own net. A membership is required to play.",
    "address": "7793 Central Ave",
    "city": "Highland",
    "zip_code": "92346",
    "latitude": 34.112476,
    "longitude": -117.217288,
    "indoor": true,
    "num_courts": 2,
    "surface_type": "Wood",
    "fees": "Members only",
    "phone": "(909) 425-9622",
    "website": "http://ymcaeastvalley.org/",
    "photo_url": "https://cdn.filestackcontent.com/Yh0Sqo4GRBWMbTBWMILa",
    "nets_provided": false,
    "skill_levels": "beginner,intermediate",
    "court_type": "dedicated"
  },
  {
    "county_slug": "san-bernardino",
    "state": "CA",
    "verified": false,
    "name": "Hollyvale Park - Golden Triangle",
    "description": "Hollyvale Park - Golden Triangle is one of the most popular places to play pickleball in Victorville, CA. There is 1 outdoor concrete court. The lines are permanent, but you'll need to bring your own net. Players have access to restrooms and water. The court is free.",
    "address": "12773 Sycamore St",
    "city": "Victorville",
    "zip_code": "92392",
    "latitude": 34.462893,
    "longitude": -117.384716,
    "indoor": false,
    "num_courts": 1,
    "surface_type": "Concrete",
    "fees": "Free",
    "phone": "7609879255",
    "website": "http://ci.victorville.ca.us/Site/CityServices.aspx?id=278",
    "photo_url": "https://cdn.filestackcontent.com/boftVwvRQDG8AA8Ur0ld",
    "has_restrooms": true,
    "has_water": true,
    "nets_provided": false,
    "skill_levels": "beginner,intermediate",
    "court_type": "dedicated"
  },
  {
    "county_slug": "san-bernardino",
    "state": "CA",
    "verified": false,
    "name": "Jack Bulik Park & Multi-Purpose Rink",
    "description": "Free for all ages! \nCheck in is at 8-8:30 AM! \nActual drop in is from 9am - 1 PM.\nMonthly events and a great sense of community!",
    "address": "16581 Filbert St",
    "city": "Fontana",
    "zip_code": "92335",
    "latitude": 34.081975,
    "longitude": -117.443367,
    "indoor": false,
    "num_courts": 6,
    "surface_type": "Asphalt",
    "fees": "Free",
    "phone": "+19094288864",
    "website": "https://www.teamsideline.com/sites/fontana/home",
    "email": "Sports@Fontana.org",
    "photo_url": "https://cdn.filestackcontent.com/lQbuxdgZTj69J8F525vF",
    "has_restrooms": true,
    "has_water": true,
    "wheelchair_accessible": true,
    "nets_provided": true,
    "skill_levels": "beginner,intermediate",
    "court_type": "dedicated",
    "hours": "Thursday 10am - 4pm"
  },
  {
    "county_slug": "san-bernardino",
    "state": "CA",
    "verified": false,
    "name": "Jacob’s Park",
    "description": "The Courts at Jacobs are locked. A key may be obtained from the Town of Yucca Valley for a small fee. To know when other players will be there, the courts exclusively use https://playtimescheduler.com/ to connect with all levels of players from beginners to advanced (Visitor pro tip: advanced players should add 4.0-5.0 games only to get a good mix of high level players out, and there are always 2.5-3.5 games on each week to join). \n\nCourts are lit from sundown to 10pm.\n\nIf you are visiting, contact the USA Pickleball Ambassador to borrow a key, or arrange to meet players who can let you in.",
    "address": "55680 Onaga Trail",
    "city": "Yucca Valley",
    "latitude": 34.112242,
    "longitude": -116.449426,
    "indoor": false,
    "lighted": true,
    "num_courts": 4,
    "surface_type": "Acrylic, Hard",
    "fees": "Free",
    "phone": "+17602503118",
    "website": "http://www.yucca-valley.org",
    "email": "hidesertpickleball@gmail.com",
    "photo_url": "https://cdn.filestackcontent.com/p6FgkZZQmqDjrUEkj9Nz",
    "has_restrooms": true,
    "nets_provided": true,
    "skill_levels": "advanced,beginner,intermediate",
    "court_type": "dedicated"
  },
  {
    "county_slug": "san-bernardino",
    "state": "CA",
    "verified": false,
    "name": "Koehler Park",
    "description": "Koehler Park is a place to play pickleball in Fontana, CA. There are 2 outdoor asphalt courts. The lines are overlaid on a tennis court, so the net is a little taller than a normal pickleball net. Reservations are not available. The courts are free. The facility includes amenities like restrooms, water, wheelchair accessibility, and lights.",
    "address": "15352 Walnut St",
    "city": "Fontana",
    "latitude": 34.129104,
    "longitude": -117.470206,
    "indoor": false,
    "lighted": true,
    "num_courts": 2,
    "surface_type": "Asphalt",
    "fees": "Free",
    "phone": "3232702489",
    "website": "https://www.bryoticworlds.com/post/koehler-park-fontana-everything-to-know",
    "photo_url": "https://cdn.filestackcontent.com/4u4EDcDaSGy78yE5t2xO",
    "has_restrooms": true,
    "has_water": true,
    "wheelchair_accessible": true,
    "skill_levels": "beginner",
    "court_type": "dedicated"
  },
  {
    "county_slug": "san-bernardino",
    "state": "CA",
    "verified": false,
    "name": "Lake Gregory Education and Community Center",
    "description": "Come play pickleball at Lake Gregory Education and Community Center in Crestline, CA! There is 1 outdoor court. The lines are permanent, but you'll need to bring your own net. A one-time fee is required to play. Players have access to restrooms and water.",
    "address": "24740 San Moritz Way",
    "city": "Crestline",
    "zip_code": "92352",
    "latitude": 34.243413,
    "longitude": -117.263106,
    "indoor": false,
    "num_courts": 1,
    "fees": "Fee required",
    "website": "https://www.cde.ca.gov/SchoolDirectory/details?cdscode=36678686036719",
    "photo_url": "https://cdn.filestackcontent.com/6IAXqdnRT0Gk13mCl2nz",
    "has_restrooms": true,
    "has_water": true,
    "nets_provided": false,
    "skill_levels": "beginner",
    "court_type": "dedicated"
  },
  {
    "county_slug": "san-bernardino",
    "state": "CA",
    "verified": false,
    "name": "Leonard Bailey Park",
    "description": "Leonard Bailey Park is one of the most popular places to play pickleball in Loma Linda, CA. There are 2 outdoor asphalt courts. These are dedicated courts with permanent lines and nets. The facility includes amenities like locker rooms, water, and lights. The courts are free.",
    "address": "11555 Whittier Ave",
    "city": "Loma Linda",
    "latitude": 34.043878,
    "longitude": -117.229399,
    "indoor": false,
    "lighted": true,
    "num_courts": 2,
    "surface_type": "Asphalt",
    "fees": "Free",
    "photo_url": "https://cdn.filestackcontent.com/wte54mx0QaCJd71XpEix",
    "has_water": true,
    "nets_provided": true,
    "skill_levels": "beginner,intermediate",
    "court_type": "dedicated"
  },
  {
    "county_slug": "san-bernardino",
    "state": "CA",
    "verified": false,
    "name": "Lime Street Park",
    "description": "Lime Street Park is a place to play pickleball in Hesperia, CA. There are 4 outdoor concrete courts. The lines are permanent, but you'll need to bring your own net. The courts cannot be reserved. The courts are free. The facility includes amenities like restrooms, water, and lights.",
    "address": "16292 Lime St",
    "city": "Hesperia",
    "zip_code": "92345",
    "latitude": 34.40778,
    "longitude": -117.30622,
    "indoor": false,
    "lighted": true,
    "num_courts": 4,
    "surface_type": "Concrete",
    "fees": "Free",
    "phone": "7609879255",
    "website": "http://www.hesperiaparks.com/lime-street-park-community-center/",
    "photo_url": "https://cdn.filestackcontent.com/pRGhXGeaSleYOjBjMJ1c",
    "has_restrooms": true,
    "has_water": true,
    "nets_provided": false,
    "skill_levels": "beginner,intermediate",
    "court_type": "dedicated"
  },
  {
    "county_slug": "san-bernardino",
    "state": "CA",
    "verified": false,
    "name": "LLU Drayson Center",
    "description": "There are 8 permanent courts and the rest of the tennis courts have painted lines on them. There are 6 temp nets on wheels, and even more portable temp nets to set up as needed. No need to bring your own temp net!",
    "address": "25040 Stewart St",
    "city": "Loma Linda",
    "zip_code": "92354",
    "latitude": 34.053836,
    "longitude": -117.25872,
    "indoor": false,
    "lighted": true,
    "num_courts": 26,
    "surface_type": "Hard",
    "open_play_schedule": "There is open play on Mon and Wed nights as well, just not the officially scheduled open play. Courts are available anytime the Drayson Center is open.",
    "fees": "Members only — There is a $8 online/$10 in person day pass for guests and non-members",
    "phone": "+19097475935",
    "website": "https://drayson.llu.edu/",
    "email": "emedinajr07@gmail.com",
    "photo_url": "https://cdn.filestackcontent.com/WuSlVRs4RyKeq28YI1KC",
    "has_restrooms": true,
    "has_water": true,
    "wheelchair_accessible": true,
    "nets_provided": true,
    "skill_levels": "advanced,beginner,intermediate",
    "court_type": "dedicated"
  },
  {
    "county_slug": "san-bernardino",
    "state": "CA",
    "verified": false,
    "name": "Lytle Creek Park",
    "description": "Painted lines on the Tennis Court",
    "address": "380 South K Street",
    "city": "San Bernardino",
    "latitude": 34.094478,
    "longitude": -117.308765,
    "indoor": false,
    "num_courts": 1,
    "surface_type": "Concrete",
    "fees": "Free",
    "photo_url": "https://cdn.filestackcontent.com/IV0M330PTcS2otgLrQ7k",
    "skill_levels": "beginner,intermediate",
    "court_type": "dedicated"
  },
  {
    "county_slug": "san-bernardino",
    "state": "CA",
    "verified": false,
    "name": "MacKay Park",
    "description": "Come play pickleball at MacKay Park in Lake Arrowhead, CA! There are 8 outdoor courts. These are dedicated courts with permanent lines and nets. Amenities include restrooms. The courts are free.",
    "address": "29119 Hospital Rd",
    "city": "Lake Arrowhead",
    "zip_code": "92352",
    "latitude": 34.266188,
    "longitude": -117.167166,
    "indoor": false,
    "num_courts": 8,
    "fees": "Free",
    "phone": "9512065218",
    "website": "http://www.specialdistricts.org/index.aspx?page=341",
    "email": "kristyrosta@gmail.com",
    "photo_url": "https://cdn.filestackcontent.com/CYThFZgNS60klcHoJnfZ",
    "has_restrooms": true,
    "nets_provided": true,
    "skill_levels": "beginner,intermediate",
    "court_type": "dedicated"
  },
  {
    "county_slug": "san-bernardino",
    "state": "CA",
    "verified": false,
    "name": "MCAGCC 29 palms",
    "description": "Come play pickleball at MCAGCC 29 palms in Twentynine Palms, CA! There are 2 outdoor asphalt and concrete courts. A tennis net is available, but you’ll need to create your own lines. The courts are free. Players have access to lights.",
    "address": "Bourke Rd",
    "city": "Twentynine Palms",
    "latitude": 34.22835,
    "longitude": -116.057636,
    "indoor": false,
    "lighted": true,
    "num_courts": 2,
    "surface_type": "Asphalt, Concrete",
    "fees": "Free",
    "website": "https://29palms.usmc-mccs.org/recreation-fitness/sports/sports-facilities-courts",
    "photo_url": "https://cdn.filestackcontent.com/Pn6vKOIUS42XwlFPa6B4",
    "skill_levels": "advanced,beginner",
    "court_type": "shared"
  },
  {
    "county_slug": "san-bernardino",
    "state": "CA",
    "verified": false,
    "name": "McDermott Sports Complex",
    "description": "McDermott Sports Complex is one of the most popular places to play pickleball in Fontana, CA. There are 3 outdoor asphalt, concrete, and hard courts. These are dedicated courts with permanent lines and nets. The courts are free. Players have access to restrooms and water.",
    "address": "7846 South Heritage Circle",
    "city": "Fontana",
    "latitude": 34.11978,
    "longitude": -117.498781,
    "indoor": false,
    "num_courts": 3,
    "surface_type": "Asphalt, Concrete, Hard",
    "fees": "Free",
    "phone": "tel:9093496900",
    "website": "https://fontanaca.gov",
    "photo_url": "https://cdn.filestackcontent.com/9xUaagITTamdEBAYZhMY",
    "has_restrooms": true,
    "has_water": true,
    "nets_provided": true,
    "skill_levels": "beginner",
    "court_type": "dedicated"
  },
  {
    "county_slug": "san-bernardino",
    "state": "CA",
    "verified": false,
    "name": "Meadowhouse Park",
    "description": "Meadowhouse Park is a place to play pickleball in Chino, CA. There are 2 outdoor hard courts. These are dedicated courts with permanent lines and nets. The courts are private. The facility includes amenities like restrooms and lights.",
    "address": "Channel View St",
    "city": "Chino",
    "latitude": 33.958914,
    "longitude": -117.640297,
    "indoor": false,
    "lighted": true,
    "num_courts": 2,
    "surface_type": "Hard",
    "fees": "Private",
    "photo_url": "https://cdn.filestackcontent.com/daN0rZcARG65BI55IEix",
    "has_restrooms": true,
    "nets_provided": true,
    "skill_levels": "advanced,beginner",
    "court_type": "dedicated"
  },
  {
    "county_slug": "san-bernardino",
    "state": "CA",
    "verified": false,
    "name": "Meadow Park Outdoor Courts",
    "description": "Lights are there but need someone with keys to turn them on at night…. Good luck with that.",
    "address": "41220 Park Ave",
    "city": "Big Bear Lake",
    "latitude": 34.247323,
    "longitude": -116.902421,
    "indoor": false,
    "num_courts": 4,
    "surface_type": "Concrete, Hard",
    "fees": "Free",
    "phone": "9098669700",
    "website": "http://www.bigbearparks.com/Parks_%26_Facilities/Pages/Meadow_Park.html",
    "photo_url": "https://cdn.filestackcontent.com/zg2ZsyQTPu3kw2KjSVlO",
    "has_restrooms": true,
    "nets_provided": true,
    "skill_levels": "advanced,beginner",
    "court_type": "dedicated"
  },
  {
    "county_slug": "san-bernardino",
    "state": "CA",
    "verified": false,
    "name": "Michael H. Martin Gym",
    "description": "Michael H. Martin Gym is one of the most popular places to play pickleball in Apple Valley, CA. There are 3 indoor wood courts. The lines are permanent, and portable nets are available. The facility includes amenities like restrooms and water. A one-time fee is required to play.",
    "address": "13413 Navajo Rd",
    "city": "Apple Valley",
    "zip_code": "92308",
    "latitude": 34.495318,
    "longitude": -117.190077,
    "indoor": true,
    "num_courts": 3,
    "surface_type": "Wood",
    "open_play_schedule": "M-F 9:00 AM- 12:00 PM",
    "fees": "Fee required",
    "phone": "7602407000",
    "website": "https://www.applevalley.org/services/parks-recreation/sports/adu",
    "photo_url": "https://cdn.filestackcontent.com/whl4v7wTQKGZvFwL0xtd",
    "has_restrooms": true,
    "has_water": true,
    "nets_provided": true,
    "skill_levels": "beginner,intermediate",
    "court_type": "dedicated"
  },
  {
    "county_slug": "san-bernardino",
    "state": "CA",
    "verified": false,
    "name": "Miller Park",
    "description": "Miller Park is one of the most popular places to play pickleball in Fawnskin, CA. There are 2 outdoor courts. The lines are permanent, but you'll need to bring your own net. The courts are free.",
    "address": "1178 Chickasaw Rd",
    "city": "Fawnskin",
    "zip_code": "92333",
    "latitude": 34.270242,
    "longitude": -116.944752,
    "indoor": false,
    "num_courts": 2,
    "fees": "Free",
    "phone": "9099973132",
    "website": "http://bigbearparks.com/Parks_%26_Facilities/Pages/Miller_Park.html",
    "photo_url": "https://cdn.filestackcontent.com/p9yrj3NRXSDuAMeIbWgA",
    "nets_provided": false,
    "skill_levels": "beginner,intermediate",
    "court_type": "dedicated"
  },
  {
    "county_slug": "san-bernardino",
    "state": "CA",
    "verified": false,
    "name": "Old School House Museum",
    "description": "Old School House Museum is a place to play pickleball in Yucaipa, CA. There are 4 outdoor courts. The lines are permanent, but you'll need to bring your own net. The courts are free.",
    "address": "11911 Oak Glen Rd",
    "city": "Yucaipa",
    "zip_code": "92399",
    "latitude": 34.038702,
    "longitude": -116.937035,
    "indoor": false,
    "num_courts": 4,
    "fees": "Free",
    "website": "http://oak-glen-school-museum.edan.io/",
    "photo_url": "https://cdn.filestackcontent.com/ex3PN25FTgG8eOCFDdcy",
    "nets_provided": false,
    "skill_levels": "advanced,intermediate",
    "court_type": "dedicated"
  },
  {
    "county_slug": "san-bernardino",
    "state": "CA",
    "verified": false,
    "name": "Olympic Park",
    "description": "Olympic Park is one of the most popular places to play pickleball in Chino, CA. There are 2 outdoor hard courts. A tennis net is available, but you’ll need to create your own lines. The courts are free. Players have access to restrooms, water, and lights.",
    "address": "14349 Mountain Ave",
    "city": "Chino",
    "latitude": 33.993302,
    "longitude": -117.665894,
    "indoor": false,
    "lighted": true,
    "num_courts": 2,
    "surface_type": "Hard",
    "fees": "Free",
    "website": "https://www.cityofchino.org",
    "photo_url": "https://cdn.filestackcontent.com/BKlHQ0vcR56MSuIr4HED",
    "has_restrooms": true,
    "has_water": true,
    "court_type": "shared"
  },
  {
    "county_slug": "san-bernardino",
    "state": "CA",
    "verified": false,
    "name": "Paradise Park",
    "description": "Paradise Park is one of the most popular places to play pickleball in Yucca Valley, CA. There is 1 outdoor acrylic court. This is a dedicated court with a permanent net and lines. Amenities include restrooms, water, and lights. The court is free.",
    "address": "58938 Barron Drive",
    "city": "Yucca Valley",
    "latitude": 34.139704,
    "longitude": -116.377514,
    "indoor": false,
    "lighted": true,
    "num_courts": 1,
    "surface_type": "Acrylic",
    "fees": "Free",
    "phone": "+17602503118",
    "website": "http://www.yucca-valley.org",
    "email": "hidesertpickleball@gmail.com",
    "photo_url": "https://cdn.filestackcontent.com/zKVs5yYROyhKzC34fvD3",
    "has_restrooms": true,
    "has_water": true,
    "nets_provided": true,
    "skill_levels": "advanced,intermediate",
    "court_type": "dedicated"
  },
  {
    "county_slug": "san-bernardino",
    "state": "CA",
    "verified": false,
    "name": "Perris Hill Park",
    "description": "Come play pickleball at Perris Hill Park in San Bernardino, CA! There are 8 outdoor hard courts. These are dedicated courts with permanent lines and nets. The courts are free. Reservations are not available.",
    "address": "865 E Highland Ave",
    "city": "San Bernardino",
    "latitude": 34.1359,
    "longitude": -117.272441,
    "indoor": false,
    "num_courts": 8,
    "surface_type": "Hard",
    "open_play_schedule": "Open to public, however, City sponsored events and tournaments have priority.",
    "fees": "Free",
    "phone": "9093845233",
    "website": "https://www.pickleballsanbernardino.com",
    "photo_url": "https://cdn.filestackcontent.com/M6iFmCl2QNSqNJ6pWRV6",
    "nets_provided": true,
    "skill_levels": "intermediate",
    "court_type": "dedicated"
  },
  {
    "county_slug": "san-bernardino",
    "state": "CA",
    "verified": false,
    "name": "Power Play Center",
    "description": "Power Play Center is a place to play pickleball in Hesperia, CA. There are 5 indoor acrylic courts. The lines are permanent, and portable nets are available. A one-time fee is required to play. Reservations are not available. Amenities include food, restrooms, water, and lights.",
    "address": "10770 I Ave",
    "city": "Hesperia",
    "zip_code": "92345",
    "latitude": 34.4469,
    "longitude": -117.277686,
    "indoor": true,
    "lighted": true,
    "num_courts": 5,
    "surface_type": "Acrylic",
    "fees": "Fee required — $6",
    "phone": "7602445488",
    "website": "http://www.hesperiaparks.com/power-play-center",
    "photo_url": "https://cdn.filestackcontent.com/F1zrmmBbT1anqq79KU8N",
    "has_restrooms": true,
    "has_water": true,
    "nets_provided": true,
    "skill_levels": "beginner",
    "court_type": "dedicated"
  },
  {
    "county_slug": "san-bernardino",
    "state": "CA",
    "verified": false,
    "name": "Preserve Community Center",
    "description": "Come play pickleball at Preserve Community Center in Chino, CA! There are 2 outdoor concrete courts. These are dedicated courts with permanent lines and nets. The courts are private. Players have access to restrooms, water, and wheelchair accessibility.",
    "address": "Main St",
    "city": "Chino",
    "zip_code": "91708",
    "latitude": 33.965678,
    "longitude": -117.622867,
    "indoor": false,
    "num_courts": 2,
    "surface_type": "Concrete",
    "fees": "Private",
    "phone": "(909) 334-3261",
    "website": "http://www.cityofchino.org/",
    "photo_url": "https://cdn.filestackcontent.com/8ZNMgRIeTVaSoX3Yd6PA",
    "has_restrooms": true,
    "has_water": true,
    "wheelchair_accessible": true,
    "nets_provided": true,
    "skill_levels": "advanced,beginner,intermediate",
    "court_type": "dedicated"
  },
  {
    "county_slug": "san-bernardino",
    "state": "CA",
    "verified": false,
    "name": "Rancho Cucamonga Sports Center",
    "description": "Come play pickleball at Rancho Cucamonga Sports Center in Rancho Cucamonga, CA! There are 5 outdoor concrete courts. The lines are permanent, and portable nets are available. The facility includes amenities like restrooms, wheelchair accessibility, water, and lights. A one-time fee is required to play.",
    "address": "8303 Rochester Ave",
    "city": "Rancho Cucamonga",
    "zip_code": "91730",
    "latitude": 34.102946,
    "longitude": -117.542987,
    "indoor": false,
    "lighted": true,
    "num_courts": 5,
    "surface_type": "Concrete",
    "fees": "Fee required — 8-2:30 Free, Monday Senior(50+) Club is free.  Sunday and other evenings are $5 fee.",
    "phone": "+19094772785",
    "website": "http://www.cityofrc.us/",
    "email": "Sports@CityofRC.us",
    "photo_url": "https://cdn.filestackcontent.com/Od7CNoXSRXaVi9yQSXYL",
    "has_restrooms": true,
    "has_water": true,
    "wheelchair_accessible": true,
    "nets_provided": true,
    "skill_levels": "beginner,intermediate",
    "court_type": "dedicated",
    "has_parking": true
  },
  {
    "county_slug": "san-bernardino",
    "state": "CA",
    "verified": false,
    "name": "Red Hill Community Park",
    "description": "Red Hill Community Park is a place to play pickleball in Rancho Cucamonga, CA. There are 3 outdoor hard and concrete courts. These are dedicated courts with permanent lines and nets. The courts cannot be reserved. The facility includes amenities like restrooms, water, and wheelchair accessibility. The courts are free.",
    "address": "7484 Vineyard Ave",
    "city": "Rancho Cucamonga",
    "latitude": 34.117901,
    "longitude": -117.612484,
    "indoor": false,
    "num_courts": 3,
    "surface_type": "Hard, Concrete",
    "fees": "Free",
    "phone": "+19094772760",
    "website": "https://www.cityofrc.us/community-services",
    "email": "CSDInfo@CityofRC.us",
    "photo_url": "https://cdn.filestackcontent.com/AwGadeAZTJiWGKIWDEBi",
    "has_restrooms": true,
    "has_water": true,
    "wheelchair_accessible": true,
    "nets_provided": true,
    "skill_levels": "advanced,beginner,intermediate",
    "court_type": "dedicated"
  },
  {
    "county_slug": "san-bernardino",
    "state": "CA",
    "verified": false,
    "name": "Redlands Community Center",
    "description": "Come play pickleball at Redlands Community Center in Redlands, CA! There are 8 outdoor concrete courts. These are dedicated courts with permanent lines and nets. Reservations are available. The courts are free. Amenities include restrooms, lights, water, and wheelchair accessibility.",
    "address": "111 W Lugonia Ave",
    "city": "Redlands",
    "zip_code": "92374",
    "latitude": 34.069437,
    "longitude": -117.184094,
    "indoor": false,
    "lighted": true,
    "num_courts": 8,
    "surface_type": "Concrete",
    "open_play_schedule": "2 week notice to reserve",
    "fees": "Free",
    "phone": "(909) 798-7572",
    "website": "https://www.cityofredlands.org/recreation",
    "photo_url": "https://cdn.filestackcontent.com/IxingHHQ3ualFU42zTvQ",
    "has_restrooms": true,
    "has_water": true,
    "wheelchair_accessible": true,
    "nets_provided": true,
    "skill_levels": "advanced,beginner,intermediate",
    "court_type": "dedicated",
    "hours": "Monday – Friday: 8:00am – 7:00pm Saturday: 9:00am – 3:00pm Sundays & Holidays: Closed Pickleball Court Hours (Accessible on Clay"
  },
  {
    "county_slug": "san-bernardino",
    "state": "CA",
    "verified": false,
    "name": "Rialto Fitness & Aquatic Center",
    "description": "Rialto Fitness & Aquatic Center is a place to play pickleball in Rialto, CA. There are 4 outdoor concrete courts. These are dedicated courts with permanent lines and nets. The courts are free. Amenities include restrooms.",
    "address": "1243 South Riverside Avenue",
    "city": "Rialto",
    "latitude": 34.078966,
    "longitude": -117.369784,
    "indoor": false,
    "num_courts": 4,
    "surface_type": "Concrete",
    "fees": "Free",
    "phone": "9098202611",
    "website": "https://www.rialtoca.gov/205/Fitness-Aquatic-Center",
    "photo_url": "https://cdn.filestackcontent.com/mvyPBVKwQgi5pDMi1mra",
    "has_restrooms": true,
    "nets_provided": true,
    "skill_levels": "beginner",
    "court_type": "dedicated"
  },
  {
    "county_slug": "san-bernardino",
    "state": "CA",
    "verified": false,
    "name": "San Sevaine Park",
    "description": "There are 4 tennis courts but 2 of them have pickleball lines",
    "address": "5444 Cherry Ave",
    "city": "Fontana",
    "latitude": 34.155112,
    "longitude": -117.484461,
    "indoor": false,
    "lighted": true,
    "num_courts": 2,
    "surface_type": "Concrete",
    "fees": "Free",
    "phone": "+19093496900",
    "website": "https://fontana.org/725/San-Sevaine-Park",
    "photo_url": "https://cdn.filestackcontent.com/QLmlA1POQpebZ4NiMKDl",
    "has_restrooms": true,
    "has_water": true,
    "skill_levels": "beginner",
    "court_type": "dedicated"
  },
  {
    "county_slug": "san-bernardino",
    "state": "CA",
    "verified": false,
    "name": "Shadow Park",
    "description": "Shadow Park is a place to play pickleball in Fontana, CA. There are 2 outdoor asphalt courts. The lines are overlaid on a tennis court, so the net is a little taller than a normal pickleball net. The facility includes amenities like restrooms, water, wheelchair accessibility, and lights. The courts are free.",
    "address": "14250 Shadow Dr",
    "city": "Fontana",
    "zip_code": "92337",
    "latitude": 34.044324,
    "longitude": -117.495099,
    "indoor": false,
    "lighted": true,
    "num_courts": 2,
    "surface_type": "Asphalt",
    "fees": "Free",
    "phone": "9093496900",
    "website": "https://www.fontana.org/728/Shadow-Park",
    "email": "ShelterReservations@Fontana.org",
    "photo_url": "https://cdn.filestackcontent.com/gWbnxpdS4WQRSNvbdKyg",
    "has_restrooms": true,
    "has_water": true,
    "wheelchair_accessible": true,
    "skill_levels": "intermediate",
    "court_type": "dedicated"
  },
  {
    "county_slug": "san-bernardino",
    "state": "CA",
    "verified": false,
    "name": "Silver Lake Tennis Center",
    "description": "Silver Lake Tennis Center is one of the most popular places to play pickleball in Helendale, CA. There are 3 outdoor concrete courts. These are dedicated courts with permanent lines and nets. The courts are private. Players have access to restrooms and water.",
    "address": "14878 Clubhouse Dr",
    "city": "Helendale",
    "zip_code": "92342",
    "latitude": 34.755363,
    "longitude": -117.338676,
    "indoor": false,
    "num_courts": 3,
    "surface_type": "Concrete",
    "fees": "Private",
    "phone": "8583531224",
    "website": "http://www.silverlakesassociation.com",
    "photo_url": "https://cdn.filestackcontent.com/miKLQjgIRcmSPMiIIiCN",
    "has_restrooms": true,
    "has_water": true,
    "nets_provided": true,
    "court_type": "dedicated"
  },
  {
    "county_slug": "san-bernardino",
    "state": "CA",
    "verified": false,
    "name": "Sofive Soccer Centers Rancho Cucamonga",
    "description": "Hi,\n\nI hope you’re doing well. My name is Anthony Harding, and I manage finance and administration at Sofive Soccer Centers. We integrated pickleball at our Upland location and have seen success. We’re now looking to explore similar opportunities at our Rancho Cucamonga, CA facility. We have space available and are interested in discussing how we might collaborate to bring pickleball to this location. If this sounds like something you’d be interested in, I’d love to chat further. Looking forward to hearing from you. \n\n\n Best, \n\nAnthony Harding",
    "address": "11747 Stadium Way",
    "city": "Rancho Cucamonga",
    "latitude": 34.10054,
    "longitude": -117.549034,
    "indoor": false,
    "phone": "+14125923912",
    "email": "anthony.harding@sofive.com",
    "has_restrooms": true,
    "skill_levels": "beginner"
  },
  {
    "county_slug": "san-bernardino",
    "state": "CA",
    "verified": false,
    "name": "Stueve Family Park",
    "description": "Stueve Family Park is a place to play pickleball in Chino, CA. There are 3 outdoor acrylic courts. These are dedicated courts with permanent lines and nets. The courts are free. The facility includes amenities like lights, restrooms, water, and wheelchair accessibility.",
    "address": "16050 East Preserve Loop",
    "city": "Chino",
    "latitude": 33.962385,
    "longitude": -117.619025,
    "indoor": false,
    "lighted": true,
    "num_courts": 3,
    "surface_type": "Acrylic",
    "fees": "Free",
    "website": "https://myemail.constantcontact.com/City-of-Chino-News-Release.html?soid=1132744783111&aid=kDyuJwSdsmk",
    "photo_url": "https://cdn.filestackcontent.com/DUNtjQxRS9yvbHzLCTWu",
    "has_restrooms": true,
    "has_water": true,
    "wheelchair_accessible": true,
    "nets_provided": true,
    "skill_levels": "beginner,intermediate",
    "court_type": "dedicated"
  },
  {
    "county_slug": "san-bernardino",
    "state": "CA",
    "verified": false,
    "name": "Sun City Apple Valley",
    "description": "Sun City Apple Valley is one of the most popular places to play pickleball in Apple Valley, CA. There are 4 outdoor courts. The lines are permanent, but you'll need to bring your own net. The courts are private.",
    "address": "19305 Jess Ranch Pkwy",
    "city": "Apple Valley",
    "zip_code": "92308",
    "latitude": 34.459817,
    "longitude": -117.241962,
    "indoor": false,
    "num_courts": 4,
    "fees": "Private",
    "website": "https://www.suncityapplevalley.com/Home.htm",
    "photo_url": "https://cdn.filestackcontent.com/3RH3SFhCQVaYF9d0q2uj",
    "nets_provided": false,
    "skill_levels": "advanced,intermediate",
    "court_type": "dedicated"
  },
  {
    "county_slug": "san-bernardino",
    "state": "CA",
    "verified": false,
    "name": "Sundance Rv Resort",
    "description": "Sundance Rv Resort is a place to play pickleball in Parker Dam, CA. There are 2 outdoor hard courts. These are dedicated courts with permanent lines and nets. The courts are private.",
    "address": "1255 Parker Dam Rd",
    "city": "Parker Dam",
    "zip_code": "92267",
    "latitude": 34.269319,
    "longitude": -114.13805,
    "indoor": false,
    "num_courts": 2,
    "surface_type": "Hard",
    "fees": "Private",
    "website": "https://sundancervresortca.com/",
    "photo_url": "https://cdn.filestackcontent.com/jNLF0msLRteyCCW3b6sc",
    "nets_provided": true,
    "court_type": "dedicated"
  },
  {
    "county_slug": "san-bernardino",
    "state": "CA",
    "verified": false,
    "name": "Sunset Ridge Park",
    "description": "Come play pickleball at Sunset Ridge Park in Victorville, CA! There are 4 outdoor concrete courts. The lines are permanent, but you'll need to bring your own net. The courts are free. The facility includes amenities like restrooms, water, lights, and wheelchair accessibility. You can’t reserve the courts.",
    "address": "12808 Eucalyptus St",
    "city": "Victorville",
    "latitude": 34.456457,
    "longitude": -117.382648,
    "indoor": false,
    "lighted": true,
    "num_courts": 4,
    "surface_type": "Concrete",
    "open_play_schedule": "Open play. First come first serve.",
    "fees": "Free",
    "phone": "(760)245-5551",
    "website": "https://www.victorvilleca.gov/government/city-departments/community-services/recreation/reserve-a-park-or-facility",
    "photo_url": "https://cdn.filestackcontent.com/9mCnTTAgSoaeJsyINkr7",
    "has_restrooms": true,
    "has_water": true,
    "wheelchair_accessible": true,
    "nets_provided": false,
    "skill_levels": "beginner,intermediate",
    "court_type": "dedicated"
  },
  {
    "county_slug": "san-bernardino",
    "state": "CA",
    "verified": false,
    "name": "The Arboretum",
    "description": "Come play pickleball at The Arboretum in Fontana, CA! There is 1 outdoor hard court. This is a dedicated court with a permanent net and lines. The court is private. The facility includes amenities like lights.",
    "address": "16688 Fieldcress Drive",
    "city": "Fontana",
    "latitude": 34.160187,
    "longitude": -117.438638,
    "indoor": false,
    "lighted": true,
    "num_courts": 1,
    "surface_type": "Hard",
    "open_play_schedule": "Gated community",
    "fees": "Private",
    "phone": "+19094141039",
    "website": "https://thearboretumliving.com/?utm_campaign=gmb",
    "photo_url": "https://cdn.filestackcontent.com/ortQdRGR6OCCcZSy3s20",
    "nets_provided": true,
    "skill_levels": "beginner,intermediate",
    "court_type": "dedicated"
  },
  {
    "county_slug": "san-bernardino",
    "state": "CA",
    "verified": false,
    "name": "The Church of Jesus Christ of Later Day Saints",
    "description": "The Church of Jesus Christ of Later Day Saints is one of the most popular places to play pickleball in Victorville, CA. There are 3 indoor wood courts. The lines are permanent, and portable nets are available. The courts can be reserved. The courts are private. Players have access to restrooms and water.",
    "address": "12100 Ridgecrest Rd",
    "city": "Victorville",
    "latitude": 34.472,
    "longitude": -117.275012,
    "indoor": true,
    "num_courts": 3,
    "surface_type": "Wood",
    "fees": "Private",
    "phone": "+19099644145",
    "website": "https://local.churchofjesuschrist.org/en/us/ca/victorville/12100-ridgecrest-road?utm_source=gmb&utm_medium=yext",
    "photo_url": "https://cdn.filestackcontent.com/koA8DSjRkO6MNMeiFh06",
    "has_restrooms": true,
    "has_water": true,
    "nets_provided": true,
    "skill_levels": "intermediate",
    "court_type": "dedicated"
  },
  {
    "county_slug": "san-bernardino",
    "state": "CA",
    "verified": false,
    "name": "The Retreat Church",
    "description": "The Retreat Church is a place to play pickleball in Yucaipa, CA. There are 3 indoor courts. The lines are permanent, and portable nets are available. The courts are private. Amenities include lights.",
    "address": "34968 Ave H",
    "city": "Yucaipa",
    "zip_code": "92399",
    "latitude": 34.010588,
    "longitude": -117.04176,
    "indoor": true,
    "lighted": true,
    "num_courts": 3,
    "fees": "Private",
    "website": "https://www.retreatchurch.com/",
    "photo_url": "https://cdn.filestackcontent.com/knkIkocpTKqQCIlxOR10",
    "nets_provided": true,
    "skill_levels": "intermediate",
    "court_type": "dedicated"
  },
  {
    "county_slug": "san-bernardino",
    "state": "CA",
    "verified": false,
    "name": "Upland Arena Pickleball",
    "description": "Come play pickleball at Upland Arena Pickleball in Upland, CA! There are 4 indoor concrete courts. These are dedicated courts with permanent lines and nets. A one-time fee is required to play. Amenities include food, restrooms, water, lights, and trainers or lessons. You can reserve the courts.",
    "address": "1721 W 11th St",
    "city": "Upland",
    "zip_code": "91786",
    "latitude": 34.10419,
    "longitude": -117.684555,
    "indoor": true,
    "lighted": true,
    "num_courts": 4,
    "surface_type": "Concrete",
    "fees": "Fee required — We have a $15 drop-in charge and membership options!",
    "phone": "9099857903",
    "website": "https://uplandpickleball.square.site/",
    "photo_url": "https://cdn.filestackcontent.com/J7wQmGMZRwCUdESahSm1",
    "has_restrooms": true,
    "has_water": true,
    "nets_provided": true,
    "skill_levels": "beginner,intermediate",
    "court_type": "dedicated"
  },
  {
    "county_slug": "san-bernardino",
    "state": "CA",
    "verified": false,
    "name": "Valley Elementary School",
    "description": "Come play pickleball at Valley Elementary School in Yucaipa, CA! There are 2 indoor wood courts. The lines are permanent, and portable nets are available. The courts are free. The facility includes amenities like restrooms.",
    "address": "12333 Eighth Street",
    "city": "Yucaipa",
    "latitude": 34.0298,
    "longitude": -117.068632,
    "indoor": true,
    "num_courts": 2,
    "surface_type": "Wood",
    "fees": "Free",
    "phone": "+19097971125",
    "website": "https://ves.yucaipaschools.com/",
    "photo_url": "https://cdn.filestackcontent.com/aUO7LxxQ0eIrWEwsymRg",
    "has_restrooms": true,
    "nets_provided": true,
    "skill_levels": "beginner,intermediate",
    "court_type": "dedicated"
  },
  {
    "county_slug": "san-bernardino",
    "state": "CA",
    "verified": false,
    "name": "Vellano Park",
    "description": "Vellano Park is a place to play pickleball in Chino Hills, CA. There are 4 outdoor hard and acrylic courts. These are dedicated courts with permanent lines and nets. The courts are free. Amenities include restrooms, water, and lights.",
    "address": "16321 Aviano Ln",
    "city": "Chino Hills",
    "zip_code": "91709",
    "latitude": 33.955851,
    "longitude": -117.736427,
    "indoor": false,
    "lighted": true,
    "num_courts": 4,
    "surface_type": "Hard, Acrylic",
    "fees": "Free",
    "phone": "(909) 364-2700",
    "website": "https://www.chinohills.org/index.aspx?NID=424",
    "photo_url": "https://cdn.filestackcontent.com/dMzMdIjxRP2amiS0KwEO",
    "has_restrooms": true,
    "has_water": true,
    "nets_provided": true,
    "skill_levels": "beginner,intermediate",
    "court_type": "dedicated"
  },
  {
    "county_slug": "san-bernardino",
    "state": "CA",
    "verified": false,
    "name": "Westwind Activity Center",
    "description": "Westwind Activity Center is one of the most popular places to play pickleball in Victorville, CA. There are 2 indoor wood courts. The lines are permanent, but you'll need to bring your own net. A one-time fee is required to play. Amenities include restrooms, water, and wheelchair accessibility.",
    "address": "George Blvd",
    "city": "Victorville",
    "zip_code": "92394",
    "latitude": 34.57915,
    "longitude": -117.364918,
    "indoor": true,
    "num_courts": 2,
    "surface_type": "Wood",
    "fees": "Fee required",
    "phone": "7609477377",
    "website": "http://ci.victorville.ca.us/Site/CityServices.aspx?id=278",
    "photo_url": "https://cdn.filestackcontent.com/AJPng7dvTHqr9o9IRRZW",
    "has_restrooms": true,
    "has_water": true,
    "wheelchair_accessible": true,
    "nets_provided": false,
    "skill_levels": "beginner,intermediate",
    "court_type": "dedicated"
  },
  {
    "county_slug": "san-bernardino",
    "state": "CA",
    "verified": false,
    "name": "Westwind Community Center",
    "description": "Westwind Community Center is a place to play pickleball in Ontario, CA. There are 4 indoor hard and wood courts. The lines are permanent, and portable nets are available. A one-time fee is required to play. The facility includes amenities like restrooms, water, wheelchair accessibility, and lights.",
    "address": "2455 E Riverside Dr",
    "city": "Ontario",
    "zip_code": "91761",
    "latitude": 34.019368,
    "longitude": -117.598621,
    "indoor": true,
    "lighted": true,
    "num_courts": 4,
    "surface_type": "Hard, Wood",
    "fees": "Fee required — Non-Residents $5 or $25 seasonal pass",
    "phone": "(909) 395-2506",
    "website": "http://www.ontarioca.gov/",
    "photo_url": "https://cdn.filestackcontent.com/EHJZiGhQT7iBslB6aWh9",
    "has_restrooms": true,
    "has_water": true,
    "wheelchair_accessible": true,
    "nets_provided": true,
    "skill_levels": "beginner,intermediate",
    "court_type": "dedicated"
  },
  {
    "county_slug": "san-bernardino",
    "state": "CA",
    "verified": false,
    "name": "White Pine Lodge",
    "description": "This is a Private pickleball court available when you rent the White Pine Lodge, luxury estate.  The courts have shaded seating and are located in the backyard of this Big Bear Lake vacation rental.",
    "address": "Big Bear City",
    "city": "Big Bear",
    "latitude": 34.261118,
    "longitude": -116.84503,
    "indoor": false,
    "num_courts": 2,
    "surface_type": "Asphalt",
    "fees": "Private — Access this court by renting White Pine Lodge luxury estate rental through Destination Big Bear",
    "phone": "+19097520234",
    "website": "https://www.destinationbigbear.com/Property_detail_v.aspx?propid=2394&affid=1713",
    "email": "info@destinationbigbear.com",
    "photo_url": "https://cdn.filestackcontent.com/nZsXiVp2TpmD1GtlKrMw",
    "nets_provided": true,
    "court_type": "dedicated",
    "has_parking": true
  },
  {
    "county_slug": "san-bernardino",
    "state": "CA",
    "verified": false,
    "name": "Yucaipa Community Center",
    "description": "Yucaipa Community Center is a place to play pickleball in Yucaipa, CA. There are 3 indoor hard courts. The lines are permanent, but you'll need to bring your own net. A one-time fee is required to play. Amenities include restrooms, water, wheelchair accessibility, and lights.",
    "address": "34272 Yucaipa Blvd",
    "city": "Yucaipa",
    "zip_code": "92399",
    "latitude": 34.048578,
    "longitude": -117.043165,
    "indoor": true,
    "lighted": true,
    "num_courts": 3,
    "surface_type": "Hard",
    "fees": "Fee required — $3/day or $30 for 15 sessions",
    "phone": "9097907460301",
    "website": "http://yucaipa.org/recreation/programs-activities/gymnasium/",
    "photo_url": "https://cdn.filestackcontent.com/cNjECNSRyDhO34ODyLgj",
    "has_restrooms": true,
    "has_water": true,
    "wheelchair_accessible": true,
    "nets_provided": false,
    "skill_levels": "beginner,intermediate",
    "court_type": "dedicated"
  }
]