[
  {
    "county_slug": "santa-clara",
    "state": "CA",
    "verified": false,
    "name": "Almaden Valley Athletic Club",
    "description": "AVAC members can reserve pickleball courts 3 days in advance (starting at 7:30 am), one court per day for 1.5 hours.\nCourts can be reserved Monday - Friday from 6 am - 10 pm, Saturday & Sunday from 6 am - 9 pm.",
    "address": "5400 Camden Ave",
    "city": "San Jose",
    "zip_code": "95124",
    "latitude": 37.242539,
    "longitude": -121.900113,
    "indoor": false,
    "lighted": true,
    "num_courts": 8,
    "surface_type": "Hard",
    "open_play_schedule": "OPEN PLAY TIMES Monday & Wednesday | 6 - 8:30 pm Tuesday, Thursday, & Saturday | 9 - 11:30 am",
    "fees": "Members only — Morning Classes: Member $16.50, Guest $18.75 Evening Classes: Member $20, Guest $22.50",
    "phone": "4084454915",
    "website": "http://www.avac.us/",
    "email": "tennis@avac.us",
    "photo_url": "https://cdn.filestackcontent.com/vLFN4ohBTiWCqqUzJz5L",
    "has_restrooms": true,
    "has_water": true,
    "nets_provided": true,
    "skill_levels": "beginner,intermediate",
    "court_type": "dedicated"
  },
  {
    "county_slug": "santa-clara",
    "state": "CA",
    "verified": false,
    "name": "Bascom Community Center",
    "description": "Come play pickleball at Bascom Community Center in San Jose, CA! There are 2 indoor wood courts. The lines are permanent, and portable nets are available. Amenities include restrooms and water. A one-time fee is required to play.",
    "address": "1000 Bascom Ave",
    "city": "San Jose",
    "zip_code": "95128",
    "latitude": 37.3342,
    "longitude": -121.936354,
    "indoor": true,
    "num_courts": 2,
    "surface_type": "Wood",
    "open_play_schedule": "Drop in (first come, first serve)",
    "fees": "Fee required — $5.50 Adults/$2.75 Seniors (50+)/$10 Monthly membership",
    "phone": "4087946289",
    "website": "https://www.sanjoseca.gov/Home/Components/FacilityDirectory/FacilityDirectory/16/2040",
    "photo_url": "https://cdn.filestackcontent.com/vlZFzlWuQoayyJ8RuqkW",
    "has_restrooms": true,
    "has_water": true,
    "nets_provided": true,
    "skill_levels": "beginner,intermediate",
    "court_type": "dedicated"
  },
  {
    "county_slug": "santa-clara",
    "state": "CA",
    "verified": false,
    "name": "Bay Club Courtside",
    "description": "Bay Club Courtside is a place to play pickleball in Los Gatos, CA. There are 8 outdoor concrete courts. These are dedicated courts with permanent lines and nets. The facility includes amenities like food, locker rooms, restrooms, water, youth programming, lights, trainers or lessons, and adaptive programming. A membership is required to play. The courts can be reserved.",
    "address": "14675 Winchester Blvd",
    "city": "Los Gatos",
    "latitude": 37.255549,
    "longitude": -121.967144,
    "indoor": false,
    "lighted": true,
    "num_courts": 8,
    "surface_type": "Concrete",
    "fees": "Members only",
    "phone": "+14083957111",
    "website": "https://www.bayclubs.com/clubs/courtside",
    "email": "info.bccs@bayclubs.com",
    "photo_url": "https://cdn.filestackcontent.com/xHLUtcvHTyadSidFV8bK",
    "has_restrooms": true,
    "has_water": true,
    "nets_provided": true,
    "skill_levels": "beginner,intermediate",
    "court_type": "dedicated"
  },
  {
    "county_slug": "santa-clara",
    "state": "CA",
    "verified": false,
    "name": "Bay Club - Santa Clara",
    "description": "Bay Club - Santa Clara is one of the most popular places to play pickleball in Santa Clara, CA. There are 10 outdoor concrete courts. These are dedicated courts with permanent lines and nets. Reservations are available. Players have access to restrooms, trainers or lessons, water, locker rooms, lights, food, and youth programming.",
    "address": "3250 Central Expy",
    "city": "Santa Clara",
    "zip_code": "95051",
    "latitude": 37.377447,
    "longitude": -121.985972,
    "indoor": false,
    "lighted": true,
    "num_courts": 10,
    "surface_type": "Concrete",
    "phone": "4087382582",
    "website": "https://www.bayclubs.com/santaclara/",
    "email": "info.bcsc@bayclubs.com",
    "photo_url": "https://cdn.filestackcontent.com/jE2zoJElQP2ea5gfbbiA",
    "has_restrooms": true,
    "has_water": true,
    "nets_provided": true,
    "skill_levels": "beginner,intermediate",
    "court_type": "dedicated"
  },
  {
    "county_slug": "santa-clara",
    "state": "CA",
    "verified": false,
    "name": "Branham Park",
    "description": "Branham Park is one of the most popular places to play pickleball in San Jose, CA. There is 1 outdoor hard court. This is a dedicated court with a permanent net and lines. The court is free.",
    "address": "Branham Ln & Tupolo Drive",
    "city": "San Jose",
    "latitude": 37.252372,
    "longitude": -121.905812,
    "indoor": false,
    "num_courts": 1,
    "surface_type": "Hard",
    "fees": "Free",
    "phone": "(408) 793-5528",
    "website": "https://www.sanjoseca.gov/Home/Components/FacilityDirectory/FacilityDirectory/2114/2028",
    "photo_url": "https://cdn.filestackcontent.com/heYZYDRT064Nklwuw42E",
    "nets_provided": true,
    "skill_levels": "beginner,intermediate",
    "court_type": "dedicated"
  },
  {
    "county_slug": "santa-clara",
    "state": "CA",
    "verified": false,
    "name": "Calabazas Park",
    "description": "Come play pickleball at Calabazas Park in San Jose, CA! There are 6 outdoor courts. The lines are permanent, but you'll need to bring your own net. The courts are free.",
    "address": "Rainbow Dr",
    "city": "San Jose",
    "zip_code": "95129",
    "latitude": 37.301316,
    "longitude": -122.02016,
    "indoor": false,
    "num_courts": 6,
    "fees": "Free",
    "phone": "(408) 793-5510",
    "website": "https://www.sanjoseca.gov/Home/Components/FacilityDirectory/FacilityDirectory/2128/2028?npage=3",
    "photo_url": "https://cdn.filestackcontent.com/li39kOgASlG3HFO4MgGL",
    "nets_provided": false,
    "skill_levels": "beginner,intermediate",
    "court_type": "dedicated"
  },
  {
    "county_slug": "santa-clara",
    "state": "CA",
    "verified": false,
    "name": "Camden Community Center",
    "description": "Pickleball court lines on a gymnasium floor that also has lines for other sports.. Portable nets provided.",
    "address": "3369 Union Ave",
    "city": "San Jose",
    "zip_code": "95124",
    "latitude": 37.263968,
    "longitude": -121.933089,
    "indoor": true,
    "lighted": true,
    "num_courts": 6,
    "surface_type": "Wood",
    "open_play_schedule": "Arrive a few minutes early to pay the (minimal) use fee.",
    "fees": "Fee required — Discount for seniors.",
    "phone": "+14085598553",
    "website": "https://www.sanjoseca.gov/Home/Components/FacilityDirectory/FacilityDirectory/26/2040",
    "photo_url": "https://cdn.filestackcontent.com/EXlBHGMsTgmjWDN1usNe",
    "has_restrooms": true,
    "has_water": true,
    "wheelchair_accessible": true,
    "nets_provided": true,
    "skill_levels": "intermediate",
    "court_type": "dedicated"
  },
  {
    "county_slug": "santa-clara",
    "state": "CA",
    "verified": false,
    "name": "Canoas Park",
    "description": "(Aaron D here) On the website https://www.sanjoseca.gov/Home/Components/FacilityDirectory/FacilityDirectory/2136/2028?selcat=102&npage=2 it says the courts aren't floodlit",
    "address": "2580 Thrush Dr",
    "city": "San Jose",
    "zip_code": "95125",
    "latitude": 37.285101,
    "longitude": -121.877113,
    "indoor": false,
    "num_courts": 6,
    "surface_type": "Acrylic",
    "fees": "Free",
    "phone": "(408) 793-5510",
    "website": "https://www.sanjoseca.gov/Home/Components/FacilityDirectory/FacilityDirectory/2136/2028?selcat=102&npage=2",
    "photo_url": "https://cdn.filestackcontent.com/6WbCrOw3R2MBVO3pvUlX",
    "nets_provided": false,
    "skill_levels": "advanced,intermediate",
    "court_type": "dedicated"
  },
  {
    "county_slug": "santa-clara",
    "state": "CA",
    "verified": false,
    "name": "Cataldi park",
    "description": "Cataldi park is one of the most popular places to play pickleball in San Jose, CA. There are 4 outdoor concrete courts. These are dedicated courts with permanent lines and nets. The courts are free.",
    "address": "1758 Bethany Avenue",
    "city": "San Jose",
    "latitude": 37.402123,
    "longitude": -121.872666,
    "indoor": false,
    "num_courts": 4,
    "surface_type": "Concrete",
    "fees": "Free",
    "website": "https://www.sanjoseca.gov/Home/Components/FacilityDirectory/FacilityDirectory/2144/2028?npage=3",
    "photo_url": "https://cdn.filestackcontent.com/HGGdwYRhTTiUTdU6fgfH",
    "nets_provided": true,
    "skill_levels": "intermediate",
    "court_type": "dedicated"
  },
  {
    "county_slug": "santa-clara",
    "state": "CA",
    "verified": false,
    "name": "Central YMCA",
    "description": "Central YMCA is a place to play pickleball in San Jose, CA. There are 2 indoor wood courts. Tape lines have been laid, and portable nets are available. Players have access to locker rooms, restrooms, water, and lights. A membership is required to play. The courts cannot be reserved.",
    "address": "1717 The Alameda",
    "city": "San Jose",
    "latitude": 37.338061,
    "longitude": -121.920488,
    "indoor": true,
    "lighted": true,
    "num_courts": 2,
    "surface_type": "Wood",
    "open_play_schedule": "Tuesday 12:00pm to 1:30pm\nThursday 12:00pm to 1:30pm",
    "fees": "Members only",
    "phone": "(408) 298-1717",
    "website": "https://www.ymcasv.org/locations/central-ymca",
    "photo_url": "https://cdn.filestackcontent.com/xgih9BrTGD5InDcBulQQ",
    "has_restrooms": true,
    "has_water": true,
    "nets_provided": true,
    "skill_levels": "beginner,intermediate",
    "court_type": "shared",
    "hours": "6am-8pm"
  },
  {
    "county_slug": "santa-clara",
    "state": "CA",
    "verified": false,
    "name": "Cordevalle",
    "description": "Come play pickleball at Cordevalle in San Martin, CA! There are 2 outdoor hard courts. These are dedicated courts with permanent lines and nets. A membership is required to play.",
    "address": "Cordevalle",
    "city": "San Martin",
    "latitude": 37.067625,
    "longitude": -121.632988,
    "indoor": false,
    "num_courts": 2,
    "surface_type": "Hard",
    "fees": "Members only",
    "phone": "+14086954500",
    "website": "https://www.cordevalle.com/?utm_source=google&utm_medium=organic&utm_campaign=gbp_listing",
    "photo_url": "https://cdn.filestackcontent.com/YqewmG6Rc2IxM8oDDuWg",
    "nets_provided": true,
    "skill_levels": "beginner,intermediate",
    "court_type": "dedicated",
    "has_parking": true
  },
  {
    "county_slug": "santa-clara",
    "state": "CA",
    "verified": false,
    "name": "Cupertino Memorial Park",
    "description": "Lights turn off at 9pm.\nParking is not permitted on Christensen Drive.",
    "address": "21153 Christensen Dr",
    "city": "Cupertino",
    "latitude": 37.326868,
    "longitude": -122.045333,
    "indoor": false,
    "lighted": true,
    "num_courts": 8,
    "surface_type": "Clay",
    "fees": "Free",
    "phone": "+14087773120",
    "website": "https://www.cupertino.org/our-city/departments/parks-recreation/reservations-permits/sports-fields-courts",
    "photo_url": "https://cdn.filestackcontent.com/VSSVTACaQ2KT27AqgbXP",
    "has_restrooms": true,
    "has_water": true,
    "nets_provided": true,
    "skill_levels": "beginner,intermediate",
    "court_type": "dedicated"
  },
  {
    "county_slug": "santa-clara",
    "state": "CA",
    "verified": false,
    "name": "DeAnza College",
    "description": "parking fee $3.00 per day",
    "address": "21250 Stevens Creek Blvd",
    "city": "Cupertino",
    "latitude": 37.319423,
    "longitude": -122.045169,
    "indoor": false,
    "lighted": true,
    "num_courts": 6,
    "surface_type": "Asphalt",
    "open_play_schedule": "Available only when classes are not scheduled",
    "fees": "Free",
    "photo_url": "https://cdn.filestackcontent.com/AvQZadT7S3mMK65Cmo1a",
    "nets_provided": false,
    "skill_levels": "advanced,beginner,intermediate",
    "court_type": "dedicated"
  },
  {
    "county_slug": "santa-clara",
    "state": "CA",
    "verified": false,
    "name": "De Anza Park",
    "description": "De Anza Park is a place to play pickleball in San Jose, CA. There are 3 outdoor hard courts. These are dedicated courts with permanent lines and nets. The courts are free.",
    "address": "5553 Marquette Dr",
    "city": "San Jose",
    "latitude": 37.242907,
    "longitude": -121.892529,
    "indoor": false,
    "num_courts": 3,
    "surface_type": "Hard",
    "fees": "Free",
    "photo_url": "https://cdn.filestackcontent.com/BGFdwEUpRBu9MT1eZDGV",
    "nets_provided": true,
    "skill_levels": "intermediate",
    "court_type": "dedicated"
  },
  {
    "county_slug": "santa-clara",
    "state": "CA",
    "verified": false,
    "name": "Doerr Park",
    "description": "Doerr Park is one of the most popular places to play pickleball in San Jose, CA. There are 6 outdoor concrete courts. The lines are permanent, but you'll need to bring your own net. The facility includes amenities like restrooms. The courts are free.",
    "address": "Potrero Dr & Park Wilshire Dr",
    "city": "San Jose",
    "latitude": 37.273288,
    "longitude": -121.914964,
    "indoor": false,
    "num_courts": 6,
    "surface_type": "Concrete",
    "fees": "Free",
    "phone": "+14087935510",
    "website": "https://www.sanjoseca.gov/Home/Components/FacilityDirectory/FacilityDirectory/2172/2028?npage=5",
    "photo_url": "https://cdn.filestackcontent.com/4J0ffdMQFmxtPi5FW5hC",
    "has_restrooms": true,
    "nets_provided": false,
    "skill_levels": "beginner,intermediate",
    "court_type": "dedicated"
  },
  {
    "county_slug": "santa-clara",
    "state": "CA",
    "verified": false,
    "name": "Edenvale Gardens Regional Park",
    "description": "Come play pickleball at Edenvale Gardens Regional Park in San Jose, CA! There are 4 outdoor courts. The lines are permanent, and portable nets are available. The courts are free.",
    "address": "200 Edenvale Ave",
    "city": "San Jose",
    "latitude": 37.262516,
    "longitude": -121.819873,
    "indoor": false,
    "num_courts": 4,
    "fees": "Free",
    "phone": "(408) 793-5510",
    "website": "https://www.sanjoseca.gov/Home/Components/FacilityDirectory/FacilityDirectory/2178/2002",
    "photo_url": "https://cdn.filestackcontent.com/nNwThe1ZR5a2zfC7NegT",
    "nets_provided": true,
    "skill_levels": "intermediate",
    "court_type": "dedicated"
  },
  {
    "county_slug": "santa-clara",
    "state": "CA",
    "verified": false,
    "name": "Egan Junior High School",
    "description": "Egan Junior High School is one of the most popular places to play pickleball in Los Altos, CA. There are 8 wood courts. 4 are outdoors and 4 are indoors. The lines are permanent, but you'll need to bring your own net. A membership is required to play. The facility includes amenities like restrooms.",
    "address": "100 W Portola Ave",
    "city": "Los Altos",
    "zip_code": "94022",
    "latitude": 37.395829,
    "longitude": -122.116458,
    "indoor": false,
    "num_courts": 8,
    "surface_type": "Wood",
    "open_play_schedule": "Every Monday and Wednesday, from 6:30 - 9:30 PM",
    "fees": "Members only — Need to purchase annual Los Altos Rec membership (7-49 yrs: $96 resident / $123 non-resident, 50+ yrs: $48)",
    "phone": "+16509472790",
    "website": "https://www.losaltosca.gov/parksrec/page/egan-gym-indoor-pickleball",
    "email": "recreation@losaltosca.gov",
    "photo_url": "https://cdn.filestackcontent.com/55FwFMJuQZSsSunfzMW0",
    "has_restrooms": true,
    "nets_provided": false,
    "skill_levels": "beginner,intermediate",
    "court_type": "dedicated"
  },
  {
    "county_slug": "santa-clara",
    "state": "CA",
    "verified": false,
    "name": "El Quito Park",
    "description": "Parking is located in the back of the Westhope Presbyterian lot.  Spaces are designated for El Quito Park",
    "address": "18936 Sara Park Cir",
    "city": "Saratoga",
    "latitude": 37.281936,
    "longitude": -121.999776,
    "indoor": false,
    "num_courts": 2,
    "surface_type": "Hard",
    "fees": "Free",
    "phone": "+14082074908",
    "website": "https://www.lgsrecreation.org/pickleball/",
    "email": "pickleball@lgsrecreation.org",
    "photo_url": "https://cdn.filestackcontent.com/boMzv5EARK2kPHUTAdRU",
    "nets_provided": true,
    "skill_levels": "advanced,beginner,intermediate",
    "court_type": "dedicated",
    "hours": "9am - 3pm"
  },
  {
    "county_slug": "santa-clara",
    "state": "CA",
    "verified": false,
    "name": "Evergreen Valley College Pickleball Courts",
    "description": "Evergreen Valley College Pickleball Courts is one of the most popular places to play pickleball in San Jose, CA. There are 8 outdoor concrete courts. These are dedicated courts with permanent lines and nets. You can’t reserve the courts. The courts are free. The facility includes amenities like lights, wheelchair accessibility, water, and restrooms.",
    "address": "2995 Yerba Buena Rd",
    "city": "San Jose",
    "zip_code": "95135",
    "latitude": 37.298307,
    "longitude": -121.764399,
    "indoor": false,
    "lighted": true,
    "num_courts": 8,
    "surface_type": "Concrete",
    "open_play_schedule": "EVC classes reserve",
    "fees": "Free",
    "phone": "+14084484555",
    "website": "https://www.evc-builds.com/sports-complex-futsal-pickleball",
    "photo_url": "https://cdn.filestackcontent.com/Oq0FFzBUSBWCqZ2ILNpk",
    "has_restrooms": true,
    "has_water": true,
    "wheelchair_accessible": true,
    "nets_provided": true,
    "skill_levels": "beginner,intermediate",
    "court_type": "dedicated"
  },
  {
    "county_slug": "santa-clara",
    "state": "CA",
    "verified": false,
    "name": "Gill Park",
    "description": "2 Dedicated courts. Newly surfaced and painted.",
    "address": "Santa Rita Dr & Paseo Refugio",
    "city": "Milpitas",
    "latitude": 37.437114,
    "longitude": -121.896683,
    "indoor": false,
    "num_courts": 2,
    "surface_type": "Asphalt",
    "fees": "Free",
    "phone": "+14085863210",
    "website": "https://www.milpitas.gov/Facilities/Facility/Details/Gill-Memorial-Park-15",
    "photo_url": "https://cdn.filestackcontent.com/J1h1RGE0QZGHkvRNe8Nm",
    "has_restrooms": true,
    "has_water": true,
    "nets_provided": true,
    "skill_levels": "beginner,intermediate",
    "court_type": "dedicated",
    "has_parking": true
  },
  {
    "county_slug": "santa-clara",
    "state": "CA",
    "verified": false,
    "name": "Google Athletic Recreation Field Park",
    "description": "This is a private court reservable by Google employee",
    "address": "2400 Amphitheatre Pkwy",
    "city": "Mountain View",
    "latitude": 37.424205,
    "longitude": -122.088224,
    "indoor": false,
    "lighted": true,
    "num_courts": 6,
    "surface_type": "Concrete",
    "fees": "Private",
    "phone": "+16509036406",
    "website": "https://www.mountainview.gov/civica/press/display.asp?layout=1&Entry=498",
    "photo_url": "https://cdn.filestackcontent.com/OMScqZiUQTmlTPkadGjA",
    "nets_provided": true,
    "skill_levels": "beginner,intermediate",
    "court_type": "dedicated"
  },
  {
    "county_slug": "santa-clara",
    "state": "CA",
    "verified": false,
    "name": "Groesbeck Hill Park",
    "description": "Open sunrise to sunset.",
    "address": "2735 Klein Rd",
    "city": "San Jose",
    "latitude": 37.33679,
    "longitude": -121.78113,
    "indoor": false,
    "num_courts": 4,
    "surface_type": "Hard",
    "fees": "Free",
    "phone": "+14087935510",
    "website": "https://www.sanjose.org/attraction/groesbeck-hill-park",
    "photo_url": "https://cdn.filestackcontent.com/7Jy747s1RWi9JHVYrMZr",
    "nets_provided": true,
    "skill_levels": "beginner,intermediate",
    "court_type": "dedicated"
  },
  {
    "county_slug": "santa-clara",
    "state": "CA",
    "verified": false,
    "name": "Hall Memorial Park",
    "description": "Come play pickleball at Hall Memorial Park in Milpitas, CA! There are 6 outdoor hard courts. These are dedicated courts with permanent lines and nets. The courts are free. Players have access to restrooms, water, and lights.",
    "address": "374 LA Honda Dr",
    "city": "Milpitas",
    "zip_code": "95035",
    "latitude": 37.443019,
    "longitude": -121.913392,
    "indoor": false,
    "lighted": true,
    "num_courts": 6,
    "surface_type": "Hard",
    "fees": "Free",
    "phone": "(408) 586-3210",
    "website": "http://www.ci.milpitas.ca.gov/milpitas/departments/recreation-services/parks/",
    "photo_url": "https://cdn.filestackcontent.com/6hhiOPJnQJ2Z3V4kDAUC",
    "has_restrooms": true,
    "has_water": true,
    "nets_provided": true,
    "skill_levels": "advanced,beginner,intermediate",
    "court_type": "dedicated"
  },
  {
    "county_slug": "santa-clara",
    "state": "CA",
    "verified": false,
    "name": "Indoor Private Pickleball court",
    "description": "Indoor Private Pickleball court is one of the most popular places to play pickleball in Milpitas, CA. There is 1 indoor acrylic court. This is a dedicated court with a permanent net and lines. The court is private. Amenities include restrooms, trainers or lessons, wheelchair accessibility, and lights. The court can be reserved.",
    "address": "1827 Houret Court",
    "city": "Milpitas",
    "latitude": 37.404827,
    "longitude": -121.897243,
    "indoor": true,
    "lighted": true,
    "num_courts": 1,
    "surface_type": "Acrylic",
    "fees": "Private — $50 per hour",
    "phone": "+16502356796",
    "website": "https://www.svtabletennis.com/pickleball",
    "email": "hellosvttc@gmail.com",
    "photo_url": "https://cdn.filestackcontent.com/EX4FGMBMRHyhcQicEZ25",
    "has_restrooms": true,
    "wheelchair_accessible": true,
    "nets_provided": true,
    "skill_levels": "advanced,beginner,intermediate",
    "court_type": "dedicated"
  },
  {
    "county_slug": "santa-clara",
    "state": "CA",
    "verified": false,
    "name": "Jewish Community Center",
    "description": "Come play pickleball at Jewish Community Center in Los Gatos, CA! There are 4 outdoor hard courts. The lines are permanent, and portable nets are available. A membership is required to play. The facility includes amenities like lights and restrooms. You can reserve the courts.",
    "address": "14855 Oka Rd",
    "city": "Los Gatos",
    "zip_code": "95032",
    "latitude": 37.252943,
    "longitude": -121.961907,
    "indoor": false,
    "lighted": true,
    "num_courts": 4,
    "surface_type": "Hard",
    "fees": "Members only",
    "phone": "4083577429",
    "website": "https://www.apjcc.org/",
    "photo_url": "https://cdn.filestackcontent.com/9egRyQ32TpWLsrz75jab",
    "has_restrooms": true,
    "nets_provided": true,
    "skill_levels": "intermediate",
    "court_type": "dedicated"
  },
  {
    "county_slug": "santa-clara",
    "state": "CA",
    "verified": false,
    "name": "John Mise Park",
    "description": "John Mise Park is a place to play pickleball in San Jose, CA. There are 4 outdoor acrylic courts. These are dedicated courts with permanent lines and nets. You can reserve the courts. The courts are free. The facility includes amenities like restrooms.",
    "address": "594 Park Meadow Dr",
    "city": "San Jose",
    "zip_code": "95129",
    "latitude": 37.315947,
    "longitude": -121.990878,
    "indoor": false,
    "num_courts": 4,
    "surface_type": "Acrylic",
    "fees": "Free",
    "phone": "(408) 793-5510",
    "website": "https://www.sanjoseca.gov/Home/Components/FacilityDirectory/FacilityDirectory/2241/2028?utm_campaign=google_maps&utm_medium=organic&utm_source=google",
    "photo_url": "https://cdn.filestackcontent.com/tkmpTQ2hStmaopS7LJYh",
    "has_restrooms": true,
    "nets_provided": true,
    "skill_levels": "beginner,intermediate",
    "court_type": "dedicated"
  },
  {
    "county_slug": "santa-clara",
    "state": "CA",
    "verified": false,
    "name": "La Rinconada Park",
    "description": "Come play pickleball at La Rinconada Park in Los Gatos, CA! There are 4 outdoor concrete courts. These are dedicated courts with permanent lines and nets. The courts are free.",
    "address": "151 Granada Way",
    "city": "Los Gatos",
    "latitude": 37.260227,
    "longitude": -121.980835,
    "indoor": false,
    "num_courts": 4,
    "surface_type": "Concrete",
    "fees": "Free",
    "nets_provided": true,
    "skill_levels": "beginner,intermediate",
    "court_type": "dedicated"
  },
  {
    "county_slug": "santa-clara",
    "state": "CA",
    "verified": false,
    "name": "Little Italy/Arena Green East",
    "description": "Little Italy/Arena Green East is a place to play pickleball in San Jose, CA. There are 4 outdoor asphalt courts. These are dedicated courts with permanent lines and nets. The facility includes amenities like lights and food. The courts are free.",
    "address": "340 Sharks Wy",
    "city": "San Jose",
    "latitude": 37.334648,
    "longitude": -121.898508,
    "indoor": false,
    "lighted": true,
    "num_courts": 4,
    "surface_type": "Asphalt",
    "fees": "Free",
    "photo_url": "https://cdn.filestackcontent.com/xm31TOiZQ82uQtJrViSy",
    "nets_provided": true,
    "skill_levels": "advanced,beginner,intermediate",
    "court_type": "dedicated"
  },
  {
    "county_slug": "santa-clara",
    "state": "CA",
    "verified": false,
    "name": "Lone Hill Park",
    "description": "Lone Hill Park is one of the most popular places to play pickleball in San Jose, CA. There are 3 outdoor hard courts. These are dedicated courts with permanent lines and nets. The courts are free.",
    "address": "Vintner Way",
    "city": "San Jose",
    "latitude": 37.245071,
    "longitude": -121.911071,
    "indoor": false,
    "num_courts": 3,
    "surface_type": "Hard",
    "fees": "Free",
    "phone": "(408) 793-5510",
    "website": "https://www.sanjoseca.gov/Home/Components/FacilityDirectory/FacilityDirectory/2265/2028",
    "photo_url": "https://cdn.filestackcontent.com/jeCtnWITAy9DU6N5P5rk",
    "nets_provided": true,
    "skill_levels": "advanced,beginner,intermediate",
    "court_type": "dedicated"
  },
  {
    "county_slug": "santa-clara",
    "state": "CA",
    "verified": false,
    "name": "Los Altos Golf & Country Club",
    "description": "Private courts for members only",
    "address": "1560 Country Club Dr",
    "city": "Los Altos",
    "latitude": 37.351055,
    "longitude": -122.091443,
    "indoor": false,
    "lighted": true,
    "num_courts": 4,
    "surface_type": "Concrete",
    "fees": "Members only",
    "phone": "+16509473100",
    "website": "https://www.lagcc.com/",
    "photo_url": "https://cdn.filestackcontent.com/ipsehxKQQ6CZ2VYEWUcI",
    "nets_provided": true,
    "skill_levels": "beginner,intermediate",
    "court_type": "dedicated"
  },
  {
    "county_slug": "santa-clara",
    "state": "CA",
    "verified": false,
    "name": "Los Paseos Pickleball Club",
    "description": "Come play pickleball at Los Paseos Pickleball Club in San Jose, CA! There are 3 outdoor concrete courts. These are dedicated courts with permanent lines and nets. The courts can be reserved. A membership is required to play. The facility includes amenities like lights and restrooms.",
    "address": "7047 Vía Ramada",
    "city": "San Jose",
    "latitude": 37.228505,
    "longitude": -121.771817,
    "indoor": false,
    "lighted": true,
    "num_courts": 3,
    "surface_type": "Concrete",
    "open_play_schedule": "Download the Court Reserve App and click on “JOIN ORGANIZATION”",
    "fees": "Members only",
    "phone": "+14082249880",
    "website": "https://lphoa.org/pickleball-memberships/",
    "photo_url": "https://cdn.filestackcontent.com/UEs13jAOTNyxZKSo1MZF",
    "has_restrooms": true,
    "nets_provided": true,
    "skill_levels": "intermediate",
    "court_type": "dedicated",
    "hours": "00pm to 10pm"
  },
  {
    "county_slug": "santa-clara",
    "state": "CA",
    "verified": false,
    "name": "McCarty Mansion",
    "description": "Members of the \"I H8 Bryan Pickleball Club\" get preferential treatment",
    "address": "18444 Swarthmore Drive",
    "city": "Saratoga",
    "latitude": 37.276819,
    "longitude": -121.993746,
    "indoor": false,
    "lighted": true,
    "num_courts": 1,
    "surface_type": "Concrete",
    "fees": "Private",
    "phone": "+14087074307",
    "email": "idigbill@gmail.com",
    "has_restrooms": true,
    "has_water": true,
    "nets_provided": true,
    "skill_levels": "advanced,beginner",
    "court_type": "dedicated"
  },
  {
    "county_slug": "santa-clara",
    "state": "CA",
    "verified": false,
    "name": "McKenzie Park",
    "description": "McKenzie Park is one of the most popular places to play pickleball in Los Altos, CA. There are 6 outdoor hard courts. The lines are permanent, and portable nets are available. The courts are free. The facility includes amenities like restrooms, water, and lights.",
    "address": "707 Fremont Ave",
    "city": "Los Altos",
    "latitude": 37.358371,
    "longitude": -122.093003,
    "indoor": false,
    "lighted": true,
    "num_courts": 6,
    "surface_type": "Hard",
    "fees": "Free",
    "phone": "+16509472790",
    "website": "https://www.losaltosca.gov/parksrec/page/mckenzie-park",
    "photo_url": "https://cdn.filestackcontent.com/vl0cLEVzQ4aWIuI2oJlD",
    "has_restrooms": true,
    "has_water": true,
    "nets_provided": true,
    "skill_levels": "beginner,intermediate",
    "court_type": "dedicated"
  },
  {
    "county_slug": "santa-clara",
    "state": "CA",
    "verified": false,
    "name": "Milpitas Sports Center",
    "description": "Come play pickleball at Milpitas Sports Center in Milpitas, CA! There are 6 indoor wood courts. The lines are permanent, and portable nets are available. Players have access to restrooms, water, and locker rooms. A one-time fee is required to play.",
    "address": "1325 E Calaveras Blvd",
    "city": "Milpitas",
    "zip_code": "95035",
    "latitude": 37.435923,
    "longitude": -121.883595,
    "indoor": true,
    "num_courts": 6,
    "surface_type": "Wood",
    "fees": "Fee required",
    "phone": "(408) 586-3225",
    "website": "http://www.ci.milpitas.ca.gov/milpitas/departments/recreation-services/our-facilities/sports-center/",
    "photo_url": "https://cdn.filestackcontent.com/mDR5qz0SWurKmj3CgJd3",
    "has_restrooms": true,
    "has_water": true,
    "nets_provided": true,
    "skill_levels": "beginner,intermediate",
    "court_type": "dedicated"
  },
  {
    "county_slug": "santa-clara",
    "state": "CA",
    "verified": false,
    "name": "Mitchell Park",
    "description": "Mitchell Park is one of the most popular places to play pickleball in Palo Alto, CA. There are 15 outdoor hard courts. These are dedicated courts with permanent lines and nets. The courts cannot be reserved. The courts are free. Players have access to restrooms, water, and lights.",
    "address": "600 E Meadow Dr",
    "city": "Palo Alto",
    "zip_code": "94306",
    "latitude": 37.423256,
    "longitude": -122.116382,
    "indoor": false,
    "lighted": true,
    "num_courts": 15,
    "surface_type": "Hard",
    "open_play_schedule": "6 am to 10 pm daily on 15 courts.",
    "fees": "Free",
    "website": "https://www.paloaltopickleballclub.org/",
    "email": "papc.information@gmail.com",
    "photo_url": "https://cdn.filestackcontent.com/bXS5Z6wWQPmFGq7Kw8hI",
    "has_restrooms": true,
    "has_water": true,
    "nets_provided": true,
    "skill_levels": "advanced,beginner,intermediate",
    "court_type": "dedicated"
  },
  {
    "county_slug": "santa-clara",
    "state": "CA",
    "verified": false,
    "name": "Morgan Hill Community Park and Recreation Center",
    "description": "From sunrise to noon an Additional 3 outdoor courts can be setup in basketball court.  Must bring your own net.",
    "address": "171 W Edmundson Ave",
    "city": "Morgan Hill",
    "latitude": 37.115659,
    "longitude": -121.648831,
    "indoor": false,
    "num_courts": 7,
    "surface_type": "Acrylic",
    "open_play_schedule": "4 permanent and public outdoor courts sunrise to sunset.  One designated challenge court and three rotation.  3 outdoor public on basketball BYON, sunrise to noon.  Indoor courts require fee or membership, available mid-day only.",
    "fees": "Free",
    "phone": "+14087820008",
    "website": "https://www.morganhill.ca.gov/2317/Pickleball",
    "photo_url": "https://cdn.filestackcontent.com/Jl4MdLhTOWnEeWGH9j6A",
    "nets_provided": true,
    "skill_levels": "advanced,intermediate",
    "court_type": "dedicated"
  },
  {
    "county_slug": "santa-clara",
    "state": "CA",
    "verified": false,
    "name": "Mountain View Sports Pavilion",
    "description": "Mountain View Sports Pavilion is one of the most popular places to play pickleball in Mountain View, CA. There are 2 indoor hard courts. The lines are permanent, and portable nets are available. A one-time fee is required to play. The facility includes amenities like restrooms.",
    "address": "1185 Castro St",
    "city": "Mountain View",
    "latitude": 37.380698,
    "longitude": -122.086147,
    "indoor": true,
    "num_courts": 2,
    "surface_type": "Hard",
    "fees": "Fee required",
    "phone": "+16509036407",
    "website": "https://www.mountainview.gov/Home/Components/FacilityDirectory/FacilityDirectory/62/?locale=en",
    "photo_url": "https://cdn.filestackcontent.com/vFpxkjKfQMGbeMVEO2nf",
    "has_restrooms": true,
    "nets_provided": true,
    "skill_levels": "beginner,intermediate",
    "court_type": "dedicated"
  },
  {
    "county_slug": "santa-clara",
    "state": "CA",
    "verified": false,
    "name": "Paul Moore Park",
    "description": "Come play pickleball at Paul Moore Park in San Jose, CA! There are 6 outdoor concrete courts. The lines are permanent, and portable nets are available. Amenities include lights and restrooms. The courts are free.",
    "address": "1426 Hillsdale Ave",
    "city": "San Jose",
    "zip_code": "95118",
    "latitude": 37.271932,
    "longitude": -121.889557,
    "indoor": false,
    "lighted": true,
    "num_courts": 6,
    "surface_type": "Concrete",
    "fees": "Free",
    "phone": "(408) 793-5510",
    "website": "http://sanjoseca.gov/",
    "photo_url": "https://cdn.filestackcontent.com/yPwIJoq1TxSH5lBMy0ih",
    "has_restrooms": true,
    "nets_provided": true,
    "skill_levels": "beginner,intermediate",
    "court_type": "dedicated"
  },
  {
    "county_slug": "santa-clara",
    "state": "CA",
    "verified": false,
    "name": "Rancho Santa Teresa Swim & Racquet Club",
    "description": "Rancho Santa Teresa Swim & Racquet Club is a place to play pickleball in San Jose, CA. There are 4 outdoor concrete courts. The lines are permanent, and portable nets are available. Players have access to lights, restrooms, and water. The courts are private.",
    "address": "286 Sorrento Way",
    "city": "San Jose",
    "latitude": 37.234733,
    "longitude": -121.800207,
    "indoor": false,
    "lighted": true,
    "num_courts": 4,
    "surface_type": "Concrete",
    "fees": "Private — $5 - Must be accompanied by Member to enter",
    "phone": "+14082275758",
    "website": "https://www.RanchoSantaTeresa.org",
    "photo_url": "https://cdn.filestackcontent.com/xZw011ISIWEg21E9opyP",
    "has_restrooms": true,
    "has_water": true,
    "nets_provided": true,
    "skill_levels": "advanced,intermediate",
    "court_type": "dedicated",
    "hours": "8 AM - 10 PM"
  },
  {
    "county_slug": "santa-clara",
    "state": "CA",
    "verified": false,
    "name": "Raymond J Fisher Middle School",
    "description": "Come play pickleball at Raymond J Fisher Middle School in Los Gatos, CA! There are 3 indoor wood courts. The lines are permanent, but you'll need to bring your own net. You can reserve the courts. Amenities include restrooms. A one-time fee is required to play.",
    "address": "19195 Fisher Ave",
    "city": "Los Gatos",
    "zip_code": "95032",
    "latitude": 37.234063,
    "longitude": -121.968391,
    "indoor": true,
    "num_courts": 3,
    "surface_type": "Wood",
    "fees": "Fee required",
    "phone": "(408) 335-2300",
    "website": "http://rjfisher.lgusd.org/",
    "photo_url": "https://cdn.filestackcontent.com/ILtBIuPBSoG8RggQNxnK",
    "has_restrooms": true,
    "nets_provided": false,
    "skill_levels": "beginner,intermediate",
    "court_type": "dedicated"
  },
  {
    "county_slug": "santa-clara",
    "state": "CA",
    "verified": false,
    "name": "Raymond J. Fisher Mid School",
    "description": "Come play pickleball at Raymond J. Fisher Mid School in Los Gatos, CA! There are 4 outdoor asphalt courts. The lines are permanent, but you'll need to bring your own net. A membership is required to play. The facility includes amenities like restrooms, wheelchair accessibility, and water.",
    "address": "16249 Fisher Ave",
    "city": "Los Gatos",
    "latitude": 37.232684,
    "longitude": -121.967982,
    "indoor": false,
    "num_courts": 4,
    "surface_type": "Asphalt",
    "fees": "Members only — Membership to the LGSR Pickleball Club is $100 per year.",
    "phone": "+14082074908",
    "website": "https://www.lgsrecreation.org/pickleball/",
    "email": "pickleball@lgsrecreation.org",
    "photo_url": "https://cdn.filestackcontent.com/sGhmNTUlQXeDJr9eXwqC",
    "has_restrooms": true,
    "has_water": true,
    "wheelchair_accessible": true,
    "nets_provided": false,
    "skill_levels": "intermediate",
    "court_type": "dedicated",
    "hours": "9am - 3pm"
  },
  {
    "county_slug": "santa-clara",
    "state": "CA",
    "verified": false,
    "name": "Rengstorff Park Pickleball Courts",
    "description": "9 courts: \nNets: 2 permanent nets and 7 portable provided by the city and Mountain View Pickleball Club.\nLines: 3 permanent and 6 shared with tennis.",
    "address": "201 S Rengstorff Ave",
    "city": "Mountain View",
    "zip_code": "94040",
    "latitude": 37.401501,
    "longitude": -122.09762,
    "indoor": false,
    "num_courts": 9,
    "surface_type": "Hard",
    "fees": "Free",
    "phone": "6502541041",
    "website": "https://www.mountainview.gov/depts/cs/rec/sportsandfitness/pickleball.asp",
    "photo_url": "https://cdn.filestackcontent.com/lOqTPD9mTLSWv3w7J7BE",
    "has_restrooms": true,
    "nets_provided": true,
    "skill_levels": "beginner,intermediate",
    "court_type": "dedicated"
  },
  {
    "county_slug": "santa-clara",
    "state": "CA",
    "verified": false,
    "name": "River Glen Park",
    "description": "River Glen Park is a place to play pickleball in San Jose, CA. There are 2 outdoor hard courts. The lines are permanent, but you'll need to bring your own net. Players have access to restrooms and water. The courts are free.",
    "address": "1600 Parkside Ave",
    "city": "San Jose",
    "zip_code": "95125",
    "latitude": 37.301762,
    "longitude": -121.887646,
    "indoor": false,
    "num_courts": 2,
    "surface_type": "Hard",
    "fees": "Free",
    "phone": "(408) 535-3570",
    "website": "https://www.sanjoseca.gov/Home/Components/FacilityDirectory/FacilityDirectory/2355/2028?npage=11",
    "photo_url": "https://cdn.filestackcontent.com/4LQMPFU7QyOdYToFEj3u",
    "has_restrooms": true,
    "has_water": true,
    "nets_provided": false,
    "skill_levels": "intermediate",
    "court_type": "dedicated"
  },
  {
    "county_slug": "santa-clara",
    "state": "CA",
    "verified": false,
    "name": "San Jose Swim & Racquet Club",
    "description": "Come play pickleball at San Jose Swim & Racquet Club in San Jose, CA! There are 3 outdoor hard courts. The lines are permanent, and portable nets are available. The facility includes amenities like restrooms, water, lights, wheelchair accessibility, locker rooms, and trainers or lessons. A membership is required to play. You can reserve the courts.",
    "address": "1170 Pedro St",
    "city": "San Jose",
    "latitude": 37.312434,
    "longitude": -121.907264,
    "indoor": false,
    "lighted": true,
    "num_courts": 3,
    "surface_type": "Hard",
    "fees": "Members only",
    "phone": "+14083168805",
    "website": "https://www.sjsrc.com/",
    "email": "reno@sjsrc.com",
    "photo_url": "https://cdn.filestackcontent.com/6LNrgcPRS6qeC6BCuXIV",
    "has_restrooms": true,
    "has_water": true,
    "wheelchair_accessible": true,
    "nets_provided": true,
    "skill_levels": "beginner,intermediate",
    "court_type": "dedicated"
  },
  {
    "county_slug": "santa-clara",
    "state": "CA",
    "verified": false,
    "name": "Santa Clara Adult Education",
    "description": "This court is for lessons only. No open play.",
    "address": "1840 Benton St",
    "city": "Santa Clara",
    "latitude": 37.346601,
    "longitude": -121.955373,
    "indoor": true,
    "num_courts": 6,
    "surface_type": "Wood",
    "open_play_schedule": "https://www.santaclaraadulted.org/class/?fwp_classes=team-sports",
    "fees": "Fee required — See Santa Clara Adult Ed website to register for classes.",
    "phone": "+14084067876",
    "website": "https://www.santaclaraadulted.org/class/?fwp_classes=team-sports",
    "email": "cleonard@scusd.net",
    "photo_url": "https://cdn.filestackcontent.com/BUddiskTS3WcLsXXh8Ob",
    "has_restrooms": true,
    "has_water": true,
    "nets_provided": true,
    "skill_levels": "beginner,intermediate",
    "court_type": "dedicated"
  },
  {
    "county_slug": "santa-clara",
    "state": "CA",
    "verified": false,
    "name": "Santa Clara Community Recreation Center at Central Park",
    "description": "See website for reservation hours and free play hours.\n\nThe City of Santa Clara has partnered with Lifetime Activities to introduce a new Pickleball Pilot Program.\n\nWith the resurfacing of two tennis courts in Central Park near the Community Recreation Center (CRC), the City of Santa Clara has taken this opportunity to cater to the growing interest in pickleball by transforming the two courts into a flexible community recreational area. Six pickleball courts with blended lines have been introduced for a better multi-sport racquet experience for the community.\n\nPlayers must check in by phone or in person before going to their assigned court.\n\nReservations can be made by phone at 408-247-0178 or online.\n\nLifetime Activities will be providing pickleball nets during designated pickleball hours. Once the pickleball hours conclude, tennis play will resume and the courts will remain illuminated until 10 p.m. \n\nPro shop is located at 2625 Hayward Drive, Santa Clara, CA 95051",
    "address": "969 Kiely Blvd",
    "city": "Santa Clara",
    "latitude": 37.342874,
    "longitude": -121.976504,
    "indoor": false,
    "lighted": true,
    "num_courts": 6,
    "surface_type": "Hard",
    "fees": "Free",
    "phone": "+14082470178",
    "website": "https://www.lifetimeactivities.com/santa-clara/pickleball/",
    "email": "santaclara@lifetimeactivities.com",
    "photo_url": "https://cdn.filestackcontent.com/IBB2bhCQSnidpEYSpZms",
    "has_restrooms": true,
    "has_water": true,
    "has_pro_shop": true,
    "wheelchair_accessible": true,
    "nets_provided": true,
    "skill_levels": "beginner,intermediate",
    "court_type": "dedicated",
    "has_ball_machine": true
  },
  {
    "county_slug": "santa-clara",
    "state": "CA",
    "verified": false,
    "name": "Silicon Valley Table Tennis and Pickleball",
    "description": "reservations only",
    "address": "1827 Houret Ct",
    "city": "Milpitas",
    "latitude": 37.404827,
    "longitude": -121.897243,
    "indoor": true,
    "lighted": true,
    "num_courts": 1,
    "surface_type": "Acrylic",
    "fees": "Private — $50 two hours",
    "phone": "+16502356796",
    "website": "https://www.svtabletennis.com/pickleball",
    "email": "hellosvttc@gmail.com",
    "photo_url": "https://cdn.filestackcontent.com/Mhf0nS2RxiQQpy9Yo6I0",
    "has_restrooms": true,
    "nets_provided": true,
    "skill_levels": "beginner,intermediate",
    "court_type": "dedicated"
  },
  {
    "county_slug": "santa-clara",
    "state": "CA",
    "verified": false,
    "name": "Silver Creek Valley Country Club",
    "description": "Silver Creek Valley Country Club is one of the most popular places to play pickleball in San Jose, CA. There are 6 outdoor acrylic courts. These are dedicated courts with permanent lines and nets. A membership is required to play. You can reserve the courts. Amenities include restrooms, water, locker rooms, lights, a pro shop or equipment store, trainers or lessons, wheelchair accessibility, and food.",
    "address": "5967 Country Club Pkwy",
    "city": "San Jose",
    "zip_code": "95138",
    "latitude": 37.280963,
    "longitude": -121.763351,
    "indoor": false,
    "lighted": true,
    "num_courts": 6,
    "surface_type": "Acrylic",
    "fees": "Members only — Tier Based Membership Options",
    "phone": "+14082395888",
    "website": "http://www.scvcc.com/",
    "email": "e.maltby@cliffdrysdale.com",
    "photo_url": "https://cdn.filestackcontent.com/hPYjnGh5TOGd1C0OIunk",
    "has_restrooms": true,
    "has_water": true,
    "has_pro_shop": true,
    "wheelchair_accessible": true,
    "nets_provided": true,
    "skill_levels": "beginner,intermediate",
    "court_type": "dedicated"
  },
  {
    "county_slug": "santa-clara",
    "state": "CA",
    "verified": false,
    "name": "Sunnyvale Community Center",
    "description": "Sunnyvale Community Center is one of the most popular places to play pickleball in Sunnyvale, CA. There are 6 indoor hard courts. The lines are permanent, but you'll need to bring your own net. The facility includes amenities like restrooms. A one-time fee is required to play.",
    "address": "550 E Remington Dr",
    "city": "Sunnyvale",
    "zip_code": "94087",
    "latitude": 37.35666,
    "longitude": -122.02425,
    "indoor": true,
    "num_courts": 6,
    "surface_type": "Hard",
    "fees": "Fee required",
    "phone": "(408) 730-7350",
    "website": "https://www.sunnyvale.ca.gov/recreation-and-community/community-centers/community-center",
    "photo_url": "https://cdn.filestackcontent.com/9IXCfbKfSEuRJ9oNLwX7",
    "has_restrooms": true,
    "nets_provided": false,
    "skill_levels": "beginner,intermediate",
    "court_type": "dedicated"
  },
  {
    "county_slug": "santa-clara",
    "state": "CA",
    "verified": false,
    "name": "Sunnyvale Tennis Center",
    "description": "Come play pickleball at Sunnyvale Tennis Center in Sunnyvale, CA! There are 12 outdoor acrylic and hard courts. These are dedicated courts with permanent lines and nets. The courts can be reserved. The facility includes amenities like restrooms, food, water, lights, trainers or lessons, and youth programming. A one-time fee is required to play.",
    "address": "755 S Mathilda Ave",
    "city": "Sunnyvale",
    "zip_code": "94087",
    "latitude": 37.36444,
    "longitude": -122.03807,
    "indoor": false,
    "lighted": true,
    "num_courts": 12,
    "surface_type": "Acrylic, Hard",
    "fees": "Fee required — Resident: $10 per hour | Non-Resident: $13 per hour",
    "phone": "408) 735-7285",
    "website": "https://www.lifetimeactivities.com/sunnyvale/",
    "photo_url": "https://cdn.filestackcontent.com/gYnSW63RXKRUAhEcH0HI",
    "has_restrooms": true,
    "has_water": true,
    "nets_provided": true,
    "skill_levels": "beginner,intermediate",
    "court_type": "dedicated",
    "hours": "Sat 8AM-10PM",
    "has_pro_shop": true,
    "has_ball_machine": true
  },
  {
    "county_slug": "santa-clara",
    "state": "CA",
    "verified": false,
    "name": "Sunrise Park",
    "description": "Sunrise Park is one of the most popular places to play pickleball in Gilroy, CA. There are 4 outdoor asphalt courts. The lines are permanent, but you'll need to bring your own net. The courts are free.",
    "address": "9525 Saddler Dr",
    "city": "Gilroy",
    "zip_code": "95020",
    "latitude": 37.030106,
    "longitude": -121.603365,
    "indoor": false,
    "num_courts": 4,
    "surface_type": "Asphalt",
    "fees": "Free",
    "phone": "(408) 846-0460",
    "website": "https://cityofgilroy.org/Facilities",
    "photo_url": "https://cdn.filestackcontent.com/69YjYBxdQfWQ1hhpghKi",
    "nets_provided": false,
    "skill_levels": "intermediate",
    "court_type": "dedicated",
    "has_parking": true,
    "has_restrooms": true,
    "wheelchair_accessible": true
  },
  {
    "county_slug": "santa-clara",
    "state": "CA",
    "verified": false,
    "name": "Sunrise Park Pickleball",
    "description": "Come play pickleball at Sunrise Park Pickleball in Gilroy, CA! There are 2 outdoor courts. The lines are permanent, and portable nets are available. The courts are free.",
    "address": "Sunrise Park",
    "city": "Gilroy",
    "latitude": 37.031135,
    "longitude": -121.605133,
    "indoor": false,
    "num_courts": 2,
    "fees": "Free",
    "phone": "+14088460460",
    "website": "https://cityofgilroy.org/Facilities",
    "photo_url": "https://cdn.filestackcontent.com/8ohZiyFtQlaIcIIjSyR2",
    "nets_provided": true,
    "skill_levels": "beginner,intermediate",
    "court_type": "dedicated",
    "has_parking": true,
    "has_restrooms": true,
    "wheelchair_accessible": true
  },
  {
    "county_slug": "santa-clara",
    "state": "CA",
    "verified": false,
    "name": "The HUB Silicon Valley",
    "description": "Come play pickleball at The HUB Silicon Valley in Campbell, CA! There are 20 indoor courts. These are dedicated courts with permanent lines and nets. Reservations are available. The facility includes amenities like a pro shop or equipment store, restrooms, lights, and trainers or lessons. A membership is required to play.",
    "address": "600 E Hamilton Ave #150",
    "city": "Campbell",
    "latitude": 37.292202,
    "longitude": -121.938956,
    "indoor": true,
    "lighted": true,
    "num_courts": 20,
    "fees": "Members only",
    "phone": "+18334843482",
    "website": "https://thehubpickleball.com/the-hub-silicon-valley/",
    "email": "Info@thehubpickleball.com",
    "photo_url": "https://cdn.filestackcontent.com/0xvZb3z4Qxus6U5o3DIL",
    "has_restrooms": true,
    "has_pro_shop": true,
    "nets_provided": true,
    "skill_levels": "intermediate",
    "court_type": "dedicated"
  },
  {
    "county_slug": "santa-clara",
    "state": "CA",
    "verified": false,
    "name": "Thousand Trails Rv Park",
    "description": "Thousand Trails Rv Park is a place to play pickleball in Morgan Hill, CA. There are 2 outdoor hard courts. These are dedicated courts with permanent lines and nets. The courts are private. The facility includes amenities like restrooms.",
    "address": "12895 Uvas Rd",
    "city": "Morgan Hill",
    "zip_code": "95037",
    "latitude": 37.057481,
    "longitude": -121.666686,
    "indoor": false,
    "num_courts": 2,
    "surface_type": "Hard",
    "fees": "Private",
    "website": "https://thousandtrails.com/california/morgan-hill-rv-resort/?utm_source=yext&utm_medium=directory&utm_campaign=Yext%20Directory%20Listing",
    "photo_url": "https://cdn.filestackcontent.com/LzNaGwNmRvqlDcAL8hhl",
    "has_restrooms": true,
    "nets_provided": true,
    "skill_levels": "beginner",
    "court_type": "dedicated"
  },
  {
    "county_slug": "santa-clara",
    "state": "CA",
    "verified": false,
    "name": "Versailles",
    "description": "Come play pickleball at Versailles in Saratoga, CA! There is 1 outdoor asphalt court. The lines are overlaid on a tennis court, so the net is a little taller than a normal pickleball net. The court is private.",
    "address": "19653 Versailles Way",
    "city": "Saratoga",
    "latitude": 37.257211,
    "longitude": -122.016847,
    "indoor": false,
    "num_courts": 1,
    "surface_type": "Asphalt",
    "fees": "Private",
    "phone": "6503365618",
    "email": "radovan.bauer@gmail.com",
    "skill_levels": "beginner",
    "court_type": "dedicated"
  },
  {
    "county_slug": "santa-clara",
    "state": "CA",
    "verified": false,
    "name": "West Valley College",
    "description": "Come play pickleball at West Valley College in Saratoga, CA! There are 6 outdoor hard courts. These are dedicated courts with permanent lines and nets. Players have access to lights. The courts are free.",
    "address": "14000 Fruitvale Ave",
    "city": "Saratoga",
    "zip_code": "95070",
    "latitude": 37.266829,
    "longitude": -122.01373,
    "indoor": false,
    "lighted": true,
    "num_courts": 6,
    "surface_type": "Hard",
    "fees": "Free",
    "website": "https://www.westvalley.edu/catalog/courses/kinesiology/kins7-16.html",
    "email": "patti.tonello@gmail.com",
    "photo_url": "https://cdn.filestackcontent.com/ojOXMUlAQQo4SUEldhsV",
    "nets_provided": true,
    "skill_levels": "advanced,intermediate",
    "court_type": "dedicated",
    "has_parking": true
  },
  {
    "county_slug": "santa-clara",
    "state": "CA",
    "verified": false,
    "name": "Wheeler Community Center",
    "description": "Wheeler Community Center is one of the most popular places to play pickleball in Gilroy, CA. There are 2 indoor wood courts. The lines are permanent, and portable nets are available. Players have access to restrooms and water. The courts are free.",
    "address": "295 W Sixth St",
    "city": "Gilroy",
    "zip_code": "95020",
    "latitude": 37.005972,
    "longitude": -121.572207,
    "indoor": true,
    "num_courts": 2,
    "surface_type": "Wood",
    "open_play_schedule": "Sept 18 to Dec 15, 2023 No class: 10/11, 11/10, 11/20, 11/22, 11/24",
    "fees": "Free",
    "phone": "4088460460",
    "website": "https://www.cityofgilroy.org/facilities/facility/details/wheelercenter-26",
    "photo_url": "https://cdn.filestackcontent.com/3I6zsEMqQeGPsHaRPCqZ",
    "has_restrooms": true,
    "has_water": true,
    "nets_provided": true,
    "skill_levels": "beginner,intermediate",
    "court_type": "dedicated"
  },
  {
    "county_slug": "santa-clara",
    "state": "CA",
    "verified": false,
    "name": "Willow Court",
    "description": "Come play pickleball at Willow Court in San Jose, CA! There is 1 outdoor concrete court. Tape lines have been laid, and portable nets are available. The court is private. Reservations are not available. The facility includes amenities like youth programming, water, and wheelchair accessibility.",
    "address": "Cherry Avenue",
    "city": "San Jose",
    "latitude": 37.282309,
    "longitude": -121.895301,
    "indoor": false,
    "num_courts": 1,
    "surface_type": "Concrete",
    "open_play_schedule": "Court cannot be reserved. Only admins of the Willow Court Group can host/reserve the court.",
    "fees": "Private — Fee depends on event type",
    "phone": "+15105569245",
    "email": "Raygup12@gmail.com",
    "photo_url": "https://cdn.filestackcontent.com/8bWO6jQEecupd9S1eYCg",
    "has_water": true,
    "wheelchair_accessible": true,
    "nets_provided": true,
    "skill_levels": "intermediate",
    "court_type": "shared"
  },
  {
    "county_slug": "santa-clara",
    "state": "CA",
    "verified": false,
    "name": "Willow Street Frank Bramhall Park",
    "description": "Willow Street Frank Bramhall Park is one of the most popular places to play pickleball in San Jose, CA. There are 2 outdoor courts. These are dedicated courts with permanent lines and nets. The courts are free. The courts can be reserved.",
    "address": "1320 Willow St",
    "city": "San Jose",
    "zip_code": "95125",
    "latitude": 37.303418,
    "longitude": -121.908834,
    "indoor": false,
    "num_courts": 2,
    "fees": "Free",
    "phone": "(408) 793-5510",
    "website": "https://www.sanjoseca.gov/Home/Components/FacilityDirectory/FacilityDirectory/2707/36",
    "photo_url": "https://cdn.filestackcontent.com/vxTrihXDRb6cClrELfeG",
    "nets_provided": true,
    "skill_levels": "beginner,intermediate",
    "court_type": "dedicated"
  }
]