[
  {
    "county_slug": "santa-cruz",
    "state": "CA",
    "verified": false,
    "name": "Bear Creek Community Center",
    "description": "Come play pickleball at Bear Creek Community Center in Boulder Creek, CA! There are 4 outdoor hard courts. These are dedicated courts with permanent lines and nets. Players have access to restrooms. The courts are free.",
    "address": "15685 Forest Hill Dr",
    "city": "Boulder Creek",
    "latitude": 37.140659,
    "longitude": -122.092577,
    "indoor": false,
    "num_courts": 4,
    "surface_type": "Hard",
    "fees": "Free",
    "phone": "+18317034135",
    "website": "https://www.bcrpd.org/",
    "photo_url": "https://cdn.filestackcontent.com/9CJupt8wT1CjcsrI2sQ4",
    "has_restrooms": true,
    "nets_provided": true,
    "skill_levels": "beginner",
    "court_type": "dedicated"
  },
  {
    "county_slug": "santa-cruz",
    "state": "CA",
    "verified": false,
    "name": "Brommer Park - Santa Cruz",
    "description": "New reservation system! Reservations and live court schedule are on accessible from the scparks.com website. 4 permanent courts with nets, 4 additional courts with bring-your-own-net available when tennis courts are not in use.",
    "address": "1451 30th Ave",
    "city": "Santa Cruz",
    "zip_code": "95062",
    "latitude": 36.970834,
    "longitude": -121.974658,
    "indoor": false,
    "num_courts": 8,
    "surface_type": "Clay, Hard",
    "open_play_schedule": "Santa Cruz pickleball club. Social play first hour then skill play 10-12. Community drop-in is always available on court #1 and on courts #2, #3, #4 when they're not reserved.",
    "fees": "Free",
    "phone": "8314547900",
    "website": "https://www.scparks.com/Home/ExploreOurParksBeaches/AllCountyParks/BrommerStreetCountyPark.aspx",
    "photo_url": "https://cdn.filestackcontent.com/EiExnanQSuRiu89uvr7g",
    "has_restrooms": true,
    "has_water": true,
    "nets_provided": true,
    "skill_levels": "beginner,intermediate",
    "court_type": "dedicated",
    "has_parking": true
  },
  {
    "county_slug": "santa-cruz",
    "state": "CA",
    "verified": false,
    "name": "Callaghan Park",
    "description": "Callaghan Park is a place to play pickleball in Watsonville, CA. There are 6 outdoor hard courts. These are dedicated courts with permanent lines and nets. Amenities include restrooms and water. The courts are free.",
    "address": "225 Sudden St",
    "city": "Watsonville",
    "zip_code": "95076",
    "latitude": 36.917461,
    "longitude": -121.759405,
    "indoor": false,
    "num_courts": 6,
    "surface_type": "Hard",
    "fees": "Free",
    "phone": "+18317286084",
    "website": "https://www.watsonville.gov/2326/Parks-Community-Services",
    "photo_url": "https://cdn.filestackcontent.com/DbSeyNqTd2VszQMWFsVl",
    "has_restrooms": true,
    "has_water": true,
    "nets_provided": true,
    "skill_levels": "advanced,intermediate",
    "court_type": "dedicated"
  },
  {
    "county_slug": "santa-cruz",
    "state": "CA",
    "verified": false,
    "name": "La Madrona Athletic Club",
    "description": "La Madrona offers four beautifully lit pickleball courts in the Santa Cruz mountains next to Scotts Valley. Our staff of pickleball professionals is very accommodating to players of all styles and abilities and is dedicated to helping you reach your highest potential.\n\nOur pickleball clinics, drop-ins, and lessons are open to members and non-members all year round.",
    "address": "1897 La Madrona Drive",
    "city": "Santa Cruz",
    "latitude": 37.020793,
    "longitude": -122.028694,
    "indoor": false,
    "lighted": true,
    "num_courts": 4,
    "surface_type": "Hard",
    "fees": "Fee required — PRICES\nPrivate lessons available upon request.\n\n1 hour class – $20 members / $25 non-members\n\n1.5 hour class – $25 members / $30 non-members\n\nMember Drop-in, Smash Masters Showdown, Lad",
    "phone": "8314381072",
    "website": "https://lmac.caclubs.com/pickleball",
    "email": "ichadwell@caclubs.com",
    "photo_url": "https://cdn.filestackcontent.com/4Pe30jpQIeLxGCX0fEZg",
    "has_restrooms": true,
    "has_water": true,
    "has_pro_shop": true,
    "nets_provided": true,
    "skill_levels": "intermediate",
    "court_type": "dedicated"
  },
  {
    "county_slug": "santa-cruz",
    "state": "CA",
    "verified": false,
    "name": "Seascape Sports Club",
    "description": "Seascape Sports Club is one of the most popular places to play pickleball in Aptos, CA. There are 12 outdoor hard courts. These are dedicated courts with permanent lines and nets. Amenities include restrooms, a pro shop or equipment store, water, and lights. A membership is required to play.",
    "address": "1505 Seascape Blvd",
    "city": "Aptos",
    "zip_code": "95003",
    "latitude": 36.951949,
    "longitude": -121.877236,
    "indoor": false,
    "lighted": true,
    "num_courts": 12,
    "surface_type": "Hard",
    "fees": "Members only — Private Club, you need to be a member, a guest of a member, or a guest of the Sea Scape Resort.",
    "phone": "8316881993",
    "website": "http://seascapesportsclub.com/",
    "photo_url": "https://cdn.filestackcontent.com/al59njMgTYys9cWtY6wd",
    "has_restrooms": true,
    "has_water": true,
    "has_pro_shop": true,
    "nets_provided": true,
    "skill_levels": "beginner,intermediate",
    "court_type": "dedicated"
  },
  {
    "county_slug": "santa-cruz",
    "state": "CA",
    "verified": false,
    "name": "Sgt. Derby Park - Santa Cruz",
    "description": "Come play pickleball at Sgt. Derby Park - Santa Cruz in Santa Cruz, CA! There are 6 outdoor hard courts. These are dedicated courts with permanent lines and nets. The facility includes amenities like restrooms and water. The courts are free.",
    "address": "506 Woodland Way",
    "city": "Santa Cruz",
    "zip_code": "95060",
    "latitude": 36.953492,
    "longitude": -122.052558,
    "indoor": false,
    "num_courts": 6,
    "surface_type": "Hard",
    "fees": "Free",
    "phone": "8314205270",
    "website": "http://www.cityofsantacruz.com/government/city-departments/parks-recreation/parks-beaches-open-spaces/parks/sergeant-derby-park",
    "photo_url": "https://cdn.filestackcontent.com/LMcEQS0zQ3CV0iJmm4sg",
    "has_restrooms": true,
    "has_water": true,
    "nets_provided": true,
    "skill_levels": "beginner,intermediate",
    "court_type": "dedicated",
    "hours": "spaces/parks/sergeant-derby-park\" on this server. Reference #18.4560d017.1771009443.165be190 https://errors.edgesuite.net/18.4560d017.1771009443.165be190"
  },
  {
    "county_slug": "santa-cruz",
    "state": "CA",
    "verified": false,
    "name": "Skypark Courts",
    "description": "Come play pickleball at Skypark Courts in Scotts Valley, CA! There are 8 outdoor hard courts. These are dedicated courts with permanent lines and nets. The courts are free. The facility includes amenities like lights.",
    "address": "912 Coast Range Dr",
    "city": "Scotts Valley",
    "latitude": 37.053739,
    "longitude": -122.032163,
    "indoor": false,
    "lighted": true,
    "num_courts": 8,
    "surface_type": "Hard",
    "fees": "Free",
    "phone": "8314383251",
    "website": "http://www.scottsvalley.org/",
    "photo_url": "https://cdn.filestackcontent.com/c0nMojApSu6N0LWwCCnG",
    "nets_provided": true,
    "skill_levels": "intermediate",
    "court_type": "dedicated"
  },
  {
    "county_slug": "santa-cruz",
    "state": "CA",
    "verified": false,
    "name": "Willowbrook Park - Aptos",
    "description": "Willowbrook Park - Aptos is a place to play pickleball in Aptos, CA. There are 5 outdoor hard and clay courts. The lines are permanent, and portable nets are available. Amenities include restrooms and water. The courts can be reserved. The courts are free.",
    "address": "2950 Willowbrook Ln",
    "city": "Aptos",
    "zip_code": "95003",
    "latitude": 36.987405,
    "longitude": -121.93275,
    "indoor": false,
    "num_courts": 5,
    "surface_type": "Hard, Clay",
    "fees": "Free",
    "phone": "(831) 454-7901",
    "website": "http://www.scparks.com/Home/Parks/ListofAllCountyParks/WillowbrookPark.aspx",
    "email": "parksinfo@scparks.com",
    "photo_url": "https://cdn.filestackcontent.com/1NoE5nBQROBh72vuDJcS",
    "has_restrooms": true,
    "has_water": true,
    "nets_provided": true,
    "skill_levels": "beginner,intermediate",
    "court_type": "dedicated"
  }
]