[
  {
    "county_slug": "santa-barbara",
    "state": "CA",
    "verified": false,
    "name": "Carpinteria Community Tennis and Pickleball Courts",
    "description": "Contact us on Facebook:  Carpinteria Pickleball Club\n\nCourts are located on the corner of 8th and Palm (turn onto Palm off of Carpinteria Ave)\n\nRestrooms are located at the community pool during business hours and not available on Sunday’s when the community pool is closed.\n\nCourts are only available after school hours during the week, weekends, holiday weeks and summers.\n\nSchool gets out at 3 pm all weekdays except (1:30 on Wednesday)",
    "address": "Palm Ave",
    "city": "Carpinteria",
    "zip_code": "93013",
    "latitude": 34.393685,
    "longitude": -119.519618,
    "indoor": false,
    "num_courts": 2,
    "surface_type": "Concrete",
    "open_play_schedule": "The courts are used during the school year by the students.  School is out at 3 pm weekdays (1:30 on Wed)",
    "fees": "Free",
    "website": "https://carpinteriaca.gov/parks-and-recreation/carpinteria-community-pool/",
    "photo_url": "https://cdn.filestackcontent.com/7cPLrQDaRNKR2JA4YaNu",
    "has_restrooms": true,
    "wheelchair_accessible": true,
    "nets_provided": true,
    "skill_levels": "intermediate",
    "court_type": "dedicated",
    "hours": "Wednesdays 2 pm-3 pm",
    "has_parking": true
  },
  {
    "county_slug": "santa-barbara",
    "state": "CA",
    "verified": false,
    "name": "Cathedral Oaks Athletic Club",
    "description": "Come play pickleball at Cathedral Oaks Athletic Club in Goleta, CA! There are 4 outdoor hard courts. These are dedicated courts with permanent lines and nets. A membership is required to play. The facility includes amenities like restrooms and water.",
    "address": "5800 Cathedral Oaks Rd",
    "city": "Goleta",
    "zip_code": "93117",
    "latitude": 34.452788,
    "longitude": -119.824492,
    "indoor": false,
    "num_courts": 4,
    "surface_type": "Hard",
    "fees": "Members only",
    "phone": "8059647762",
    "website": "http://coac.swellclubs.com/",
    "photo_url": "https://cdn.filestackcontent.com/NKbk9PoSCuut4aPNV270",
    "has_restrooms": true,
    "has_water": true,
    "nets_provided": true,
    "skill_levels": "beginner,intermediate",
    "court_type": "dedicated"
  },
  {
    "county_slug": "santa-barbara",
    "state": "CA",
    "verified": false,
    "name": "Central Coast Tennis",
    "description": "Central Coast Tennis is one of the most popular places to play pickleball in Santa Maria, CA. There are 4 outdoor concrete courts. These are dedicated courts with permanent lines and nets. A membership is required to play. You can reserve the courts. Players have access to lights and restrooms.",
    "address": "Santa Maria Country Club",
    "city": "Santa Maria",
    "latitude": 34.907235,
    "longitude": -120.442912,
    "indoor": false,
    "lighted": true,
    "num_courts": 4,
    "surface_type": "Concrete",
    "fees": "Members only",
    "phone": "+18059373222",
    "website": "http://www.centralcoasttennis.net/",
    "email": "centralcoasttennis805@gmail.com",
    "photo_url": "https://cdn.filestackcontent.com/8ycg8QBRToyqL3CKrETW",
    "has_restrooms": true,
    "nets_provided": true,
    "skill_levels": "advanced,beginner,intermediate",
    "court_type": "dedicated",
    "has_pro_shop": true
  },
  {
    "county_slug": "santa-barbara",
    "state": "CA",
    "verified": false,
    "name": "Dynamite Pickleball",
    "description": "Go to dynamitepickleball.com to see updated schedule, as this is heavily programmed, with leagues, lessons, tournaments, open play, beginners etc.",
    "address": "3400 Calle Real Santa Barbara",
    "city": "Santa Barbara",
    "latitude": 34.43069,
    "longitude": -119.735501,
    "indoor": false,
    "lighted": true,
    "num_courts": 7,
    "surface_type": "Concrete",
    "open_play_schedule": "Our schedule can be viewed in Court Reserve or found on our website (dynamitepickleball.com)",
    "fees": "Fee required — Prices vary based on event.",
    "phone": "8056378667",
    "website": "https://dynamitepickleball.com",
    "email": "Tracy@dynamitepickleball.com",
    "photo_url": "https://cdn.filestackcontent.com/aZ5HJ66cT962RnhJrXfA",
    "has_restrooms": true,
    "nets_provided": true,
    "skill_levels": "advanced,intermediate",
    "court_type": "dedicated"
  },
  {
    "county_slug": "santa-barbara",
    "state": "CA",
    "verified": false,
    "name": "Evergreen Park",
    "description": "Evergreen Park is a place to play pickleball in Goleta, CA. There are 2 outdoor hard courts. The lines are permanent, but you'll need to bring your own net. Amenities include restrooms. The courts are free.",
    "address": "7524 Padova Dr",
    "city": "Goleta",
    "zip_code": "93117",
    "latitude": 34.437462,
    "longitude": -119.891086,
    "indoor": false,
    "num_courts": 2,
    "surface_type": "Hard",
    "fees": "Free",
    "phone": "6199874629",
    "website": "http://www.cityofgoleta.org/",
    "photo_url": "https://cdn.filestackcontent.com/Bq2ISUazSdaWyebKT7Js",
    "has_restrooms": true,
    "nets_provided": false,
    "skill_levels": "beginner,intermediate",
    "court_type": "dedicated"
  },
  {
    "county_slug": "santa-barbara",
    "state": "CA",
    "verified": false,
    "name": "Goleta valley community courts",
    "description": "Goleta valley community courts is one of the most popular places to play pickleball in Goleta, CA. There are 5 outdoor asphalt courts. These are dedicated courts with permanent lines and nets. A one-time fee is required to play. The courts can be reserved. The facility includes amenities like lights and restrooms.",
    "address": "5681 Hollister Ave #14b",
    "city": "Goleta",
    "latitude": 34.434251,
    "longitude": -119.823546,
    "indoor": false,
    "lighted": true,
    "num_courts": 5,
    "surface_type": "Asphalt",
    "fees": "Fee required — Fee required to reserve courts ($60/year)",
    "phone": "(805) 967-1237",
    "website": "https://www.thegvcc.org/pickleball",
    "email": "Reservations@thegvcc.org",
    "photo_url": "https://cdn.filestackcontent.com/tASCbLSXTOkupe7EtVvm",
    "has_restrooms": true,
    "nets_provided": true,
    "skill_levels": "advanced,intermediate",
    "court_type": "dedicated",
    "has_parking": true
  },
  {
    "county_slug": "santa-barbara",
    "state": "CA",
    "verified": false,
    "name": "Hagerman Sports Complex",
    "description": "Hagerman Sports Complex is one of the most popular places to play pickleball in Santa Maria, CA. There are 6 outdoor hard courts. These are dedicated courts with permanent lines and nets. The courts are free. You can reserve the courts. Players have access to restrooms, wheelchair accessibility, and lights.",
    "address": "3300 Skyway Dr",
    "city": "Santa Maria",
    "zip_code": "93455",
    "latitude": 34.900167,
    "longitude": -120.446546,
    "indoor": false,
    "lighted": true,
    "num_courts": 6,
    "surface_type": "Hard",
    "fees": "Free",
    "phone": "8059250951",
    "website": "https://www.cityofsantamaria.org/city-government/departments/recreation-and-parks/get-active/hagerman-sports-complex",
    "photo_url": "https://cdn.filestackcontent.com/TJoTKzNVQDetHU4To755",
    "has_restrooms": true,
    "wheelchair_accessible": true,
    "nets_provided": true,
    "skill_levels": "beginner,intermediate",
    "court_type": "dedicated"
  },
  {
    "county_slug": "santa-barbara",
    "state": "CA",
    "verified": false,
    "name": "Hans Christian Andersen Park",
    "description": "Hans Christian Andersen Park is a place to play pickleball in Solvang, CA. There are 4 outdoor concrete courts. These are dedicated courts with permanent lines and nets. The courts are free. The facility includes amenities like restrooms and water.",
    "address": "633 Chalk Hill Rd",
    "city": "Solvang",
    "zip_code": "93463",
    "latitude": 34.60051,
    "longitude": -120.142376,
    "indoor": false,
    "num_courts": 4,
    "surface_type": "Concrete",
    "fees": "Free",
    "phone": "8056887529",
    "website": "http://www.cityofsolvang.com/",
    "photo_url": "https://cdn.filestackcontent.com/VVfkvGhRqcZbo1vgbzPw",
    "has_restrooms": true,
    "has_water": true,
    "nets_provided": true,
    "skill_levels": "advanced,intermediate",
    "court_type": "dedicated"
  },
  {
    "county_slug": "santa-barbara",
    "state": "CA",
    "verified": false,
    "name": "Hilton Santa Barbara Beachfront Resort",
    "description": "Come play pickleball at Hilton Santa Barbara Beachfront Resort in Santa Barbara, CA! There are 6 outdoor hard courts. These are dedicated courts with permanent lines and nets. A one-time fee is required to play. The facility includes amenities like restrooms. You can reserve the courts.",
    "address": "633 East Cabrillo Boulevard",
    "city": "Santa Barbara",
    "latitude": 34.416995,
    "longitude": -119.675993,
    "indoor": false,
    "num_courts": 6,
    "surface_type": "Hard",
    "open_play_schedule": "Reserve courts in 2-hour blocks of time.",
    "fees": "Fee required — $38 for booked 2-hour court.",
    "phone": "+18055644333",
    "website": "https://www.hilton.com/en/hotels/sbafphh-hilton-santa-barbara-beachfront-resort/?SEO_id=GMB-AMER-HH-SBAFPHH&y_source=1_MTM3Mjc4MC03MTUtbG9jYXRpb24ud2Vic2l0ZQ%3D%3D",
    "photo_url": "https://cdn.filestackcontent.com/wPM3H9ZRt63mxmMo67iA",
    "has_restrooms": true,
    "nets_provided": true,
    "skill_levels": "intermediate",
    "court_type": "dedicated"
  },
  {
    "county_slug": "santa-barbara",
    "state": "CA",
    "verified": false,
    "name": "Jonata Middle School",
    "description": "Jonata Middle School is a place to play pickleball in Buellton, CA. There are 3 indoor hard courts. The lines are permanent, and portable nets are available. A one-time fee is required to play. The facility includes amenities like restrooms.",
    "address": "301 2nd St",
    "city": "Buellton",
    "zip_code": "93427",
    "latitude": 34.618766,
    "longitude": -120.198996,
    "indoor": true,
    "num_courts": 3,
    "surface_type": "Hard",
    "fees": "Fee required",
    "phone": "8058953853",
    "website": "https://jonatams.buelltonusd.org/",
    "has_restrooms": true,
    "nets_provided": true,
    "skill_levels": "advanced,beginner,intermediate",
    "court_type": "dedicated"
  },
  {
    "county_slug": "santa-barbara",
    "state": "CA",
    "verified": false,
    "name": "Jonny D. Wallis Neighborhood Park",
    "description": "Currently closed due to construction",
    "address": "170 S Kellogg Ave",
    "city": "Goleta",
    "zip_code": "93117",
    "latitude": 34.436903,
    "longitude": -119.819685,
    "indoor": false,
    "num_courts": 1,
    "fees": "Free",
    "phone": "6199874629",
    "website": "https://www.cityofgoleta.org/",
    "photo_url": "https://cdn.filestackcontent.com/WLpchFhIQJKOHb5VGRen",
    "nets_provided": true,
    "skill_levels": "beginner,intermediate",
    "court_type": "dedicated"
  },
  {
    "county_slug": "santa-barbara",
    "state": "CA",
    "verified": false,
    "name": "Kellogg Pickleball Courts",
    "description": "Location official name is Kellogg Tennis Courts or Kellogg Open Space. The pickleball courts are now permanent. The last tennis court was converted to four pickleball courts, fences are between all the courts. A paddle-up line system is used at these courts. You rotate out after each game if there are people waiting in the paddle-up line.",
    "address": "642 N Kellogg Ave",
    "city": "Goleta",
    "latitude": 34.449683,
    "longitude": -119.816146,
    "indoor": false,
    "num_courts": 4,
    "surface_type": "Hard",
    "open_play_schedule": "Popular on weekends especially after lunch.",
    "fees": "Free",
    "website": "https://www.countyofsb.org/908/Kellogg-Tennis-Courts",
    "photo_url": "https://cdn.filestackcontent.com/eyL701jtRouMbLVII2EQ",
    "has_water": true,
    "nets_provided": true,
    "skill_levels": "advanced,intermediate",
    "court_type": "dedicated"
  },
  {
    "county_slug": "santa-barbara",
    "state": "CA",
    "verified": false,
    "name": "Minami Community Center",
    "description": "Come play pickleball at Minami Community Center in Santa Maria, CA! There are 3 outdoor hard courts. These are dedicated courts with permanent lines and nets. Players have access to lights and restrooms. The courts are free.",
    "address": "600 West Enos Drive",
    "city": "Santa Maria",
    "latitude": 34.933984,
    "longitude": -120.442684,
    "indoor": false,
    "lighted": true,
    "num_courts": 3,
    "surface_type": "Hard",
    "fees": "Free",
    "phone": "(805) 925-0951",
    "website": "https://www.cityofsantamaria.org/Home/Components/FacilityDirectory/FacilityDirectory/9/",
    "photo_url": "https://cdn.filestackcontent.com/0F8M3kKNQyeRB5atIbkX",
    "has_restrooms": true,
    "nets_provided": true,
    "skill_levels": "advanced,beginner,intermediate",
    "court_type": "dedicated"
  },
  {
    "county_slug": "santa-barbara",
    "state": "CA",
    "verified": false,
    "name": "Municipal Tennis and Pickleball Courts",
    "description": "Municipal Tennis and Pickleball Courts is a place to play pickleball in Santa Barbara, CA. There are 16 outdoor hard courts. These are dedicated courts with permanent lines and nets. You can’t reserve the courts. A one-time fee is required to play. The facility includes amenities like restrooms and water.",
    "address": "1414 Park Pl",
    "city": "Santa Barbara",
    "zip_code": "93103",
    "latitude": 34.422097,
    "longitude": -119.665404,
    "indoor": false,
    "num_courts": 16,
    "surface_type": "Hard",
    "fees": "Fee required — $6",
    "phone": "8055645573",
    "website": "https://sbparksandrec.santabarbaraca.gov/sports-facilities/municipal-tennis-and-pickleball-center",
    "email": "cecilymacgregor@gmail.com",
    "photo_url": "https://cdn.filestackcontent.com/H9m1UepoT62Pb9WOxqor",
    "has_restrooms": true,
    "has_water": true,
    "nets_provided": true,
    "skill_levels": "advanced,intermediate",
    "court_type": "dedicated",
    "has_parking": true
  },
  {
    "county_slug": "santa-barbara",
    "state": "CA",
    "verified": false,
    "name": "Oak Park Tennis Courts",
    "description": "Oak Park Tennis Courts is a place to play pickleball in Santa Barbara, CA. There are 2 outdoor hard courts. The lines are permanent, but you'll need to bring your own net. Reservations are not available. Amenities include water. The courts are free.",
    "address": "300 W Alamar Ave",
    "city": "Santa Barbara",
    "zip_code": "93105",
    "latitude": 34.433166,
    "longitude": -119.726218,
    "indoor": false,
    "num_courts": 2,
    "surface_type": "Hard",
    "fees": "Free",
    "phone": "8056801408",
    "website": "https://www.santabarbaraca.gov/gov/depts/parksrec/recreation/you",
    "photo_url": "https://cdn.filestackcontent.com/TbGTqdgiSx6vgWJi65sL",
    "has_water": true,
    "nets_provided": false,
    "skill_levels": "beginner,intermediate",
    "court_type": "dedicated",
    "hours": "9:00 a.m. to 5:00 p.m., Monday - Thursday, and alternate Fridays . Mailing Address City of Santa Barbara, PO Box 1990 Santa Barbara, CA 93102-1990 Newsletters Sign up for one or more newsletters on many city topics ©2026 Copyright City of Santa Barbara Accessibility | Policies",
    "has_parking": true
  },
  {
    "county_slug": "santa-barbara",
    "state": "CA",
    "verified": false,
    "name": "Pershing Park",
    "description": "Come play pickleball at Pershing Park in Santa Barbara, CA! There are 4 outdoor hard courts. Tape lines have been laid, but you'll need to bring your own net. The facility includes amenities like restrooms, water, and lights. You can’t reserve the courts. The courts are free.",
    "address": "100 Castillo St",
    "city": "Santa Barbara",
    "zip_code": "93101",
    "latitude": 34.407738,
    "longitude": -119.696288,
    "indoor": false,
    "lighted": true,
    "num_courts": 4,
    "surface_type": "Hard",
    "fees": "Free",
    "phone": "8055645573",
    "website": "http://www.downtownsb.org/go/pershing-park",
    "photo_url": "https://cdn.filestackcontent.com/busNtt7RuWVGSq2zxDkm",
    "has_restrooms": true,
    "has_water": true,
    "nets_provided": false,
    "skill_levels": "beginner,intermediate",
    "court_type": "shared"
  },
  {
    "county_slug": "santa-barbara",
    "state": "CA",
    "verified": false,
    "name": "Providence Landing Park",
    "description": "Come play pickleball at Providence Landing Park in Lompoc, CA! There are 4 outdoor concrete courts. These are dedicated courts with permanent lines and nets. The courts are free.",
    "address": "699 Mercury Ave. Lompoc",
    "city": "Lompoc",
    "latitude": 34.691688,
    "longitude": -120.468582,
    "indoor": false,
    "num_courts": 4,
    "surface_type": "Concrete",
    "fees": "Free",
    "website": "http://www.providencelandingpark.org/",
    "photo_url": "https://cdn.filestackcontent.com/zl8YE5L0QjaZMtzhEm3A",
    "nets_provided": true,
    "skill_levels": "advanced,intermediate",
    "court_type": "dedicated",
    "has_parking": true,
    "has_restrooms": true
  },
  {
    "county_slug": "santa-barbara",
    "state": "CA",
    "verified": false,
    "name": "Ryon Memorial Park",
    "description": "Ryon Memorial Park is one of the most popular places to play pickleball in Lompoc, CA. There are 8 outdoor hard courts. These are dedicated courts with permanent lines and nets. Amenities include restrooms and lights. The courts are free.",
    "address": "800 W Ocean Ave",
    "city": "Lompoc",
    "zip_code": "93436",
    "latitude": 34.638842,
    "longitude": -120.467175,
    "indoor": false,
    "lighted": true,
    "num_courts": 8,
    "surface_type": "Hard",
    "fees": "Free",
    "photo_url": "https://cdn.filestackcontent.com/d6wrGhORVOgbA5JpJqHi",
    "has_restrooms": true,
    "nets_provided": true,
    "skill_levels": "advanced,intermediate",
    "court_type": "dedicated"
  },
  {
    "county_slug": "santa-barbara",
    "state": "CA",
    "verified": false,
    "name": "Santa Maria YMCA",
    "description": "Santa Maria YMCA is a place to play pickleball in Orcutt, CA. There is 1 outdoor concrete court. This is a dedicated court with a permanent net and lines. A membership is required to play. Players have access to lights, locker rooms, water, and restrooms. You can reserve the court.",
    "address": "3400 Skyway Dr",
    "city": "Orcutt",
    "latitude": 34.898372,
    "longitude": -120.443027,
    "indoor": false,
    "lighted": true,
    "num_courts": 1,
    "surface_type": "Concrete",
    "open_play_schedule": "Monday - Saturday Opening til Closing \nHours Depending on Reservations Made or Open Play",
    "fees": "Members only",
    "phone": "8059378521",
    "website": "https://www.smvymca.org",
    "photo_url": "https://cdn.filestackcontent.com/2Il8aUDSsWdaO6hTnM0g",
    "has_restrooms": true,
    "has_water": true,
    "nets_provided": true,
    "skill_levels": "advanced,beginner,intermediate",
    "court_type": "dedicated"
  }
]