[
  {
    "county_slug": "shasta",
    "state": "CA",
    "verified": false,
    "name": "Enterprise Park",
    "description": "there are 6 permanent nets and 6 portable nets",
    "address": "4000 Victor Ave",
    "city": "Redding",
    "zip_code": "96002",
    "latitude": 40.547492,
    "longitude": -122.339973,
    "indoor": false,
    "num_courts": 12,
    "surface_type": "Concrete",
    "fees": "Free",
    "phone": "5306386945",
    "website": "https://www.cityofredding.org/Home/Components/FacilityDirectory/FacilityDirectory/60/36?backlist=%2Fdepartments%2Fparks-and-recreation%2Fparks%2Fpark-finder",
    "photo_url": "https://cdn.filestackcontent.com/RZrfp0rTC6YS9Mt7mzFW",
    "has_restrooms": true,
    "has_water": true,
    "wheelchair_accessible": true,
    "nets_provided": true,
    "skill_levels": "advanced,beginner",
    "court_type": "dedicated",
    "has_parking": true
  },
  {
    "county_slug": "shasta",
    "state": "CA",
    "verified": false,
    "name": "Riverview Golf and Country Club",
    "description": "Come play pickleball at Riverview Golf and Country Club in Redding, CA! There are 6 outdoor acrylic courts. These are dedicated courts with permanent lines and nets. Amenities include food, locker rooms, restrooms, water, youth programming, lights, trainers or lessons, and wheelchair accessibility. A membership is required to play.",
    "address": "4384 Bechelli Ln",
    "city": "Redding",
    "latitude": 40.543836,
    "longitude": -122.361968,
    "indoor": false,
    "lighted": true,
    "num_courts": 6,
    "surface_type": "Acrylic",
    "fees": "Members only â€” Contact Membership Director at 530-524-2491 or amy@riverviewgolf.net",
    "phone": "+15305242491",
    "website": "https://www.riverviewgolf.net",
    "email": "amy@riverviewgolf.net",
    "photo_url": "https://cdn.filestackcontent.com/b4snalYST7KWfPnVmwRv",
    "has_restrooms": true,
    "has_water": true,
    "wheelchair_accessible": true,
    "nets_provided": true,
    "skill_levels": "beginner,intermediate",
    "court_type": "dedicated"
  },
  {
    "county_slug": "shasta",
    "state": "CA",
    "verified": false,
    "name": "Sequoia Middle school",
    "description": "Sequoia Middle school is a place to play pickleball in Redding, CA. There are 5 outdoor courts. The lines are permanent, but you'll need to bring your own net. The courts are free. Amenities include lights.",
    "address": "1805 Sequoia St",
    "city": "Redding",
    "zip_code": "96001",
    "latitude": 40.583058,
    "longitude": -122.380458,
    "indoor": false,
    "lighted": true,
    "num_courts": 5,
    "fees": "Free",
    "website": "http://sequoia.reddingschools.net/",
    "photo_url": "https://cdn.filestackcontent.com/b95vBKGRqGtUhxGLAJtx",
    "nets_provided": false,
    "skill_levels": "advanced,beginner,intermediate",
    "court_type": "dedicated"
  },
  {
    "county_slug": "shasta",
    "state": "CA",
    "verified": false,
    "name": "Shasta Lake City Pickleball Complex",
    "description": "Shasta Lake City Pickleball Complex is a place to play pickleball in Shasta Lake, CA. There are 4 outdoor hard courts. These are dedicated courts with permanent lines and nets. The courts are free. The facility includes amenities like water and lights. Reservations are not available.",
    "address": "4238 Vallecito St",
    "city": "Shasta Lake",
    "latitude": 40.674579,
    "longitude": -122.369499,
    "indoor": false,
    "lighted": true,
    "num_courts": 4,
    "surface_type": "Hard",
    "fees": "Free",
    "phone": "5302273470",
    "website": "https://www.cityofshastalake.org/990/Recreation-and-Classes",
    "email": "terrysoasis@gmail.com",
    "photo_url": "https://cdn.filestackcontent.com/lZh2QkXjRkO18UN0tWfq",
    "has_water": true,
    "nets_provided": true,
    "skill_levels": "advanced,beginner",
    "court_type": "dedicated"
  }
]