[
  {
    "county_slug": "siskiyou",
    "state": "CA",
    "verified": false,
    "name": "Montague / Yreka Community Pickleball Courts",
    "description": "Montague / Yreka Community Pickleball Courts is one of the most popular places to play pickleball in Montague, CA. There are 3 outdoor hard courts. The lines are permanent, but you'll need to bring your own net. Amenities include restrooms and lights. The courts are free.",
    "address": "N 14th St",
    "city": "Montague",
    "zip_code": "96064",
    "latitude": 41.730027,
    "longitude": -122.531305,
    "indoor": false,
    "lighted": true,
    "num_courts": 3,
    "surface_type": "Hard",
    "fees": "Free",
    "phone": "5412922772",
    "website": "https://cityofmontagueca.com/",
    "photo_url": "https://cdn.filestackcontent.com/tfbw2k6cTwWkRbCYO4Bg",
    "has_restrooms": true,
    "nets_provided": false,
    "skill_levels": "intermediate",
    "court_type": "dedicated",
    "hours": "Monday-Thursday: 7:30 AM - 4:00 PM Friday: CLOSED Â© 2026 Designed & Hosted by Town Web | Accessibility | Privacy Policy"
  },
  {
    "county_slug": "siskiyou",
    "state": "CA",
    "verified": false,
    "name": "Pickleball Courts at Mt Shasta",
    "description": "Come play pickleball at Pickleball Courts at Mt Shasta in Mount Shasta, CA! There are 8 outdoor asphalt courts. These are dedicated courts with permanent lines and nets. The facility includes amenities like restrooms and water. The courts are free.",
    "address": "1000 Siskiyou Lake Blvd",
    "city": "Mount Shasta",
    "zip_code": "96067",
    "latitude": 41.286419,
    "longitude": -122.319048,
    "indoor": false,
    "num_courts": 8,
    "surface_type": "Asphalt",
    "fees": "Free",
    "phone": "5308593294",
    "website": "https://www.siskiyoupickleball.com",
    "email": "treasurer@mtshastapbc.com",
    "photo_url": "https://cdn.filestackcontent.com/WWSgFc9pR2OXk0bGpwUR",
    "has_restrooms": true,
    "has_water": true,
    "nets_provided": true,
    "skill_levels": "beginner,intermediate",
    "court_type": "dedicated"
  },
  {
    "county_slug": "siskiyou",
    "state": "CA",
    "verified": false,
    "name": "Scott Valley Berean Church",
    "description": "Come play pickleball at Scott Valley Berean Church in Etna, CA! There are 2 indoor concrete courts. Tape lines have been laid, and portable nets are available. The courts are free. The facility includes amenities like restrooms.",
    "address": "134 Church Street",
    "city": "Etna",
    "latitude": 41.45486,
    "longitude": -122.89767,
    "indoor": true,
    "num_courts": 2,
    "surface_type": "Concrete",
    "fees": "Free",
    "phone": "+15304673715",
    "website": "https://scottvalleyberean.org/",
    "email": "svbc@sisqtel.net",
    "photo_url": "https://cdn.filestackcontent.com/zzBtUTSTeLWoxcvmtlYg",
    "has_restrooms": true,
    "nets_provided": true,
    "skill_levels": "advanced,beginner,intermediate",
    "court_type": "shared"
  },
  {
    "county_slug": "siskiyou",
    "state": "CA",
    "verified": false,
    "name": "Siskiyou Family YMCA",
    "description": "Siskiyou Family YMCA is one of the most popular places to play pickleball in Yreka, CA. There are 3 indoor wood courts. The lines are permanent, and portable nets are available. Players have access to restrooms and water. A membership is required to play.",
    "address": "350 N Foothill Dr",
    "city": "Yreka",
    "zip_code": "96097",
    "latitude": 41.732238,
    "longitude": -122.628937,
    "indoor": true,
    "num_courts": 3,
    "surface_type": "Wood",
    "fees": "Members only — $8/day drop-in or YMCA membership",
    "phone": "5308429622",
    "website": "http://www.siskiyouymca.org/",
    "photo_url": "https://cdn.filestackcontent.com/6OLQtoWS5SUWlY19Jky7",
    "has_restrooms": true,
    "has_water": true,
    "nets_provided": true,
    "skill_levels": "advanced,beginner",
    "court_type": "dedicated"
  }
]