[
  {
    "county_slug": "solano",
    "state": "CA",
    "verified": false,
    "name": "Allan Witt Sports Center",
    "description": "Allan Witt Sports Center is a place to play pickleball in Fairfield, CA. There are 16 outdoor hard courts. These are dedicated courts with permanent lines and nets. Amenities include restrooms, water, and lights. The courts are free.",
    "address": "1741 W Texas St",
    "city": "Fairfield",
    "zip_code": "94533",
    "latitude": 38.249137,
    "longitude": -122.059334,
    "indoor": false,
    "lighted": true,
    "num_courts": 16,
    "surface_type": "Hard",
    "fees": "Free",
    "phone": "+17073868838",
    "website": "https://www.fairfield.ca.gov/government/city-departments/parks-and-recreation/aquatics",
    "email": "dclaire40@att.net",
    "photo_url": "https://cdn.filestackcontent.com/UOc4ncbGSzqCAElDAAEH",
    "has_restrooms": true,
    "has_water": true,
    "nets_provided": true,
    "skill_levels": "beginner,intermediate",
    "court_type": "dedicated"
  },
  {
    "county_slug": "solano",
    "state": "CA",
    "verified": false,
    "name": "Amador Park",
    "description": "Amador Park is a place to play pickleball in Vallejo, CA. There are 2 outdoor hard and concrete courts. These are dedicated courts with permanent lines and nets. Reservations are available. Amenities include lights and restrooms. The courts are free.",
    "address": "401 Amador St",
    "city": "Vallejo",
    "latitude": 38.103188,
    "longitude": -122.243805,
    "indoor": false,
    "lighted": true,
    "num_courts": 2,
    "surface_type": "Hard, Concrete",
    "fees": "Free",
    "phone": "7076484600",
    "website": "http://www.gvrd.org/",
    "photo_url": "https://cdn.filestackcontent.com/BKT8yfqLRZugGPGYXjRu",
    "has_restrooms": true,
    "nets_provided": true,
    "skill_levels": "beginner,intermediate",
    "court_type": "dedicated",
    "hours": "8am-5pm"
  },
  {
    "county_slug": "solano",
    "state": "CA",
    "verified": false,
    "name": "Benicia City Gym",
    "description": "Benicia City Gym is one of the most popular places to play pickleball in Benicia, CA. There are 2 indoor hard courts. The lines are permanent, and portable nets are available. Amenities include restrooms, water, lights, and wheelchair accessibility. Reservations are not available. A one-time fee is required to play.",
    "address": "180 E L St",
    "city": "Benicia",
    "zip_code": "94510",
    "latitude": 38.052867,
    "longitude": -122.153858,
    "indoor": true,
    "lighted": true,
    "num_courts": 2,
    "surface_type": "Hard",
    "fees": "Fee required",
    "phone": "7077464285",
    "website": "https://www.ci.benicia.ca.us/calendars",
    "photo_url": "https://cdn.filestackcontent.com/IQ539pklR37NYDJX419K",
    "has_restrooms": true,
    "has_water": true,
    "wheelchair_accessible": true,
    "nets_provided": true,
    "skill_levels": "beginner",
    "court_type": "dedicated",
    "hours": "Monday - Thursday from: 8:30 am to 5:00 pm and alternating Fridays Government Websites by Catalis | Privacy Policy"
  },
  {
    "county_slug": "solano",
    "state": "CA",
    "verified": false,
    "name": "Benicia Community Center",
    "description": "Benicia Community Center is one of the most popular places to play pickleball in Benicia, CA. There is 1 indoor wood and carpet court. The lines are permanent, and portable nets are available. You can’t reserve the court. Amenities include restrooms and water. A one-time fee is required to play.",
    "address": "370 E L St",
    "city": "Benicia",
    "zip_code": "94510",
    "latitude": 38.051183,
    "longitude": -122.150198,
    "indoor": true,
    "num_courts": 1,
    "surface_type": "Wood, Carpet",
    "open_play_schedule": "Second Monday of the month 2:45-4pm is a free newbie/beginners lesson.",
    "fees": "Fee required — $2 per person",
    "phone": "7077464285",
    "website": "https://www.ci.benicia.ca.us/index.asp?SEC=1A0EEED7-7D06-423A-8841-DFED9D4F997B&DE=150A06D7-CBD4-4C0A-AF6B-90592733423C&Type=B_BASIC",
    "photo_url": "https://cdn.filestackcontent.com/awPLMVVVThi94Af97Le7",
    "has_restrooms": true,
    "has_water": true,
    "nets_provided": true,
    "skill_levels": "beginner",
    "court_type": "dedicated",
    "hours": "Monday - Thursday from: 8:30 am to 5:00 pm and alternating Fridays Government Websites by Catalis | Privacy Policy"
  },
  {
    "county_slug": "solano",
    "state": "CA",
    "verified": false,
    "name": "Benicia Middle School",
    "description": "Benicia Middle School is a place to play pickleball in Benicia, CA. There are 2 indoor hard and concrete courts. The lines are permanent, but you'll need to bring your own net. The courts are free. The courts cannot be reserved. The facility includes amenities like lights and restrooms.",
    "address": "1100 Southampton Rd",
    "city": "Benicia",
    "zip_code": "94510",
    "latitude": 38.06801,
    "longitude": -122.17212,
    "indoor": true,
    "lighted": true,
    "num_courts": 2,
    "surface_type": "Hard, Concrete",
    "fees": "Free",
    "phone": "+17077478340",
    "website": "http://www.beniciaunified.org/",
    "photo_url": "https://cdn.filestackcontent.com/VKKcNwLOQ2yXkz4Yze94",
    "has_restrooms": true,
    "nets_provided": false,
    "skill_levels": "beginner",
    "court_type": "dedicated"
  },
  {
    "county_slug": "solano",
    "state": "CA",
    "verified": false,
    "name": "Georgie Duke Sports Center",
    "description": "Come play pickleball at Georgie Duke Sports Center in Vacaville, CA! There are 6 indoor wood courts. The lines are permanent, but you'll need to bring your own net. A one-time fee is required to play. The courts can be reserved. Players have access to food and restrooms.",
    "address": "720 E Monte Vista Ave",
    "city": "Vacaville",
    "zip_code": "95688",
    "latitude": 38.358787,
    "longitude": -121.984965,
    "indoor": true,
    "num_courts": 6,
    "surface_type": "Wood",
    "fees": "Fee required — $7 per person",
    "phone": "7073017341",
    "website": "https://www.facebook.com/groups/547623989616982",
    "email": "D.stow2020@yahoo.com",
    "photo_url": "https://cdn.filestackcontent.com/47YcmmNoS6KslEjenUqN",
    "has_restrooms": true,
    "nets_provided": false,
    "skill_levels": "beginner",
    "court_type": "dedicated"
  },
  {
    "county_slug": "solano",
    "state": "CA",
    "verified": false,
    "name": "Glen Cove Park",
    "description": "Come play pickleball at Glen Cove Park in Vallejo, CA! There are 4 outdoor asphalt courts. These are dedicated courts with permanent lines and nets. Players have access to restrooms and water. The courts are free.",
    "address": "501 Glen Cove Pkwy",
    "city": "Vallejo",
    "zip_code": "94591",
    "latitude": 38.07339,
    "longitude": -122.20681,
    "indoor": false,
    "num_courts": 4,
    "surface_type": "Asphalt",
    "fees": "Free",
    "website": "https://www.gvrd.org/gvrd-parks/parks/",
    "photo_url": "https://cdn.filestackcontent.com/WfxoKHPjS3UNi0QSV08L",
    "has_restrooms": true,
    "has_water": true,
    "nets_provided": true,
    "skill_levels": "beginner,intermediate",
    "court_type": "dedicated"
  },
  {
    "county_slug": "solano",
    "state": "CA",
    "verified": false,
    "name": "In-Shape Fairfield Dover",
    "description": "In-Shape Fairfield Dover is a place to play pickleball in Fairfield, CA. There are 8 outdoor concrete courts. The lines are permanent, and portable nets are available. Amenities include restrooms, water, and lights. A membership is required to play.",
    "address": "3001 Dover Ave",
    "city": "Fairfield",
    "zip_code": "94533",
    "latitude": 38.284735,
    "longitude": -122.025766,
    "indoor": false,
    "lighted": true,
    "num_courts": 8,
    "surface_type": "Concrete",
    "fees": "Members only",
    "phone": "7074164622",
    "website": "https://www.inshape.com/gyms/fairfield-dover-california-94533?utm_source=Yext&utm_medium=Listing&utm_campaign=GOOGLE",
    "photo_url": "https://cdn.filestackcontent.com/T0feHBqKQ0Cfxsm6vmbw",
    "has_restrooms": true,
    "has_water": true,
    "nets_provided": true,
    "skill_levels": "beginner,intermediate",
    "court_type": "dedicated"
  },
  {
    "county_slug": "solano",
    "state": "CA",
    "verified": false,
    "name": "Mare Island courts",
    "description": "Mare Island courts is a place to play pickleball in Vallejo, CA. There are 3 outdoor acrylic courts. These are dedicated courts with permanent lines and nets. You can reserve the courts. The courts are free. Amenities include lights.",
    "address": "746 Walnut Ave",
    "city": "Vallejo",
    "latitude": 38.094021,
    "longitude": -122.269671,
    "indoor": false,
    "lighted": true,
    "num_courts": 3,
    "surface_type": "Acrylic",
    "fees": "Free",
    "phone": "+14155724685",
    "email": "eterry@writeme.com",
    "photo_url": "https://cdn.filestackcontent.com/0Srpj2j9RBGc7pUeTYvc",
    "nets_provided": true,
    "skill_levels": "beginner",
    "court_type": "dedicated"
  },
  {
    "county_slug": "solano",
    "state": "CA",
    "verified": false,
    "name": "Millennium Sports Club Rancho Solano",
    "description": "Come play pickleball at Millennium Sports Club Rancho Solano in Fairfield, CA! There are 8 outdoor concrete courts. These are dedicated courts with permanent lines and nets. A membership is required to play. Reservations are available. The facility includes amenities like restrooms, water, and lights.",
    "address": "3254 Rancho Solano Pkwy",
    "city": "Fairfield",
    "zip_code": "94534",
    "latitude": 38.292216,
    "longitude": -122.072574,
    "indoor": false,
    "lighted": true,
    "num_courts": 8,
    "surface_type": "Concrete",
    "fees": "Members only",
    "phone": "7074382582",
    "website": "https://www.inshape.com/gyms/fairfield-rancho-solano-california-94534?utm_source=Yext&utm_medium=Listing&utm_campaign=GOOGLE",
    "photo_url": "https://cdn.filestackcontent.com/3nrnf3IeSAblMM1KtdMQ",
    "has_restrooms": true,
    "has_water": true,
    "nets_provided": true,
    "skill_levels": "advanced,beginner,intermediate",
    "court_type": "dedicated"
  },
  {
    "county_slug": "solano",
    "state": "CA",
    "verified": false,
    "name": "Millennium Sportsclub Vacaville",
    "description": "Millennium Sportsclub Vacaville is one of the most popular places to play pickleball in Vacaville, CA. There are 6 outdoor concrete courts. The lines are permanent, but you'll need to bring your own net. Amenities include restrooms, water, and lights. A membership is required to play.",
    "address": "3446 Browns Valley Rd",
    "city": "Vacaville",
    "zip_code": "95688",
    "latitude": 38.388826,
    "longitude": -121.978775,
    "indoor": false,
    "lighted": true,
    "num_courts": 6,
    "surface_type": "Concrete",
    "fees": "Members only",
    "phone": "7074462350",
    "website": "https://www.inshape.com/gyms/vacaville-browns-valley-california-95688?utm_source=Yext&utm_medium=Listing&utm_campaign=GOOGLE",
    "photo_url": "https://cdn.filestackcontent.com/GzmAmJ3KRm4VENdCuMdN",
    "has_restrooms": true,
    "has_water": true,
    "nets_provided": false,
    "skill_levels": "beginner,intermediate",
    "court_type": "dedicated"
  },
  {
    "county_slug": "solano",
    "state": "CA",
    "verified": false,
    "name": "North Orchard Park",
    "description": "North Orchard Park is one of the most popular places to play pickleball in Vacaville, CA. There are 6 outdoor concrete courts. These are dedicated courts with permanent lines and nets. The courts are free.",
    "address": "675 N Orchard Ave",
    "city": "Vacaville",
    "zip_code": "95688",
    "latitude": 38.371269,
    "longitude": -122.004614,
    "indoor": false,
    "num_courts": 6,
    "surface_type": "Concrete",
    "fees": "Free",
    "photo_url": "https://cdn.filestackcontent.com/DfyHqgNKS8yKkhPOyvYf",
    "nets_provided": true,
    "skill_levels": "beginner,intermediate",
    "court_type": "dedicated"
  },
  {
    "county_slug": "solano",
    "state": "CA",
    "verified": false,
    "name": "Three Oaks Community Center",
    "description": "Three Oaks Community Center is a place to play pickleball in Vacaville, CA. There are 4 outdoor hard courts. The lines are permanent, but you'll need to bring your own net. Players have access to restrooms, water, and lights. The courts are free.",
    "address": "1100 Alamo Dr",
    "city": "Vacaville",
    "zip_code": "95687",
    "latitude": 38.340706,
    "longitude": -121.994643,
    "indoor": false,
    "lighted": true,
    "num_courts": 4,
    "surface_type": "Hard",
    "fees": "Free",
    "phone": "7074496127",
    "website": "https://www.ci.vacaville.ca.us/government/parks-and-recreation/aquatics",
    "photo_url": "https://cdn.filestackcontent.com/TMjmIrEJSuqgySTTLkjX",
    "has_restrooms": true,
    "has_water": true,
    "nets_provided": false,
    "skill_levels": "beginner,intermediate",
    "court_type": "dedicated"
  },
  {
    "county_slug": "solano",
    "state": "CA",
    "verified": false,
    "name": "Trilogy Rio Vista",
    "description": "Come play pickleball at Trilogy Rio Vista in Rio Vista, CA! There are 4 outdoor courts. The lines are permanent, but you'll need to bring your own net. Players have access to food, restrooms, water, and wheelchair accessibility. The courts are private.",
    "address": "860 Summerset Dr",
    "city": "Rio Vista",
    "zip_code": "94571",
    "latitude": 38.180063,
    "longitude": -121.715496,
    "indoor": false,
    "num_courts": 4,
    "fees": "Private",
    "phone": "4158278448",
    "website": "https://mytrv.org/",
    "photo_url": "https://cdn.filestackcontent.com/5YcmaeDaQ2y2LHZN168X",
    "has_restrooms": true,
    "has_water": true,
    "wheelchair_accessible": true,
    "nets_provided": false,
    "court_type": "dedicated"
  }
]