[
  {
    "county_slug": "sonoma",
    "state": "CA",
    "verified": false,
    "name": "Apex Athletics",
    "description": "Apex Athletics is a place to play pickleball in Santa Rosa, CA. There are 4 indoor hard courts. Tape lines have been laid, and portable nets are available. The courts are free. You can reserve the courts.",
    "address": "533 Pacific Avenue",
    "city": "Santa Rosa",
    "latitude": 38.453521,
    "longitude": -122.716813,
    "indoor": true,
    "num_courts": 4,
    "surface_type": "Hard",
    "fees": "Free",
    "phone": "+17072378447",
    "website": "https://apexathletics707.com/",
    "photo_url": "https://cdn.filestackcontent.com/rjs3zGrTQR6ufJyl2iF3",
    "nets_provided": true,
    "skill_levels": "beginner,intermediate",
    "court_type": "shared"
  },
  {
    "county_slug": "sonoma",
    "state": "CA",
    "verified": false,
    "name": "Brook Haven Middle School",
    "description": "Brook Haven Middle School is one of the most popular places to play pickleball in Sebastopol, CA. There are 3 outdoor asphalt courts. The lines are overlaid on a tennis court, so the net is a little taller than a normal pickleball net. The courts are free. The facility includes amenities like lights.",
    "address": "7905 Valentine Ave",
    "city": "Sebastopol",
    "zip_code": "95472",
    "latitude": 38.402049,
    "longitude": -122.836892,
    "indoor": false,
    "lighted": true,
    "num_courts": 3,
    "surface_type": "Asphalt",
    "open_play_schedule": "Weekday play after school hours. Lights turn off at 10pm",
    "fees": "Free",
    "phone": "7073211565",
    "website": "https://brookhaven.sebastopolschools.org/",
    "photo_url": "https://cdn.filestackcontent.com/fKuYPWkETO9JlTHufNwG",
    "skill_levels": "beginner,intermediate",
    "court_type": "dedicated"
  },
  {
    "county_slug": "sonoma",
    "state": "CA",
    "verified": false,
    "name": "Cassidy Ranch",
    "description": "Enjoy our pickleball court surrounded by lush flower fields and overlooking rolling vineyard hills.\n\nBooking includes rackets, balls, and a speaker. Guests also get access to our picnic area and picnic table as part of the booking.",
    "address": "22661 S Central Ave",
    "city": "Sonoma",
    "latitude": 38.250259,
    "longitude": -122.417976,
    "indoor": false,
    "num_courts": 1,
    "surface_type": "Hard",
    "fees": "Fee required — $40/hour",
    "phone": "6176101424",
    "website": "http://www.cassidy-ranch.com",
    "photo_url": "https://cdn.filestackcontent.com/NefJzIyuQheH4xrl6vBr",
    "has_restrooms": true,
    "has_water": true,
    "has_pro_shop": true,
    "nets_provided": true,
    "skill_levels": "beginner",
    "court_type": "dedicated"
  },
  {
    "county_slug": "sonoma",
    "state": "CA",
    "verified": false,
    "name": "Cloverdale Furber Park",
    "description": "Cloverdale Furber Park is a place to play pickleball in Cloverdale, CA. There are 2 outdoor asphalt courts. These are dedicated courts with permanent lines and nets. The courts are free. Reservations are not available. Amenities include restrooms.",
    "address": "S Foothill Blvd",
    "city": "Cloverdale",
    "latitude": 38.792394,
    "longitude": -123.020517,
    "indoor": false,
    "num_courts": 2,
    "surface_type": "Asphalt",
    "fees": "Free",
    "photo_url": "https://cdn.filestackcontent.com/nY9UnSB2SIaYDOkNARJ5",
    "has_restrooms": true,
    "nets_provided": true,
    "court_type": "dedicated"
  },
  {
    "county_slug": "sonoma",
    "state": "CA",
    "verified": false,
    "name": "CPC",
    "description": "CPC is a place to play pickleball in Sebastopol, CA. There is 1 outdoor court.",
    "address": "HGR",
    "city": "Sebastopol",
    "latitude": 38.402113,
    "longitude": -122.824267,
    "indoor": false,
    "num_courts": 1,
    "skill_levels": "beginner"
  },
  {
    "county_slug": "sonoma",
    "state": "CA",
    "verified": false,
    "name": "Del Oro Park",
    "description": "Del Oro Park is one of the most popular places to play pickleball in Petaluma, CA. There is 1 outdoor hard court. The lines are permanent, and portable nets are available. The court is free. The court cannot be reserved.",
    "address": "1228 Del Sol Way",
    "city": "Petaluma",
    "latitude": 38.237689,
    "longitude": -122.597825,
    "indoor": false,
    "num_courts": 1,
    "surface_type": "Hard",
    "fees": "Free",
    "website": "http://cityofpetaluma.net/",
    "photo_url": "https://cdn.filestackcontent.com/GPIKiRG5TWeFpCqUwr72",
    "nets_provided": true,
    "skill_levels": "beginner,intermediate",
    "court_type": "dedicated",
    "hours": "Thursday, 8am-5pm"
  },
  {
    "county_slug": "sonoma",
    "state": "CA",
    "verified": false,
    "name": "DoubleTree by Hilton Sonoma Wine Country",
    "description": "Can book court time through Resort Pass",
    "address": "1 DoubleTree Drive",
    "city": "Rohnert Park",
    "latitude": 38.365373,
    "longitude": -122.708059,
    "indoor": false,
    "num_courts": 8,
    "surface_type": "Hard",
    "fees": "Fee required — $10 for 2 hours per court",
    "phone": "7075845466",
    "website": "https://www.hilton.com/en/hotels/rlsc-dt-doubletree-sonoma-wine-country/?SEO_id=GMB-AMER-DT-RLSCDT&y_source=1_MTM3Mjc4NC03MTUtbG9jYXRpb24ud2Vic2l0ZQ%3D%3D",
    "email": "RLSC_Frontoffice@hilton.com",
    "photo_url": "https://cdn.filestackcontent.com/R1QWcYjAQiWhWN7prtZt",
    "has_restrooms": true,
    "has_water": true,
    "wheelchair_accessible": true,
    "nets_provided": true,
    "skill_levels": "beginner,intermediate",
    "court_type": "dedicated"
  },
  {
    "county_slug": "sonoma",
    "state": "CA",
    "verified": false,
    "name": "Finley Community Center: Santa Rosa Recreation & Parks",
    "description": "Finley Community Center: Santa Rosa Recreation & Parks is a place to play pickleball in Santa Rosa, CA. There are 12 outdoor asphalt courts. These are dedicated courts with permanent lines and nets. The courts are free. Reservations are not available. Amenities include restrooms and water.",
    "address": "2060 W College Ave",
    "city": "Santa Rosa",
    "zip_code": "95401",
    "latitude": 38.444179,
    "longitude": -122.74924,
    "indoor": false,
    "num_courts": 12,
    "surface_type": "Asphalt",
    "fees": "Free",
    "phone": "7075433737",
    "website": "http://www.santarosarec.com/",
    "photo_url": "https://cdn.filestackcontent.com/7l7XD6kLS2ejAy57h5rM",
    "has_restrooms": true,
    "has_water": true,
    "nets_provided": true,
    "skill_levels": "beginner,intermediate",
    "court_type": "dedicated",
    "hours": "M-F, 8am-6pm - Contact Us Accessibility (ADA) Copyright Notices Site Map /QuickLinks.aspx Government Websites by CivicPlus® Loading Loading Do Not Show Again Close Arrow Left Arrow Right [] Slideshow Left Arrow Slideshow Right Arrow"
  },
  {
    "county_slug": "sonoma",
    "state": "CA",
    "verified": false,
    "name": "Galvin Community Park",
    "description": "Come play pickleball at Galvin Community Park in Santa Rosa, CA! There are 4 outdoor hard courts. These are dedicated courts with permanent lines and nets. The courts are free. Amenities include lights.",
    "address": "3330 Yulupa Circle",
    "city": "Santa Rosa",
    "latitude": 38.42258,
    "longitude": -122.659506,
    "indoor": false,
    "lighted": true,
    "num_courts": 4,
    "surface_type": "Hard",
    "fees": "Free",
    "phone": "(707) 543-3281",
    "photo_url": "https://cdn.filestackcontent.com/HtitQa2LRbuOTVStNbS4",
    "nets_provided": true,
    "skill_levels": "beginner,intermediate",
    "court_type": "dedicated"
  },
  {
    "county_slug": "sonoma",
    "state": "CA",
    "verified": false,
    "name": "Giorgi Park",
    "description": "Come play pickleball at Giorgi Park in Healdsburg, CA! There are 2 outdoor hard courts. The lines are permanent, but you'll need to bring your own net. Reservations are not available. The courts are free.",
    "address": "540 University St",
    "city": "Healdsburg",
    "zip_code": "95448",
    "latitude": 38.61565,
    "longitude": -122.863049,
    "indoor": false,
    "num_courts": 2,
    "surface_type": "Hard",
    "fees": "Free",
    "phone": "+17074313301",
    "website": "https://www.ci.healdsburg.ca.us/Facilities/Facility/Details/Giorgi-Park-16",
    "photo_url": "https://cdn.filestackcontent.com/7EZAgPmZRruJtv2G82SO",
    "nets_provided": false,
    "skill_levels": "beginner,intermediate",
    "court_type": "dedicated",
    "hours": "8am – 8pm",
    "has_parking": true,
    "has_restrooms": true
  },
  {
    "county_slug": "sonoma",
    "state": "CA",
    "verified": false,
    "name": "Healdsburg Community Center",
    "description": "Sign up on Playtime scheduler to play indoors.",
    "address": "1557 Healdsburg Ave",
    "city": "Healdsburg",
    "zip_code": "95448",
    "latitude": 38.633272,
    "longitude": -122.874133,
    "indoor": true,
    "num_courts": 1,
    "surface_type": "Asphalt",
    "fees": "Free",
    "website": "http://ci.healdsburg.ca.us/924/community-center",
    "photo_url": "https://cdn.filestackcontent.com/I8bYsT5OSy3rKbQKNxDt",
    "nets_provided": false,
    "skill_levels": "beginner",
    "court_type": "dedicated",
    "has_parking": true
  },
  {
    "county_slug": "sonoma",
    "state": "CA",
    "verified": false,
    "name": "Healdsburg High School",
    "description": "Healdsburg High School is a place to play pickleball in Healdsburg, CA. There are 4 outdoor hard courts. These are dedicated courts with permanent lines and nets. Players have access to lights. The courts are free.",
    "address": "Monte Vista Ave",
    "city": "Healdsburg",
    "zip_code": "95448",
    "latitude": 38.624367,
    "longitude": -122.866946,
    "indoor": false,
    "lighted": true,
    "num_courts": 4,
    "surface_type": "Hard",
    "open_play_schedule": "Monitored Play during school hours and sign in required. Open play on weekends.",
    "fees": "Free",
    "website": "http://healdsburgusd-ca.schoolloop.com/",
    "photo_url": "https://cdn.filestackcontent.com/mhAhCnZyTLeyQqaaNMEy",
    "nets_provided": true,
    "skill_levels": "beginner,intermediate",
    "court_type": "dedicated",
    "hours": "6 PM – 8 PM"
  },
  {
    "county_slug": "sonoma",
    "state": "CA",
    "verified": false,
    "name": "Henry N. Pacheco Memorial Playground",
    "description": "Henry N. Pacheco Memorial Playground is a place to play pickleball in Guerneville, CA. There are 2 outdoor hard courts. The lines are overlaid on a tennis court, so the net is a little taller than a normal pickleball net. Players have access to food. The courts are free.",
    "address": "14100 Old Cazadero Rd",
    "city": "Guerneville",
    "zip_code": "95446",
    "latitude": 38.496829,
    "longitude": -123.008887,
    "indoor": false,
    "num_courts": 2,
    "surface_type": "Hard",
    "fees": "Free",
    "phone": "7078699184",
    "website": "https://russianriverrecpark.org/facilities/pacheco-park-playground-tennis-courts/",
    "photo_url": "https://cdn.filestackcontent.com/vUIxvE9BSYGNGR78DTe0",
    "skill_levels": "beginner,intermediate",
    "court_type": "dedicated"
  },
  {
    "county_slug": "sonoma",
    "state": "CA",
    "verified": false,
    "name": "Hiram Lewis Park",
    "description": "Hiram Lewis Park is one of the most popular places to play pickleball in Windsor, CA. There are 5 outdoor asphalt courts. These are dedicated courts with permanent lines and nets. The courts are free. Amenities include restrooms, water, and lights.",
    "address": "9680 Brooks Rd S",
    "city": "Windsor",
    "zip_code": "95492",
    "latitude": 38.559539,
    "longitude": -122.807058,
    "indoor": false,
    "lighted": true,
    "num_courts": 5,
    "surface_type": "Asphalt",
    "fees": "Free",
    "phone": "6082121537",
    "website": "https://www.townofwindsor.com/405/Community-Parks",
    "photo_url": "https://cdn.filestackcontent.com/wRZFrL9URoumNrvCsCPA",
    "has_restrooms": true,
    "has_water": true,
    "nets_provided": true,
    "skill_levels": "beginner,intermediate",
    "court_type": "dedicated",
    "hours": "Monday to Thursday 7 am to 6 pm Government Websites by CivicPlus® Loading Loading Do Not Show Again Close Arrow Left Arrow Right [] Slideshow Left Arrow Slideshow Right Arrow"
  },
  {
    "county_slug": "sonoma",
    "state": "CA",
    "verified": false,
    "name": "Howarth Park",
    "description": "Howarth Park is a place to play pickleball in Santa Rosa, CA. There are 4 outdoor asphalt courts. These are dedicated courts with permanent lines and nets. The courts are free. The courts cannot be reserved. Players have access to restrooms, water, and lights.",
    "address": "630 Summerfield Rd",
    "city": "Santa Rosa",
    "zip_code": "95405",
    "latitude": 38.452297,
    "longitude": -122.668213,
    "indoor": false,
    "lighted": true,
    "num_courts": 4,
    "surface_type": "Asphalt",
    "fees": "Free",
    "phone": "7075433737",
    "website": "https://srcity.org/1271/Howarth-Park",
    "photo_url": "https://cdn.filestackcontent.com/jWlnTzG6TeWYaIDeIwMv",
    "has_restrooms": true,
    "has_water": true,
    "nets_provided": true,
    "skill_levels": "advanced,beginner,intermediate",
    "court_type": "dedicated",
    "hours": "M-F, 8am-6pm - Contact Us Accessibility (ADA) Copyright Notices Site Map /QuickLinks.aspx Government Websites by CivicPlus® Loading Loading Do Not Show Again Close Arrow Left Arrow Right [] Slideshow Left Arrow Slideshow Right Arrow"
  },
  {
    "county_slug": "sonoma",
    "state": "CA",
    "verified": false,
    "name": "Lucchesi Park",
    "description": "Come play pickleball at Lucchesi Park in Petaluma, CA! There are 4 outdoor hard courts. The lines are overlaid on a tennis court, so the net is a little taller than a normal pickleball net. Players have access to restrooms, water, and lights. You can’t reserve the courts. The courts are free.",
    "address": "320 N McDowell Blvd",
    "city": "Petaluma",
    "zip_code": "94954",
    "latitude": 38.25279,
    "longitude": -122.630353,
    "indoor": false,
    "lighted": true,
    "num_courts": 4,
    "surface_type": "Hard",
    "fees": "Free",
    "phone": "7077784380",
    "website": "https://cityofpetaluma.org/lucchesi-park/",
    "photo_url": "https://cdn.filestackcontent.com/kyY0seeKSOy27T58GOK1",
    "has_restrooms": true,
    "has_water": true,
    "skill_levels": "beginner,intermediate",
    "court_type": "dedicated"
  },
  {
    "county_slug": "sonoma",
    "state": "CA",
    "verified": false,
    "name": "Montage Healdsburg, Private",
    "description": "My name is Daniel Murillo, and I am the Activities Manager at the resort. Our pickleball courts are for residence owners and resort guests only. There is no one-time fee to access our courts. Just don't want there to be any confusion!",
    "address": "100 Montage Way",
    "city": "Healdsburg",
    "zip_code": "95448",
    "latitude": 38.64906,
    "longitude": -122.857602,
    "indoor": false,
    "num_courts": 2,
    "fees": "Private",
    "website": "https://www.montagehotels.com/healdsburg/",
    "photo_url": "https://cdn.filestackcontent.com/8FvsOwXPTbMyRu9n6yik",
    "nets_provided": true,
    "court_type": "dedicated"
  },
  {
    "county_slug": "sonoma",
    "state": "CA",
    "verified": false,
    "name": "Monte Rio Tennis Courts",
    "description": "Monte Rio Tennis Courts is a place to play pickleball in Monte Rio, CA. There are 2 outdoor concrete courts. You’ll have to create your own lines and bring your own net. The courts are free. Players have access to restrooms and water.",
    "address": "9925 Main St",
    "city": "Monte Rio",
    "zip_code": "95462",
    "latitude": 38.464991,
    "longitude": -123.009179,
    "indoor": false,
    "num_courts": 2,
    "surface_type": "Concrete",
    "fees": "Free",
    "phone": "7078652487",
    "website": "http://www.mrrpd.org/",
    "photo_url": "https://cdn.filestackcontent.com/1ZoSs8i1Spmdcjmjsmdv",
    "has_restrooms": true,
    "has_water": true,
    "nets_provided": false,
    "skill_levels": "advanced,beginner",
    "court_type": "shared",
    "has_parking": true
  },
  {
    "county_slug": "sonoma",
    "state": "CA",
    "verified": false,
    "name": "Oakmont East Recreation Center",
    "description": "Come play pickleball at Oakmont East Recreation Center in Santa Rosa, CA! There are 6 outdoor concrete courts. These are dedicated courts with permanent lines and nets. The facility includes amenities like locker rooms, restrooms, and trainers or lessons. The courts are private.",
    "address": "7902 Oakmont Dr",
    "city": "Santa Rosa",
    "latitude": 38.422527,
    "longitude": -122.581259,
    "indoor": false,
    "num_courts": 6,
    "surface_type": "Concrete",
    "fees": "Private — Oakmont Pickleball Club; $25 Annually for residents of Oakmont Village",
    "website": "https://oakmontpickleballclub.com",
    "photo_url": "https://cdn.filestackcontent.com/E18TxZ13Q629ecRau3Wt",
    "has_restrooms": true,
    "nets_provided": true,
    "skill_levels": "advanced,intermediate",
    "court_type": "dedicated"
  },
  {
    "county_slug": "sonoma",
    "state": "CA",
    "verified": false,
    "name": "Occidental PB Courts",
    "description": "Come play pickleball at Occidental PB Courts in Occidental, CA! There are 4 outdoor asphalt courts. These are dedicated courts with permanent lines and nets. The facility includes amenities like lights, restrooms, water, and wheelchair accessibility. The courts are free.",
    "address": "3849 Bohemian Highway",
    "city": "Occidental",
    "latitude": 38.40967,
    "longitude": -122.948486,
    "indoor": false,
    "lighted": true,
    "num_courts": 4,
    "surface_type": "Asphalt",
    "fees": "Free",
    "website": "https://www.facebook.com/groups/occidentalpickleball/",
    "has_restrooms": true,
    "has_water": true,
    "wheelchair_accessible": true,
    "nets_provided": true,
    "skill_levels": "advanced,beginner,intermediate",
    "court_type": "dedicated"
  },
  {
    "county_slug": "sonoma",
    "state": "CA",
    "verified": false,
    "name": "Sonoma Family YMCA",
    "description": "Sonoma Family YMCA is one of the most popular places to play pickleball in Santa Rosa, CA. There are 2 indoor hard courts. Tape lines have been laid, and portable nets are available. A one-time fee is required to play. Players have access to restrooms, locker rooms, and water.",
    "address": "1111 College Ave",
    "city": "Santa Rosa",
    "latitude": 38.445544,
    "longitude": -122.713537,
    "indoor": true,
    "num_courts": 2,
    "surface_type": "Hard",
    "fees": "Fee required — $15 (non-members, includes day pass to facility); Guests of members $5 (65+), $8 (18-64)",
    "phone": "+17075459622",
    "website": "https://www.scfymca.org/group-exercise",
    "email": "hlawson@scfymca.org",
    "photo_url": "https://cdn.filestackcontent.com/XjRpXW9dRaqJFNjr6Cto",
    "has_restrooms": true,
    "has_water": true,
    "nets_provided": true,
    "skill_levels": "beginner",
    "court_type": "shared"
  },
  {
    "county_slug": "sonoma",
    "state": "CA",
    "verified": false,
    "name": "Sonoma Golf Club",
    "description": "Come play pickleball at Sonoma Golf Club in Sonoma, CA! There are 2 outdoor hard courts. The lines are permanent, and portable nets are available. Players have access to restrooms. A membership is required to play.",
    "address": "17700 Arnold Dr",
    "city": "Sonoma",
    "latitude": 38.313665,
    "longitude": -122.501072,
    "indoor": false,
    "num_courts": 2,
    "surface_type": "Hard",
    "fees": "Members only",
    "phone": "+17079960300",
    "website": "https://www.sonomagolfclub.com/lifestyle/racquet-sports",
    "email": "gpruett@sonomagolfclub.com",
    "photo_url": "https://cdn.filestackcontent.com/zn6BLJsRrGJTMrTT7E2A",
    "has_restrooms": true,
    "nets_provided": true,
    "court_type": "dedicated"
  },
  {
    "county_slug": "sonoma",
    "state": "CA",
    "verified": false,
    "name": "Sonoma-Marin Fairgrounds",
    "description": "Sonoma-Marin Fairgrounds is one of the most popular places to play pickleball in Petaluma, CA. There are 3 outdoor hard courts. These are dedicated courts with permanent lines and nets. The courts are free.",
    "address": "175 Fairgrounds Dr",
    "city": "Petaluma",
    "latitude": 38.242088,
    "longitude": -122.630207,
    "indoor": false,
    "num_courts": 3,
    "surface_type": "Hard",
    "fees": "Free",
    "photo_url": "https://cdn.filestackcontent.com/Ex2ZH2KEQQy8MYGuXaCN",
    "nets_provided": true,
    "skill_levels": "beginner,intermediate",
    "court_type": "dedicated"
  },
  {
    "county_slug": "sonoma",
    "state": "CA",
    "verified": false,
    "name": "Sunrise Park",
    "description": "Sunrise Park is a place to play pickleball in Rohnert Park, CA. There are 12 outdoor hard courts. These are dedicated courts with permanent lines and nets. Amenities include restrooms, water, and lights. The courts are free.",
    "address": "5301 Snyder Ln",
    "city": "Rohnert Park",
    "zip_code": "94928",
    "latitude": 38.347372,
    "longitude": -122.685533,
    "indoor": false,
    "lighted": true,
    "num_courts": 12,
    "surface_type": "Hard",
    "fees": "Free",
    "phone": "7075883456",
    "photo_url": "https://cdn.filestackcontent.com/1EQXaoTAR8afi2qTac9r",
    "has_restrooms": true,
    "has_water": true,
    "nets_provided": true,
    "skill_levels": "advanced,beginner,intermediate",
    "court_type": "dedicated"
  },
  {
    "county_slug": "sonoma",
    "state": "CA",
    "verified": false,
    "name": "Wikiup Tennis and Swim Club",
    "description": "Pickleball Clinics available for non-members 3X a week! Call us at 707-544-2330 for more information!",
    "address": "500 Wikiup Drive",
    "city": "Santa Rosa",
    "latitude": 38.508249,
    "longitude": -122.750095,
    "indoor": false,
    "num_courts": 2,
    "surface_type": "Hard",
    "open_play_schedule": "Pickleball Clinic",
    "fees": "Private — $35 for nonmembers",
    "phone": "+17075442330",
    "website": "https://wikiupclub.com/",
    "email": "info@wikiupclub.com",
    "photo_url": "https://cdn.filestackcontent.com/wF9wtzy4QG6X5lw2amKP",
    "has_restrooms": true,
    "has_water": true,
    "nets_provided": true,
    "skill_levels": "intermediate",
    "court_type": "dedicated",
    "hours": "Thursday, 3 pm – 6 pm"
  },
  {
    "county_slug": "sonoma",
    "state": "CA",
    "verified": false,
    "name": "Wild Oaks Oakmont Area",
    "description": "Wild Oaks Oakmont Area is one of the most popular places to play pickleball in Santa Rosa, CA. There are 3 outdoor asphalt courts. These are dedicated courts with permanent lines and nets. The courts can be reserved. Amenities include water. The courts are private.",
    "address": "6455 Timber Springs Drive",
    "city": "Santa Rosa",
    "latitude": 38.443202,
    "longitude": -122.613661,
    "indoor": false,
    "num_courts": 3,
    "surface_type": "Asphalt",
    "open_play_schedule": "Weekdays after 3pm and weekends all day",
    "fees": "Private",
    "phone": "6614781504",
    "email": "Rifkindken@gmail.com",
    "photo_url": "https://cdn.filestackcontent.com/wW3Hmu7kRO2pDbbIXtS6",
    "has_water": true,
    "nets_provided": true,
    "skill_levels": "advanced,intermediate",
    "court_type": "dedicated"
  }
]