[
  {
    "county_slug": "stanislaus",
    "state": "CA",
    "verified": false,
    "name": "Beyer Park",
    "description": "Beyer Park is one of the most popular places to play pickleball in Modesto, CA. There are 16 outdoor hard courts. The lines are permanent, but you'll need to bring your own net. Players have access to restrooms and water. The courts are free.",
    "address": "3700 Beyer Park Dr",
    "city": "Modesto",
    "zip_code": "95355",
    "latitude": 37.691564,
    "longitude": -120.970639,
    "indoor": false,
    "num_courts": 16,
    "surface_type": "Hard",
    "fees": "Free",
    "website": "https://www.modestogov.com/2773/Beyer-Community-Park",
    "photo_url": "https://cdn.filestackcontent.com/7ulp7gtESTCJN975CFHY",
    "has_restrooms": true,
    "has_water": true,
    "nets_provided": false,
    "skill_levels": "beginner,intermediate",
    "court_type": "dedicated"
  },
  {
    "county_slug": "stanislaus",
    "state": "CA",
    "verified": false,
    "name": "Brenda Athletic Club Sport Turlock",
    "description": "Come play pickleball at Brenda Athletic Club Sport Turlock in Turlock, CA! There are 4 outdoor asphalt courts. The lines are permanent, but you'll need to bring your own net. Players have access to restrooms and water. A one-time fee is required to play.",
    "address": "201 Tampa St",
    "city": "Turlock",
    "zip_code": "95382",
    "latitude": 37.520646,
    "longitude": -120.851862,
    "indoor": false,
    "num_courts": 4,
    "surface_type": "Asphalt",
    "fees": "Fee required",
    "phone": "2096683838",
    "website": "http://www.brendaathletics.com/",
    "photo_url": "https://cdn.filestackcontent.com/MfGYuEvoTOahTVbah02A",
    "has_restrooms": true,
    "has_water": true,
    "nets_provided": false,
    "skill_levels": "beginner",
    "court_type": "dedicated",
    "hours": "Thursday 4AM - 10PM"
  },
  {
    "county_slug": "stanislaus",
    "state": "CA",
    "verified": false,
    "name": "City Courts",
    "description": "City Courts is one of the most popular places to play pickleball in Riverbank, CA. There are 4 outdoor courts. The lines are permanent, but you'll need to bring your own net. The courts are free. Players have access to lights.",
    "address": "6801 7th St",
    "city": "Riverbank",
    "zip_code": "95367",
    "latitude": 37.7372,
    "longitude": -120.929187,
    "indoor": false,
    "lighted": true,
    "num_courts": 4,
    "fees": "Free",
    "photo_url": "https://cdn.filestackcontent.com/ZuBmH5HTumGUgnuTkYON",
    "nets_provided": false,
    "skill_levels": "beginner,intermediate",
    "court_type": "dedicated"
  },
  {
    "county_slug": "stanislaus",
    "state": "CA",
    "verified": false,
    "name": "Columbia Park",
    "description": "Columbia Park is a place to play pickleball in Turlock, CA. There are 4 outdoor courts. The lines are permanent, but you'll need to bring your own net. Amenities include restrooms. The courts are free.",
    "address": "Columbia St",
    "city": "Turlock",
    "zip_code": "95380",
    "latitude": 37.491745,
    "longitude": -120.856862,
    "indoor": false,
    "num_courts": 4,
    "fees": "Free",
    "website": "https://www.turlock.ca.us/",
    "photo_url": "https://cdn.filestackcontent.com/giLdMe8NQwX8epl4cWQr",
    "has_restrooms": true,
    "nets_provided": false,
    "skill_levels": "beginner,intermediate",
    "court_type": "dedicated"
  },
  {
    "county_slug": "stanislaus",
    "state": "CA",
    "verified": false,
    "name": "Crane Park",
    "description": "Crane Park is one of the most popular places to play pickleball in Turlock, CA. There are 6 outdoor hard courts. The lines are permanent, and portable nets are available. The courts are free.",
    "address": "1555 E Canal Dr",
    "city": "Turlock",
    "latitude": 37.501131,
    "longitude": -120.831427,
    "indoor": false,
    "num_courts": 6,
    "surface_type": "Hard",
    "open_play_schedule": "Courts are being Re-Painting, the courts will be able to play on again in a few days!",
    "fees": "Free",
    "photo_url": "https://cdn.filestackcontent.com/EIny9Gc8QJG7VnuOwX1M",
    "nets_provided": true,
    "skill_levels": "beginner,intermediate",
    "court_type": "dedicated"
  },
  {
    "county_slug": "stanislaus",
    "state": "CA",
    "verified": false,
    "name": "Fish Park",
    "description": "2 tennis courts, pickleball lines are on tennis courts.",
    "address": "Cliffwood Way",
    "city": "Oakdale",
    "latitude": 37.761831,
    "longitude": -120.876043,
    "indoor": false,
    "lighted": true,
    "num_courts": 4,
    "surface_type": "Concrete",
    "open_play_schedule": "7:00 AM to 9:00 PM winter \n7:00 AM to 11:00 PM summer",
    "fees": "Free",
    "phone": "2098453571",
    "website": "https://www.oakdalegov.com",
    "photo_url": "https://cdn.filestackcontent.com/cxU7N8KSD6pVr7JabfVw",
    "wheelchair_accessible": true,
    "nets_provided": false,
    "skill_levels": "beginner,intermediate",
    "court_type": "dedicated"
  },
  {
    "county_slug": "stanislaus",
    "state": "CA",
    "verified": false,
    "name": "Gilbert Park",
    "description": "Come play pickleball at Gilbert Park in Oakdale, CA! There are 4 outdoor hard courts. The lines are permanent, but you'll need to bring your own net. The courts are free. Amenities include lights.",
    "address": "1041 E C St",
    "city": "Oakdale",
    "zip_code": "95361",
    "latitude": 37.773108,
    "longitude": -120.842283,
    "indoor": false,
    "lighted": true,
    "num_courts": 4,
    "surface_type": "Hard",
    "fees": "Free",
    "website": "http://www.ci.oakdale.ca.us/",
    "photo_url": "https://cdn.filestackcontent.com/xmFAm52Tre8KQRAeFBgT",
    "nets_provided": false,
    "skill_levels": "beginner,intermediate",
    "court_type": "dedicated"
  },
  {
    "county_slug": "stanislaus",
    "state": "CA",
    "verified": false,
    "name": "Graceada Park",
    "description": "Graceada Park is a place to play pickleball in Modesto, CA. There are 12 outdoor hard courts. These are dedicated courts with permanent lines and nets. The courts are free. Players have access to restrooms, water, and lights.",
    "address": "401 Needham St",
    "city": "Modesto",
    "zip_code": "95354",
    "latitude": 37.64606,
    "longitude": -120.998178,
    "indoor": false,
    "lighted": true,
    "num_courts": 12,
    "surface_type": "Hard",
    "fees": "Free",
    "phone": "2095775344",
    "website": "https://www.modestogov.com/535/City-Parks-Trails",
    "photo_url": "https://cdn.filestackcontent.com/Tr2q1TvHTf6mXOURrfhq",
    "has_restrooms": true,
    "has_water": true,
    "nets_provided": true,
    "skill_levels": "beginner,intermediate",
    "court_type": "dedicated"
  },
  {
    "county_slug": "stanislaus",
    "state": "CA",
    "verified": false,
    "name": "Greger Sports Park",
    "description": "Come play pickleball at Greger Sports Park in Oakdale, CA! There are 4 outdoor hard courts. These are dedicated courts with permanent lines and nets. The facility includes amenities like restrooms, lights, and water. The courts are free.",
    "address": "Greger Street",
    "city": "Oakdale",
    "latitude": 37.753546,
    "longitude": -120.862005,
    "indoor": false,
    "lighted": true,
    "num_courts": 4,
    "surface_type": "Hard",
    "fees": "Free",
    "phone": "2098453600",
    "email": "Info@oakdalegov.com",
    "photo_url": "https://cdn.filestackcontent.com/TFc52KeBRlOMQmSUZmIf",
    "has_restrooms": true,
    "has_water": true,
    "nets_provided": true,
    "skill_levels": "beginner,intermediate",
    "court_type": "dedicated"
  },
  {
    "county_slug": "stanislaus",
    "state": "CA",
    "verified": false,
    "name": "Ochoa Park",
    "description": "Come play pickleball at Ochoa Park in Ceres, CA! There are 2 outdoor hard courts. These are dedicated courts with permanent lines and nets. The courts are free.",
    "address": "1612 Morello Dr",
    "city": "Ceres",
    "latitude": 37.606689,
    "longitude": -120.925766,
    "indoor": false,
    "num_courts": 2,
    "surface_type": "Hard",
    "fees": "Free",
    "photo_url": "https://cdn.filestackcontent.com/DiZjsjzOSneg6TsOzv5x",
    "nets_provided": true,
    "skill_levels": "beginner,intermediate",
    "court_type": "dedicated"
  },
  {
    "county_slug": "stanislaus",
    "state": "CA",
    "verified": false,
    "name": "Parkwood Park",
    "description": "Parkwood Park is one of the most popular places to play pickleball in Hughson, CA. There are 3 outdoor concrete courts. The lines are permanent, but you'll need to bring your own net. The courts are free.",
    "address": "Redhaven Pl & Apiary Way",
    "city": "Hughson",
    "latitude": 37.607475,
    "longitude": -120.875229,
    "indoor": false,
    "num_courts": 3,
    "surface_type": "Concrete",
    "fees": "Free",
    "nets_provided": false,
    "skill_levels": "advanced,beginner,intermediate",
    "court_type": "dedicated"
  },
  {
    "county_slug": "stanislaus",
    "state": "CA",
    "verified": false,
    "name": "Patterson Tennis Courts",
    "description": "Patterson Tennis Courts is a place to play pickleball in Patterson, CA. There are 8 outdoor courts. The lines are permanent, but you'll need to bring your own net. A one-time fee is required to play.",
    "address": "200 N 7th St",
    "city": "Patterson",
    "zip_code": "95363",
    "latitude": 37.471754,
    "longitude": -121.137263,
    "indoor": false,
    "num_courts": 8,
    "fees": "Fee required",
    "phone": "2098958080",
    "website": "http://pattersonhigh.patterson.k12.ca.us/",
    "photo_url": "https://cdn.filestackcontent.com/86Eh3LvBT4Ss0Kz43seG",
    "nets_provided": false,
    "skill_levels": "beginner,intermediate",
    "court_type": "dedicated"
  },
  {
    "county_slug": "stanislaus",
    "state": "CA",
    "verified": false,
    "name": "Walnut Grove School Gym",
    "description": "Walnut Grove School Gym is a place to play pickleball in Patterson, CA. There are 4 indoor courts. The lines are permanent, but you'll need to bring your own net. A one-time fee is required to play.",
    "address": "775 N Hartley St",
    "city": "Patterson",
    "zip_code": "95363",
    "latitude": 37.484147,
    "longitude": -121.127422,
    "indoor": true,
    "num_courts": 4,
    "fees": "Fee required",
    "phone": "2098958080",
    "website": "http://walnutgrove.patterson.k12.ca.us/",
    "photo_url": "https://cdn.filestackcontent.com/fTHQVN0KRQGU3QpmFNvd",
    "nets_provided": false,
    "skill_levels": "beginner,intermediate",
    "court_type": "dedicated"
  },
  {
    "county_slug": "stanislaus",
    "state": "CA",
    "verified": false,
    "name": "Zerrillo Park",
    "description": "The gate to these courts is locked and pad locked. To obtain a key you have to go to Riverbank city offices, fill out a form, and pay a fee.",
    "address": "2800 Briarcliff Dr",
    "city": "Riverbank",
    "zip_code": "95367",
    "latitude": 37.738809,
    "longitude": -120.942258,
    "indoor": false,
    "num_courts": 8,
    "surface_type": "Hard",
    "open_play_schedule": "They are only open Mondays through Thursdays.",
    "fees": "Free",
    "website": "http://www.riverbank.org/Facilities",
    "photo_url": "https://cdn.filestackcontent.com/l4M2wPjzQNOsyj4q8KSU",
    "has_restrooms": true,
    "has_water": true,
    "nets_provided": true,
    "skill_levels": "beginner,intermediate",
    "court_type": "dedicated",
    "has_parking": true
  }
]