[
  {
    "county_slug": "tehama",
    "state": "CA",
    "verified": false,
    "name": "Marv Woodstrup Tennis Courts",
    "description": "Come play pickleball at Marv Woodstrup Tennis Courts in Red Bluff, CA! There are 4 outdoor asphalt courts. The lines are permanent, but you'll need to bring your own net. The courts are free. Amenities include lights.",
    "address": "1125 Lincoln St",
    "city": "Red Bluff",
    "latitude": 40.177919,
    "longitude": -122.244894,
    "indoor": false,
    "lighted": true,
    "num_courts": 4,
    "surface_type": "Asphalt",
    "fees": "Free",
    "phone": "5305267508",
    "website": "http://www.rbuhsd.k12.ca.us/",
    "photo_url": "https://cdn.filestackcontent.com/pMw76FwJSKyICPl1zsGA",
    "nets_provided": false,
    "skill_levels": "advanced,beginner,intermediate",
    "court_type": "dedicated"
  },
  {
    "county_slug": "tehama",
    "state": "CA",
    "verified": false,
    "name": "Northside Park",
    "description": "Northside Park is a place to play pickleball in Corning, CA. There are 4 outdoor hard courts. These are dedicated courts with permanent lines and nets. The courts are free.",
    "address": "1414 Colusa St",
    "city": "Corning",
    "latitude": 39.931509,
    "longitude": -122.184889,
    "indoor": false,
    "num_courts": 4,
    "surface_type": "Hard",
    "fees": "Free",
    "phone": "+15308247029",
    "website": "https://www.corning.org/",
    "photo_url": "https://cdn.filestackcontent.com/BD2KUms6ScSgALK0vFpN",
    "nets_provided": true,
    "skill_levels": "beginner,intermediate",
    "court_type": "dedicated"
  },
  {
    "county_slug": "tehama",
    "state": "CA",
    "verified": false,
    "name": "Tehama Family Fitness Center",
    "description": "Come play pickleball at Tehama Family Fitness Center in Red Bluff, CA! There are 3 indoor concrete courts. The lines are permanent, but you'll need to bring your own net. A one-time fee is required to play. The facility includes amenities like food, restrooms, and water.",
    "address": "2498 S Main St",
    "city": "Red Bluff",
    "zip_code": "96080",
    "latitude": 40.149057,
    "longitude": -122.217351,
    "indoor": true,
    "num_courts": 3,
    "surface_type": "Concrete",
    "fees": "Fee required",
    "phone": "5305267508",
    "website": "http://www.tehamafamilyfitness.com/",
    "photo_url": "https://cdn.filestackcontent.com/tUXWhqsQcOrSYHyYqakg",
    "has_restrooms": true,
    "has_water": true,
    "nets_provided": false,
    "skill_levels": "beginner,intermediate",
    "court_type": "dedicated"
  }
]