[
  {
    "county_slug": "tulare",
    "state": "CA",
    "verified": false,
    "name": "In Shape Demaree Visalia",
    "description": "In Shape Demaree Visalia is one of the most popular places to play pickleball in Visalia, CA. There are 6 outdoor concrete courts. The lines are permanent, and portable nets are available. Players have access to restrooms, water, and lights. A membership is required to play.",
    "address": "909 N Demaree St",
    "city": "Visalia",
    "zip_code": "93291",
    "latitude": 36.337014,
    "longitude": -119.332615,
    "indoor": false,
    "lighted": true,
    "num_courts": 6,
    "surface_type": "Concrete",
    "fees": "Members only",
    "phone": "5597331041",
    "website": "https://www.inshape.com/gyms/visalia-demaree-california-93291?utm_source=Yext&utm_medium=Listing&utm_campaign=GOOGLE",
    "email": "gayna.hulstine@inshape.com",
    "photo_url": "https://cdn.filestackcontent.com/1iV3khicTxC35YrXQj0B",
    "has_restrooms": true,
    "has_water": true,
    "nets_provided": true,
    "skill_levels": "beginner,intermediate",
    "court_type": "dedicated"
  },
  {
    "county_slug": "tulare",
    "state": "CA",
    "verified": false,
    "name": "KC Park",
    "description": "Come play pickleball at KC Park in Dinuba, CA! There are 2 outdoor concrete courts. These are dedicated courts with permanent lines and nets. The courts are free.",
    "address": "1660 E Kamm Ave",
    "city": "Dinuba",
    "latitude": 36.530822,
    "longitude": -119.377419,
    "indoor": false,
    "num_courts": 2,
    "surface_type": "Concrete",
    "fees": "Free",
    "nets_provided": true,
    "skill_levels": "advanced,beginner",
    "court_type": "dedicated"
  },
  {
    "county_slug": "tulare",
    "state": "CA",
    "verified": false,
    "name": "Lindsay wellness center",
    "description": "Lindsay wellness center is one of the most popular places to play pickleball in Lindsay, CA. There are 2 outdoor concrete courts. These are dedicated courts with permanent lines and nets. The facility includes amenities like lights, restrooms, water, and wheelchair accessibility. A one-time fee is required to play.",
    "address": "860 Sequoia Avenue",
    "city": "Lindsay",
    "latitude": 36.213749,
    "longitude": -119.094492,
    "indoor": false,
    "lighted": true,
    "num_courts": 2,
    "surface_type": "Concrete",
    "fees": "Fee required",
    "phone": "5595625196",
    "website": "https://www.lindsay.ca.us/wellness",
    "photo_url": "https://cdn.filestackcontent.com/XnPyUKjRBGB5vdo7X7hQ",
    "has_restrooms": true,
    "has_water": true,
    "wheelchair_accessible": true,
    "nets_provided": true,
    "skill_levels": "intermediate",
    "court_type": "dedicated"
  },
  {
    "county_slug": "tulare",
    "state": "CA",
    "verified": false,
    "name": "Live Oak Park",
    "description": "Live Oak Park is one of the most popular places to play pickleball in Tulare, CA. There are 2 outdoor courts. The lines are overlaid on a tennis court, so the net is a little taller than a normal pickleball net. The facility includes amenities like restrooms, water, and lights. The courts are free.",
    "address": "600 N Laspina St",
    "city": "Tulare",
    "zip_code": "93274",
    "latitude": 36.21682,
    "longitude": -119.321931,
    "indoor": false,
    "lighted": true,
    "num_courts": 2,
    "fees": "Free",
    "phone": "5597311389",
    "website": "https://www.tulare.ca.gov/Home/Components/FacilityDirectory/FacilityDirectory/24/155",
    "photo_url": "https://cdn.filestackcontent.com/DhL21zCsRBuTrCGAGLCt",
    "has_restrooms": true,
    "has_water": true,
    "skill_levels": "beginner,intermediate",
    "court_type": "dedicated"
  },
  {
    "county_slug": "tulare",
    "state": "CA",
    "verified": false,
    "name": "Plaza Park",
    "description": "Plaza Park is one of the most popular places to play pickleball in Visalia, CA. There are 8 outdoor hard courts. These are dedicated courts with permanent lines and nets. The courts are free. You can reserve the courts. Players have access to restrooms, water, and lights.",
    "address": "9049 W Airport Dr",
    "city": "Visalia",
    "zip_code": "93277",
    "latitude": 36.326311,
    "longitude": -119.393255,
    "indoor": false,
    "lighted": true,
    "num_courts": 8,
    "surface_type": "Hard",
    "fees": "Free",
    "phone": "5599678296",
    "website": "http://www.ci.visalia.ca.us/",
    "photo_url": "https://cdn.filestackcontent.com/f7BuHIoqSuCNPWFxzDKs",
    "has_restrooms": true,
    "has_water": true,
    "nets_provided": true,
    "skill_levels": "advanced,intermediate",
    "court_type": "dedicated"
  },
  {
    "county_slug": "tulare",
    "state": "CA",
    "verified": false,
    "name": "Recreation Park",
    "description": "Recreation Park is one of the most popular places to play pickleball in Visalia, CA. There are 2 outdoor concrete courts. These are dedicated courts with permanent lines and nets. The facility includes amenities like lights. The courts are free.",
    "address": "345 N Jacob St",
    "city": "Visalia",
    "zip_code": "93291",
    "latitude": 36.332332,
    "longitude": -119.30234,
    "indoor": false,
    "lighted": true,
    "num_courts": 2,
    "surface_type": "Concrete",
    "fees": "Free",
    "phone": "5599678296",
    "website": "https://www.visalia.city/depts/parks_n_recreation/",
    "photo_url": "https://cdn.filestackcontent.com/ypfwVCcLSvS8ac5ajX7S",
    "nets_provided": true,
    "skill_levels": "beginner,intermediate",
    "court_type": "dedicated"
  },
  {
    "county_slug": "tulare",
    "state": "CA",
    "verified": false,
    "name": "Three Rivers Union School",
    "description": "Three Rivers Union School is a place to play pickleball in Three Rivers, CA. There are 2 outdoor concrete courts. These are dedicated courts with permanent lines and nets. The courts are free.",
    "address": "41932 Sierra Drive",
    "city": "Three Rivers",
    "latitude": 36.441739,
    "longitude": -118.903424,
    "indoor": false,
    "num_courts": 2,
    "surface_type": "Concrete",
    "fees": "Free",
    "website": "https://www.3rusd.org/",
    "photo_url": "https://cdn.filestackcontent.com/O5pP6YZRW2y5a7juC0Bw",
    "nets_provided": true,
    "skill_levels": "beginner,intermediate",
    "court_type": "shared"
  }
]