[
  {
    "county_slug": "tuolumne",
    "state": "CA",
    "verified": false,
    "name": "Foundation Sports Park",
    "description": "Come play pickleball at Foundation Sports Park in Sonora, CA! There are 4 outdoor hard courts. These are dedicated courts with permanent lines and nets. The courts are free.",
    "address": "18501 Striker Ct",
    "city": "Sonora",
    "latitude": 37.958609,
    "longitude": -120.315201,
    "indoor": false,
    "num_courts": 4,
    "surface_type": "Hard",
    "fees": "Free",
    "phone": "2096007529",
    "website": "https://www.ysftc.org/",
    "photo_url": "https://cdn.filestackcontent.com/dFiLa6JrTaarTL77prOX",
    "nets_provided": true,
    "skill_levels": "beginner,intermediate",
    "court_type": "dedicated"
  },
  {
    "county_slug": "tuolumne",
    "state": "CA",
    "verified": false,
    "name": "Pine Mountain Lake Club",
    "description": "Pine Mountain Lake Club is one of the most popular places to play pickleball in Groveland, CA. There are 6 outdoor hard courts. These are dedicated courts with permanent lines and nets. A one-time fee is required to play. Amenities include lights.",
    "address": "12765 Mueller Dr",
    "city": "Groveland",
    "zip_code": "95321",
    "latitude": 37.85221,
    "longitude": -120.2146,
    "indoor": false,
    "lighted": true,
    "num_courts": 6,
    "surface_type": "Hard",
    "fees": "Fee required",
    "phone": "2099628615",
    "website": "https://www.pinemountainlake.com/the-grill/",
    "photo_url": "https://cdn.filestackcontent.com/oXmyy1IpTz66Svx7T66C",
    "nets_provided": true,
    "skill_levels": "advanced,intermediate",
    "court_type": "dedicated"
  },
  {
    "county_slug": "tuolumne",
    "state": "CA",
    "verified": false,
    "name": "Twain Harte",
    "description": "Come play pickleball at Twain Harte in Twain Harte, CA! There are 2 outdoor concrete and hard courts. These are dedicated courts with permanent lines and nets. The courts are free.",
    "address": "Golf Club Dr",
    "city": "Twain Harte",
    "zip_code": "95383",
    "latitude": 38.032775,
    "longitude": -120.237466,
    "indoor": false,
    "num_courts": 2,
    "surface_type": "Concrete, Hard",
    "fees": "Free",
    "website": "https://twainhartegolfcourse.com/",
    "photo_url": "https://cdn.filestackcontent.com/QNhq0a4DTyGkHT4LH1e3",
    "nets_provided": true,
    "skill_levels": "beginner,intermediate",
    "court_type": "dedicated"
  },
  {
    "county_slug": "tuolumne",
    "state": "CA",
    "verified": false,
    "name": "Veterans Park",
    "description": "Veterans Park is a place to play pickleball in Mather, CA. There is 1 outdoor hard court. The lines are overlaid on a tennis court, so the net is a little taller than a normal pickleball net. The court is free.",
    "address": "4535 Excelsior Rd",
    "city": "Mather",
    "zip_code": "95655",
    "latitude": 38.545588,
    "longitude": -121.282359,
    "indoor": false,
    "num_courts": 1,
    "surface_type": "Hard",
    "fees": "Free",
    "phone": "(916) 842-3300",
    "website": "https://crpd.com/parks/veterans-park/",
    "photo_url": "https://cdn.filestackcontent.com/GJgfvSgKRnOifY5qZBSR",
    "skill_levels": "beginner,intermediate",
    "court_type": "dedicated"
  }
]