[
  {
    "county_slug": "ventura",
    "state": "CA",
    "verified": false,
    "name": "Arroyo Vista Community Park",
    "description": "Arroyo Vista Community Park is one of the most popular places to play pickleball in Moorpark, CA. There are 8 outdoor concrete courts. The lines are permanent, and portable nets are available. The facility includes amenities like lights, water, wheelchair accessibility, and restrooms. The courts are free.",
    "address": "4550 Tierra Rejada Rd",
    "city": "Moorpark",
    "latitude": 34.273346,
    "longitude": -118.895567,
    "indoor": false,
    "lighted": true,
    "num_courts": 8,
    "surface_type": "Concrete",
    "fees": "Free",
    "website": "http://www.moorparkca.gov",
    "photo_url": "https://cdn.filestackcontent.com/6p2zbWxER7KkZHqrSanr",
    "has_restrooms": true,
    "has_water": true,
    "wheelchair_accessible": true,
    "nets_provided": true,
    "skill_levels": "beginner,intermediate",
    "court_type": "dedicated"
  },
  {
    "county_slug": "ventura",
    "state": "CA",
    "verified": false,
    "name": "Bob Kildee Community Park",
    "description": "Bob Kildee Community Park is a place to play pickleball in Camarillo, CA. There are 6 outdoor concrete courts. These are dedicated courts with permanent lines and nets. The courts are free. You can reserve the courts. Players have access to restrooms, water, and lights.",
    "address": "1030 Temple Ave",
    "city": "Camarillo",
    "zip_code": "93010",
    "latitude": 34.228873,
    "longitude": -119.028462,
    "indoor": false,
    "lighted": true,
    "num_courts": 6,
    "surface_type": "Concrete",
    "fees": "Free",
    "phone": "(805) 482-1996",
    "website": "https://www.pvrpd.org/bob-kildee-community-park",
    "email": "nancyorrcamarillopb@gmail.com",
    "photo_url": "https://cdn.filestackcontent.com/pU0L5j90RFG4Qz5QDTy0",
    "has_restrooms": true,
    "has_water": true,
    "nets_provided": true,
    "skill_levels": "advanced,beginner,intermediate",
    "court_type": "dedicated"
  },
  {
    "county_slug": "ventura",
    "state": "CA",
    "verified": false,
    "name": "City Hall Grounds",
    "description": "City Hall Grounds is one of the most popular places to play pickleball in Ojai, CA. There are 4 outdoor hard courts. These are dedicated courts with permanent lines and nets. The courts are free. Players have access to restrooms.",
    "address": "401 South Ventura Street",
    "city": "Ojai",
    "latitude": 34.444591,
    "longitude": -119.247344,
    "indoor": false,
    "num_courts": 4,
    "surface_type": "Hard",
    "fees": "Free",
    "phone": "+18053201597",
    "website": "http://www.ojaipickleball.org",
    "email": "tim@ojaipickleball.org",
    "photo_url": "https://cdn.filestackcontent.com/LnvSrQ2lTkioRIahAzOC",
    "has_restrooms": true,
    "nets_provided": true,
    "skill_levels": "advanced,beginner,intermediate",
    "court_type": "dedicated"
  },
  {
    "county_slug": "ventura",
    "state": "CA",
    "verified": false,
    "name": "Deerhill Park",
    "description": "Deerhill Park is one of the most popular places to play pickleball in Oak Park, CA. There are 6 outdoor hard and concrete courts. These are dedicated courts with permanent lines and nets. Amenities include lights. The courts are free. Reservations are not available.",
    "address": "6700 Doubletree Rd",
    "city": "Oak Park",
    "latitude": 34.185295,
    "longitude": -118.759968,
    "indoor": false,
    "lighted": true,
    "num_courts": 6,
    "surface_type": "Hard, Concrete",
    "fees": "Free",
    "phone": "+18188659304",
    "website": "https://www.rsrpd.org/business_detail_T9_R26.php",
    "email": "info@rsrpd.us",
    "photo_url": "https://cdn.filestackcontent.com/POO0dbWQpCHBFLjkPzYP",
    "nets_provided": true,
    "skill_levels": "beginner,intermediate",
    "court_type": "dedicated",
    "has_restrooms": true
  },
  {
    "county_slug": "ventura",
    "state": "CA",
    "verified": false,
    "name": "Del Prado Playfields",
    "description": "Del Prado Playfields is one of the most popular places to play pickleball in Thousand Oaks, CA. There are 4 outdoor hard courts. The lines are permanent, and portable nets are available. The courts are free. Reservations are not available. Amenities include restrooms, water, and lights.",
    "address": "402 Calle Del Prado",
    "city": "Thousand Oaks",
    "zip_code": "91320",
    "latitude": 34.170445,
    "longitude": -118.969796,
    "indoor": false,
    "lighted": true,
    "num_courts": 4,
    "surface_type": "Hard",
    "fees": "Free",
    "phone": "(805) 495-6471",
    "website": "https://www.crpd.org/park/del-prado-playfield/",
    "email": "parks@crpd.org",
    "photo_url": "https://cdn.filestackcontent.com/cGFynkJXQiKE7urX5oC0",
    "has_restrooms": true,
    "has_water": true,
    "nets_provided": true,
    "skill_levels": "advanced,intermediate",
    "court_type": "dedicated"
  },
  {
    "county_slug": "ventura",
    "state": "CA",
    "verified": false,
    "name": "Dos Vientos Community Center",
    "description": "Dos Vientos Community Center is a place to play pickleball in Thousand Oaks, CA. There are 3 indoor wood courts. The lines are permanent, and portable nets are available. Amenities include restrooms, water, and lights. The courts are free.",
    "address": "4801 Borchard Rd",
    "city": "Thousand Oaks",
    "latitude": 34.174226,
    "longitude": -118.984287,
    "indoor": true,
    "lighted": true,
    "num_courts": 3,
    "surface_type": "Wood",
    "fees": "Free",
    "phone": "8053751003",
    "website": "https://www.crpd.org/park/dos-vientos-community-park/",
    "email": "dvc@crpd.org",
    "photo_url": "https://cdn.filestackcontent.com/PbNd3o3iQ7aS4DfuVUJj",
    "has_restrooms": true,
    "has_water": true,
    "nets_provided": true,
    "skill_levels": "advanced,intermediate",
    "court_type": "dedicated"
  },
  {
    "county_slug": "ventura",
    "state": "CA",
    "verified": false,
    "name": "Estella Park",
    "description": "Estella Park is a place to play pickleball in Thousand Oaks, CA. There is 1 outdoor hard court. The lines are permanent, but you'll need to bring your own net. Players have access to lights and restrooms. The court is free.",
    "address": "300 Erbes Rd. Thousand Oaks",
    "city": "Thousand Oaks",
    "latitude": 34.180555,
    "longitude": -118.847646,
    "indoor": false,
    "lighted": true,
    "num_courts": 1,
    "surface_type": "Hard",
    "fees": "Free",
    "website": "https://www.crpd.org/park/estella-park/",
    "photo_url": "https://cdn.filestackcontent.com/mGX4OwRRjGc3uJgl7Tcs",
    "has_restrooms": true,
    "nets_provided": false,
    "skill_levels": "beginner,intermediate",
    "court_type": "dedicated"
  },
  {
    "county_slug": "ventura",
    "state": "CA",
    "verified": false,
    "name": "Fillmore Tennis and Swim Center",
    "description": "Come play pickleball at Fillmore Tennis and Swim Center in Fillmore, CA! There are 2 outdoor hard courts. The lines are permanent, and portable nets are available. The facility includes amenities like restrooms. A one-time fee is required to play.",
    "address": "575 1st St",
    "city": "Fillmore",
    "latitude": 34.402534,
    "longitude": -118.916598,
    "indoor": false,
    "num_courts": 2,
    "surface_type": "Hard",
    "fees": "Fee required",
    "phone": "+18055244902",
    "photo_url": "https://cdn.filestackcontent.com/IAo4QnYWQk23yQ4hxdrI",
    "has_restrooms": true,
    "nets_provided": true,
    "skill_levels": "beginner,intermediate",
    "court_type": "dedicated"
  },
  {
    "county_slug": "ventura",
    "state": "CA",
    "verified": false,
    "name": "Harry A. Lyon Park",
    "description": "Harry A. Lyon Park is one of the most popular places to play pickleball in Ventura, CA. There are 10 outdoor hard courts. The lines are permanent, but you'll need to bring your own net. You can’t reserve the courts. Amenities include restrooms and water. The courts are free.",
    "address": "DE Anza Dr",
    "city": "Ventura",
    "zip_code": "93001",
    "latitude": 34.301227,
    "longitude": -119.293837,
    "indoor": false,
    "num_courts": 10,
    "surface_type": "Hard",
    "fees": "Free",
    "phone": "8056524550",
    "email": "leonard.andrews@gmail.com",
    "photo_url": "https://cdn.filestackcontent.com/tE2ih2KBSxqSk3zVIkGE",
    "has_restrooms": true,
    "has_water": true,
    "nets_provided": false,
    "skill_levels": "advanced,intermediate",
    "court_type": "dedicated"
  },
  {
    "county_slug": "ventura",
    "state": "CA",
    "verified": false,
    "name": "Juanamaria Park",
    "description": "Juanamaria Park is one of the most popular places to play pickleball in Ventura, CA. There are 4 outdoor concrete courts. The lines are permanent, but you'll need to bring your own net. The courts are free. Reservations are not available. Players have access to restrooms and water.",
    "address": "N Kimball Rd & Loma Vista Rd",
    "city": "Ventura",
    "latitude": 34.283407,
    "longitude": -119.191732,
    "indoor": false,
    "num_courts": 4,
    "surface_type": "Concrete",
    "fees": "Free",
    "phone": "8056584726",
    "website": "https://www.cityofventura.ca.gov/1952/City-Parks",
    "photo_url": "https://cdn.filestackcontent.com/Bx1yaQ9wTGIlDQVVSUbi",
    "has_restrooms": true,
    "has_water": true,
    "nets_provided": false,
    "skill_levels": "advanced,intermediate",
    "court_type": "dedicated",
    "has_parking": true
  },
  {
    "county_slug": "ventura",
    "state": "CA",
    "verified": false,
    "name": "Lake Casitas Recreation Area",
    "description": "Lake Casitas Recreation Area is a place to play pickleball in Ventura, CA. There are 3 outdoor hard courts. These are dedicated courts with permanent lines and nets. The courts are free.",
    "address": "11311 Santa Ana Rd",
    "city": "Ventura",
    "latitude": 34.409072,
    "longitude": -119.337943,
    "indoor": false,
    "num_courts": 3,
    "surface_type": "Hard",
    "fees": "Free",
    "phone": "+18056491122",
    "website": "https://www.casitaswater.org/recreation",
    "photo_url": "https://cdn.filestackcontent.com/f0E1OQZ3RoqGoOqrZFET",
    "nets_provided": true,
    "skill_levels": "advanced,beginner,intermediate",
    "court_type": "dedicated",
    "has_parking": true
  },
  {
    "county_slug": "ventura",
    "state": "CA",
    "verified": false,
    "name": "Lemon Park",
    "description": "Come play pickleball at Lemon Park in Simi Valley, CA! There are 8 outdoor hard courts. These are dedicated courts with permanent lines and nets. The courts cannot be reserved. The courts are free. Players have access to lights.",
    "address": "3700 Avenida Simi",
    "city": "Simi Valley",
    "latitude": 34.289464,
    "longitude": -118.72324,
    "indoor": false,
    "lighted": true,
    "num_courts": 8,
    "surface_type": "Hard",
    "fees": "Free",
    "phone": "8055844400",
    "website": "https://www.rsrpd.org/simi_valley/parks/rancho_tapo_community_park_(lemon).php",
    "photo_url": "https://cdn.filestackcontent.com/T1HlETyVSbSRdmL4Vs41",
    "nets_provided": true,
    "skill_levels": "beginner,intermediate",
    "court_type": "dedicated"
  },
  {
    "county_slug": "ventura",
    "state": "CA",
    "verified": false,
    "name": "Matilija Jr High School",
    "description": "Come play pickleball at Matilija Jr High School in Ojai, CA! There are 2 outdoor asphalt courts. The courts are free.",
    "address": "703 El Paseo Rd",
    "city": "Ojai",
    "zip_code": "93023",
    "latitude": 34.44597,
    "longitude": -119.254791,
    "indoor": false,
    "num_courts": 2,
    "surface_type": "Asphalt",
    "fees": "Free",
    "website": "https://www.ojaiusd.org/o/mjhs",
    "photo_url": "https://cdn.filestackcontent.com/VakiqZQRjG7nVmvKZzEx",
    "skill_levels": "beginner,intermediate"
  },
  {
    "county_slug": "ventura",
    "state": "CA",
    "verified": false,
    "name": "Miller Park",
    "description": "Miller Park is a place to play pickleball in Moorpark, CA. There are 4 outdoor courts. The lines are permanent, and portable nets are available. The courts are free.",
    "address": "4530 Miller Pkwy",
    "city": "Moorpark",
    "latitude": 34.272909,
    "longitude": -118.862445,
    "indoor": false,
    "num_courts": 4,
    "fees": "Free",
    "phone": "(805) 517-6200",
    "website": "https://www.moorparkca.gov/405/Miller-Park",
    "photo_url": "https://cdn.filestackcontent.com/EeeAz3e8SR60ye3QSXGe",
    "nets_provided": true,
    "skill_levels": "advanced,intermediate",
    "court_type": "dedicated",
    "has_restrooms": true
  },
  {
    "county_slug": "ventura",
    "state": "CA",
    "verified": false,
    "name": "Moranda Park Tennis Complex",
    "description": "Moranda Park Tennis Complex is one of the most popular places to play pickleball in Port Hueneme, CA. There are 10 outdoor hard courts. These are dedicated courts with permanent lines and nets. The facility includes amenities like restrooms. The courts are free.",
    "address": "536 Santa Cruz St",
    "city": "Port Hueneme",
    "zip_code": "93041",
    "latitude": 34.146197,
    "longitude": -119.192695,
    "indoor": false,
    "num_courts": 10,
    "surface_type": "Hard",
    "fees": "Free",
    "phone": "8059866500",
    "website": "http://www.ci.port-hueneme.ca.us/index.aspx?nid=553",
    "photo_url": "https://cdn.filestackcontent.com/LsJoNC0HRi6CHZrfj2M4",
    "has_restrooms": true,
    "nets_provided": true,
    "skill_levels": "advanced,beginner,intermediate",
    "court_type": "dedicated",
    "has_parking": true
  },
  {
    "county_slug": "ventura",
    "state": "CA",
    "verified": false,
    "name": "Ojai Valley Inn Courts",
    "description": "Come play pickleball at Ojai Valley Inn Courts in Ojai, CA! There are 2 outdoor hard courts. These are dedicated courts with permanent lines and nets. The courts are private.",
    "address": "617 Country Club Road",
    "city": "Ojai",
    "latitude": 34.442483,
    "longitude": -119.253345,
    "indoor": false,
    "num_courts": 2,
    "surface_type": "Hard",
    "fees": "Private",
    "phone": "+18556978780",
    "website": "https://www.ojaivalleyinn.com/resort-resort/ojai-california-tennis-resort",
    "photo_url": "https://cdn.filestackcontent.com/r4EeVBpsRXOES01QUQ59",
    "nets_provided": true,
    "skill_levels": "intermediate",
    "court_type": "dedicated"
  },
  {
    "county_slug": "ventura",
    "state": "CA",
    "verified": false,
    "name": "Palm Colony Pickleball Courts",
    "description": "Our courts are located behind the RV lot. There is no water, so please bring your own. We have a few chairs, but you might want to bring a folding chair as well. \nThe gate is kept locked. If you don't have a key, please reach out to PMP for yours.",
    "address": "203 Camino Toluca",
    "city": "Camarillo",
    "latitude": 34.226149,
    "longitude": -119.075225,
    "indoor": false,
    "num_courts": 2,
    "surface_type": "Asphalt",
    "fees": "Private",
    "email": "treasurer@palmcolonyhoa.com",
    "nets_provided": true,
    "skill_levels": "intermediate",
    "court_type": "dedicated"
  },
  {
    "county_slug": "ventura",
    "state": "CA",
    "verified": false,
    "name": "Pickleball Athletic Club",
    "description": "There will be a maximum of 8 players per court allowed during open play.",
    "address": "2000b Anchor Ct",
    "city": "Thousand Oaks",
    "latitude": 34.194815,
    "longitude": -118.922654,
    "indoor": true,
    "lighted": true,
    "num_courts": 9,
    "surface_type": "Acrylic, Hard, Concrete",
    "fees": "Fee required — Membership available, but we also offer open play for $30 per session or hourly court rentals",
    "phone": "8054103494",
    "website": "https://www.playatpac.com",
    "email": "Hello@playatpac.com",
    "photo_url": "https://cdn.filestackcontent.com/jG0h8IGLRhKbMWHQmdmD",
    "has_restrooms": true,
    "has_water": true,
    "has_pro_shop": true,
    "wheelchair_accessible": true,
    "nets_provided": true,
    "skill_levels": "intermediate",
    "court_type": "dedicated"
  },
  {
    "county_slug": "ventura",
    "state": "CA",
    "verified": false,
    "name": "Pitts Ranch Park",
    "description": "Come play pickleball at Pitts Ranch Park in Camarillo, CA! There are 4 outdoor concrete courts. The lines are permanent, and portable nets are available. The facility includes amenities like restrooms and water. The courts are free. Reservations are not available.",
    "address": "1400 Flynn Rd",
    "city": "Camarillo",
    "latitude": 34.23145,
    "longitude": -119.011941,
    "indoor": false,
    "num_courts": 4,
    "surface_type": "Concrete",
    "open_play_schedule": "Open 8:00 a.m. to dusk.",
    "fees": "Free",
    "phone": "(805) 482-1996",
    "website": "https://www.pvrpd.org/pitts-ranch-park",
    "email": "NancyOrrCamarilloPB@gmail.com",
    "photo_url": "https://cdn.filestackcontent.com/Cf3QIaI6T5yIVNxV6d4j",
    "has_restrooms": true,
    "has_water": true,
    "nets_provided": true,
    "skill_levels": "beginner,intermediate",
    "court_type": "dedicated",
    "has_parking": true
  },
  {
    "county_slug": "ventura",
    "state": "CA",
    "verified": false,
    "name": "Rancho Conejo Playfields",
    "description": "There are 6 dedicated pickleball courts on the left and 4 pickleball courts painted over tennis courts on the right.",
    "address": "1000 N Ventu Park Rd",
    "city": "Thousand Oaks",
    "zip_code": "91320",
    "latitude": 34.192901,
    "longitude": -118.918057,
    "indoor": false,
    "lighted": true,
    "num_courts": 10,
    "surface_type": "Concrete",
    "open_play_schedule": "There are dozens of players out 7:30-11am.  Noon to 2pm is quieter. Play picks up again after 3pm.",
    "fees": "Free",
    "phone": "(805) 495-6471",
    "website": "https://www.crpd.org/park/rancho-conejo-playfields/",
    "email": "parks@crpd.org",
    "photo_url": "https://cdn.filestackcontent.com/z2lvq5FRBesq2oVpiVAp",
    "has_restrooms": true,
    "has_water": true,
    "nets_provided": true,
    "skill_levels": "intermediate",
    "court_type": "dedicated"
  },
  {
    "county_slug": "ventura",
    "state": "CA",
    "verified": false,
    "name": "Rancho Simi Community Park",
    "description": "Rancho Simi Community Park is one of the most popular places to play pickleball in Simi Valley, CA. There are 6 outdoor hard and concrete courts. These are dedicated courts with permanent lines and nets. Amenities include lights, restrooms, and water. The courts are free. The courts can be reserved.",
    "address": "1765 Royal Avenue",
    "city": "Simi Valley",
    "latitude": 34.264842,
    "longitude": -118.763481,
    "indoor": false,
    "lighted": true,
    "num_courts": 6,
    "surface_type": "Hard, Concrete",
    "fees": "Free",
    "phone": "+18055844400",
    "website": "https://rsrpd.org/",
    "photo_url": "https://cdn.filestackcontent.com/8V2xDOFgR7ue5EE6fZyx",
    "has_restrooms": true,
    "has_water": true,
    "nets_provided": true,
    "skill_levels": "beginner,intermediate",
    "court_type": "dedicated"
  },
  {
    "county_slug": "ventura",
    "state": "CA",
    "verified": false,
    "name": "Sinaloa Middle School",
    "description": "Come play pickleball at Sinaloa Middle School in Simi Valley, CA! There are 12 outdoor concrete courts. These are dedicated courts with permanent lines and nets. You can’t reserve the courts. The courts are free.",
    "address": "601 Royal Ave",
    "city": "Simi Valley",
    "zip_code": "93065",
    "latitude": 34.264581,
    "longitude": -118.785125,
    "indoor": false,
    "num_courts": 12,
    "surface_type": "Concrete",
    "fees": "Free",
    "phone": "(805) 520-6830",
    "website": "http://www.sinaloa.simivalleyusd.org/",
    "photo_url": "https://cdn.filestackcontent.com/BNWvAsknROmIh4ukx7HI",
    "nets_provided": true,
    "skill_levels": "advanced,beginner,intermediate",
    "court_type": "dedicated"
  },
  {
    "county_slug": "ventura",
    "state": "CA",
    "verified": false,
    "name": "Soule Park",
    "description": "Soule Park is a place to play pickleball in Ojai, CA. There are 5 outdoor hard courts. These are dedicated courts with permanent lines and nets. The courts are free. The facility includes amenities like restrooms and water.",
    "address": "1301 Soule Park Dr",
    "city": "Ojai",
    "zip_code": "93023",
    "latitude": 34.441326,
    "longitude": -119.228894,
    "indoor": false,
    "num_courts": 5,
    "surface_type": "Hard",
    "fees": "Free",
    "phone": "+18056465581",
    "website": "https://ojai.ca.gov/389/Pickleball-Courts",
    "photo_url": "https://cdn.filestackcontent.com/gg7hgbHCSvO7vcFYyVev",
    "has_restrooms": true,
    "has_water": true,
    "nets_provided": true,
    "skill_levels": "advanced,beginner,intermediate",
    "court_type": "dedicated"
  },
  {
    "county_slug": "ventura",
    "state": "CA",
    "verified": false,
    "name": "Springville Park",
    "description": "Springville Park is a place to play pickleball in Camarillo, CA. There are 2 outdoor concrete courts. The lines are permanent, and portable nets are available. The courts are free. The facility includes amenities like lights.",
    "address": "801 Via Zamora",
    "city": "Camarillo",
    "latitude": 34.226105,
    "longitude": -119.087627,
    "indoor": false,
    "lighted": true,
    "num_courts": 2,
    "surface_type": "Concrete",
    "fees": "Free",
    "photo_url": "https://cdn.filestackcontent.com/tyZyapUYTrmsU6QivwMG",
    "nets_provided": true,
    "skill_levels": "beginner",
    "court_type": "dedicated"
  },
  {
    "county_slug": "ventura",
    "state": "CA",
    "verified": false,
    "name": "Sunset Hills Country Club",
    "description": "Sunset Hills Country Club is one of the most popular places to play pickleball in Thousand Oaks, CA. There are 4 outdoor hard courts. These are dedicated courts with permanent lines and nets. Players have access to lights, trainers or lessons, youth programming, restrooms, and water.",
    "address": "4155 Erbes Road",
    "city": "Thousand Oaks",
    "latitude": 34.235088,
    "longitude": -118.844125,
    "indoor": false,
    "lighted": true,
    "num_courts": 4,
    "surface_type": "Hard",
    "phone": "8053904507",
    "website": "https://sunsethillsclub.com",
    "email": "www.funwithpickleball@gmail.com",
    "photo_url": "https://cdn.filestackcontent.com/BiqobmhR2GqV7Bpg4hKL",
    "has_restrooms": true,
    "has_water": true,
    "nets_provided": true,
    "skill_levels": "intermediate",
    "court_type": "dedicated"
  },
  {
    "county_slug": "ventura",
    "state": "CA",
    "verified": false,
    "name": "Thousand Oaks Community Park",
    "description": "Come play pickleball at Thousand Oaks Community Park in Thousand Oaks, CA! There are 3 indoor hard courts. The lines are permanent, and portable nets are available. The courts are free. Amenities include restrooms, water, and lights. The courts can be reserved.",
    "address": "2525 N Moorpark Rd",
    "city": "Thousand Oaks",
    "zip_code": "91360",
    "latitude": 34.213463,
    "longitude": -118.870148,
    "indoor": true,
    "lighted": true,
    "num_courts": 3,
    "surface_type": "Hard",
    "fees": "Free",
    "phone": "(805) 495-6471",
    "website": "https://www.crpd.org/park/thousand-oaks-community-park/",
    "email": "parks@crpd.org",
    "photo_url": "https://cdn.filestackcontent.com/DShMjyWUQxeB2b2njELh",
    "has_restrooms": true,
    "has_water": true,
    "nets_provided": true,
    "skill_levels": "advanced,intermediate",
    "court_type": "dedicated"
  },
  {
    "county_slug": "ventura",
    "state": "CA",
    "verified": false,
    "name": "Tierra Rejada Park",
    "description": "Tierra Rejada Park is a place to play pickleball in Moorpark, CA. There are 4 outdoor asphalt courts. These are dedicated courts with permanent lines and nets. Players have access to restrooms and water. The courts are free.",
    "address": "11900 Mountain Trail St",
    "city": "Moorpark",
    "latitude": 34.267592,
    "longitude": -118.896451,
    "indoor": false,
    "num_courts": 4,
    "surface_type": "Asphalt",
    "open_play_schedule": "Public, open play every",
    "fees": "Free",
    "phone": "(805) 517-6385",
    "website": "http://www.moorparkca.gov/410/Tierra-Rejada-Park",
    "photo_url": "https://cdn.filestackcontent.com/DrPsbudTFOcHbVQitCJM",
    "has_restrooms": true,
    "has_water": true,
    "nets_provided": true,
    "skill_levels": "beginner,intermediate",
    "court_type": "dedicated"
  },
  {
    "county_slug": "ventura",
    "state": "CA",
    "verified": false,
    "name": "Ventura Family YMCA",
    "description": "Come play pickleball at Ventura Family YMCA in Ventura, CA! There is 1 outdoor acrylic court. The lines are permanent, and portable nets are available. The facility includes amenities like lights, youth programming, trainers or lessons, adaptive programming, wheelchair accessibility, restrooms, locker rooms, and water. A membership is required to play.",
    "address": "3760 Telegraph Road",
    "city": "Ventura",
    "latitude": 34.273227,
    "longitude": -119.243949,
    "indoor": false,
    "lighted": true,
    "num_courts": 1,
    "surface_type": "Acrylic",
    "open_play_schedule": "Register at: https://www.ciymca.org/gym#/results",
    "fees": "Members only",
    "phone": "+18056422131",
    "website": "https://www.ciymca.org/locations/ventura-family-ymca?gad_source=1&gad_campaignid=22785956621&gbraid=0AAAAACgIwVLhjhhwcwsK4N25XtLADduR0&gclid=EAIaIQobChMIwePO8cvWjgMVWJzuAR3cUSmHEAAYASAAEgLmYvD_BwE",
    "email": "Ve.Sports@ciymca.org",
    "photo_url": "https://cdn.filestackcontent.com/pKMJyh7AQ0mggdpjevAR",
    "has_restrooms": true,
    "has_water": true,
    "wheelchair_accessible": true,
    "nets_provided": true,
    "skill_levels": "beginner,intermediate",
    "court_type": "dedicated",
    "hours": "30am - 9pm"
  },
  {
    "county_slug": "ventura",
    "state": "CA",
    "verified": false,
    "name": "Via Cresta",
    "description": "Via Cresta is a place to play pickleball in Thousand Oaks, CA. There is 1 outdoor hard court. This is a dedicated court with a permanent net and lines. The court is private. Reservations are not available. Players have access to lights.",
    "address": "464 Via Cresta",
    "city": "Thousand Oaks",
    "zip_code": "91320",
    "latitude": 34.170001,
    "longitude": -118.981934,
    "indoor": false,
    "lighted": true,
    "num_courts": 1,
    "surface_type": "Hard",
    "fees": "Private",
    "photo_url": "https://cdn.filestackcontent.com/h5eFeR7Q8mtQ6Iz4vV26",
    "nets_provided": true,
    "court_type": "dedicated"
  }
]