[
  {
    "county_slug": "yolo",
    "state": "CA",
    "verified": false,
    "name": "Beamer Park",
    "description": "Beamer Park is a place to play pickleball in Woodland, CA. There are 4 outdoor hard courts. The lines are permanent, but you'll need to bring your own net. The courts are free. Players have access to restrooms and water.",
    "address": "100 Palm Ave",
    "city": "Woodland",
    "zip_code": "95695",
    "latitude": 38.687206,
    "longitude": -121.770494,
    "indoor": false,
    "num_courts": 4,
    "surface_type": "Hard",
    "fees": "Free",
    "website": "https://www.cityofwoodland.org/Facilities/Facility/Details/Beamer-Park-24",
    "photo_url": "https://cdn.filestackcontent.com/tFJveYPfTSfsrUMF375g",
    "has_restrooms": true,
    "has_water": true,
    "nets_provided": false,
    "skill_levels": "beginner",
    "court_type": "dedicated",
    "wheelchair_accessible": true
  },
  {
    "county_slug": "yolo",
    "state": "CA",
    "verified": false,
    "name": "Covell Park",
    "description": "Covell Park is a place to play pickleball in Davis, CA. There are 2 outdoor hard courts. The lines are overlaid on a tennis court, so the net is a little taller than a normal pickleball net. The courts are free. Players have access to restrooms and water.",
    "address": "300 Cabrillo Ave",
    "city": "Davis",
    "zip_code": "95616",
    "latitude": 38.566072,
    "longitude": -121.750006,
    "indoor": false,
    "num_courts": 2,
    "surface_type": "Hard",
    "fees": "Free",
    "phone": "5307575626",
    "website": "https://www.cityofdavis.org/",
    "photo_url": "https://cdn.filestackcontent.com/iOIARy2RT222nRnZA6CP",
    "has_restrooms": true,
    "has_water": true,
    "skill_levels": "beginner,intermediate",
    "court_type": "dedicated"
  },
  {
    "county_slug": "yolo",
    "state": "CA",
    "verified": false,
    "name": "Crawford Park",
    "description": "Crawford Park is one of the most popular places to play pickleball in Woodland, CA. There are 6 outdoor hard courts. These are dedicated courts with permanent lines and nets. The courts are free.",
    "address": "1733 College Street",
    "city": "Woodland",
    "latitude": 38.656387,
    "longitude": -121.773721,
    "indoor": false,
    "num_courts": 6,
    "surface_type": "Hard",
    "fees": "Free",
    "phone": "+15306612000",
    "website": "https://www.cityofwoodland.gov/facilities/facility/details/crawfordpark-5",
    "photo_url": "https://cdn.filestackcontent.com/GjOQIq7GSUC7Zl7q0Ga4",
    "nets_provided": true,
    "skill_levels": "beginner,intermediate",
    "court_type": "dedicated",
    "has_parking": true,
    "has_restrooms": true
  },
  {
    "county_slug": "yolo",
    "state": "CA",
    "verified": false,
    "name": "Redwood Park",
    "description": "Come play pickleball at Redwood Park in Davis, CA! There are 4 outdoor hard courts. These are dedicated courts with permanent lines and nets. The courts are free. Amenities include restrooms, wheelchair accessibility, and lights.",
    "address": "1001 Anderson Rd",
    "city": "Davis",
    "zip_code": "95616",
    "latitude": 38.553116,
    "longitude": -121.758895,
    "indoor": false,
    "lighted": true,
    "num_courts": 4,
    "surface_type": "Hard",
    "fees": "Free",
    "website": "http://daviswiki.org/Redwood_Park",
    "photo_url": "https://cdn.filestackcontent.com/bSO5PPftTjem2tjK9pCO",
    "has_restrooms": true,
    "wheelchair_accessible": true,
    "nets_provided": true,
    "skill_levels": "advanced,intermediate",
    "court_type": "dedicated"
  },
  {
    "county_slug": "yolo",
    "state": "CA",
    "verified": false,
    "name": "Slide Hill Park Tennis Courts",
    "description": "Come play pickleball at Slide Hill Park Tennis Courts in Davis, CA! There are 2 outdoor hard courts. The lines are overlaid on a tennis court, so the net is a little taller than a normal pickleball net. Amenities include restrooms and water. The courts are free.",
    "address": "2887 Grinnel Dr",
    "city": "Davis",
    "zip_code": "95618",
    "latitude": 38.560454,
    "longitude": -121.713927,
    "indoor": false,
    "num_courts": 2,
    "surface_type": "Hard",
    "fees": "Free",
    "phone": "5307582000",
    "website": "http://cityofdavis.org/",
    "photo_url": "https://cdn.filestackcontent.com/ninRaWj3TsmDtg8d7OQp",
    "has_restrooms": true,
    "has_water": true,
    "skill_levels": "beginner,intermediate",
    "court_type": "dedicated"
  },
  {
    "county_slug": "yolo",
    "state": "CA",
    "verified": false,
    "name": "Stonegate Country Club",
    "description": "Come play pickleball at Stonegate Country Club in Davis, CA! There are 2 outdoor hard courts. The lines are overlaid on a tennis court, so the net is a little taller than a normal pickleball net. A membership is required to play. The facility includes amenities like restrooms and water.",
    "address": "919 Lake Blvd",
    "city": "Davis",
    "zip_code": "95616",
    "latitude": 38.551961,
    "longitude": -121.788629,
    "indoor": false,
    "num_courts": 2,
    "surface_type": "Hard",
    "fees": "Members only",
    "phone": "5307562285",
    "website": "https://stonegatecc.com/faq/",
    "photo_url": "https://cdn.filestackcontent.com/yNM1bDrcRkS0S8Tp650a",
    "has_restrooms": true,
    "has_water": true,
    "skill_levels": "beginner,intermediate",
    "court_type": "dedicated"
  },
  {
    "county_slug": "yolo",
    "state": "CA",
    "verified": false,
    "name": "Walnut Park",
    "description": "Come play pickleball at Walnut Park in Davis, CA! There are 8 outdoor hard courts. These are dedicated courts with permanent lines and nets. Players have access to restrooms, water, and lights. The courts are free.",
    "address": "2700 Lillard Dr",
    "city": "Davis",
    "zip_code": "95618",
    "latitude": 38.541125,
    "longitude": -121.71959,
    "indoor": false,
    "lighted": true,
    "num_courts": 8,
    "surface_type": "Hard",
    "fees": "Free",
    "phone": "5307575626",
    "website": "http://cityofdavis.org/Home/Components/FacilityDirectory/FacilityDirectory/70/2926?npage=6",
    "photo_url": "https://cdn.filestackcontent.com/VzcBVlzTUSiZHQbNUE5Q",
    "has_restrooms": true,
    "has_water": true,
    "nets_provided": true,
    "skill_levels": "advanced,intermediate",
    "court_type": "dedicated"
  },
  {
    "county_slug": "yolo",
    "state": "CA",
    "verified": false,
    "name": "West Sacramento Recreation Center",
    "description": "West Sacramento Recreation Center is a place to play pickleball in West Sacramento, CA. There are 4 hard courts. 2 are outdoors and 2 are indoors. The lines are permanent, but you'll need to bring your own net. A membership is required to play. Players have access to lights.",
    "address": "2801 Jefferson Blvd",
    "city": "West Sacramento",
    "zip_code": "95691",
    "latitude": 38.545843,
    "longitude": -121.540298,
    "indoor": false,
    "lighted": true,
    "num_courts": 4,
    "surface_type": "Hard",
    "fees": "Members only",
    "phone": "(916) 617-4770",
    "website": "https://www.cityofwestsacramento.org/government/departments/parks-recreation/recreation-center-pool",
    "photo_url": "https://cdn.filestackcontent.com/8DyAL3y0R4OdUDktSfco",
    "nets_provided": false,
    "skill_levels": "advanced,beginner,intermediate",
    "court_type": "dedicated"
  },
  {
    "county_slug": "yolo",
    "state": "CA",
    "verified": false,
    "name": "William Crawford Senior Park",
    "description": "There is open play here most mornings and evenings, with a paddle rack system for busy times. Check https://www.woodlandpickleball.com/ for the full schedule and details.",
    "address": "39615 Co Rd 24A",
    "city": "Woodland",
    "latitude": 38.655371,
    "longitude": -121.773571,
    "indoor": false,
    "lighted": true,
    "num_courts": 6,
    "surface_type": "Acrylic",
    "fees": "Free",
    "phone": "+15306612000",
    "website": "https://www.woodlandpickleball.com/",
    "email": "info@woodlandpickleball.com",
    "photo_url": "https://cdn.filestackcontent.com/kBdavegQzSJB8r7cKJ9e",
    "has_restrooms": true,
    "has_water": true,
    "nets_provided": true,
    "skill_levels": "beginner,intermediate",
    "court_type": "dedicated"
  },
  {
    "county_slug": "yolo",
    "state": "CA",
    "verified": false,
    "name": "Woodland Community and Senior Center",
    "description": "Woodland Community and Senior Center is one of the most popular places to play pickleball in Woodland, CA. There are 4 indoor courts. The lines are permanent, but you'll need to bring your own net. The courts are free. Players have access to restrooms, water, and lights.",
    "address": "2001 East St",
    "city": "Woodland",
    "zip_code": "95776",
    "latitude": 38.653724,
    "longitude": -121.764314,
    "indoor": true,
    "lighted": true,
    "num_courts": 4,
    "fees": "Free",
    "phone": "5306612900",
    "website": "http://www.cityofwoodland.org/CSD",
    "photo_url": "https://cdn.filestackcontent.com/4YeJv1OsTgSTGevEuYDU",
    "has_restrooms": true,
    "has_water": true,
    "nets_provided": false,
    "skill_levels": "beginner,intermediate",
    "court_type": "dedicated"
  }
]